~Version Information Block
 VERS.                2.00:     CWLS LOG ASCII STANDARD - VERSION 2.000000
 WRAP.                  NO:     One Line Per Depth Step
#
~Well Information Block
#MNEM.UNIT                     Data                         Information
#----------   ------------------------------------------   ----------------
 STRT.M                                      2100.0000:     START DEPTH
 STOP.M                                      2374.9296:     STOP DEPTH
 STEP.M                                         0.1524:     STEP
 NULL.                                       -999.2500:     NULL VALUE
 COMP.                                        Alphabow:     COMPANY
 WELL.                  SOC PINE CK 2-29-56-19 #107872:     WELL
 FLD .                                                :     FIELD
 LOC .                                                :     LOCATION
 CNTY.                                                :     COUNTY
 STAT.                                                :     STATE
 CTRY.                                                :     COUNTRY
 SRVC.                                                :     SERVICE COMPANY
 DATE.                                      03/28/2025:     DATE
 API .                                100022905619W500:     API NUMBER
 UWI .                                100022905619W500:     UWI NUMBER
 TVD .                                              NO:     TVD flag
 WSTA.                                             LOC:     Well status
#
~Curve Information Block
#MNEM.UNIT       API CODE      Curve Description
#----------    -------------   -------------------
 DEPT.M                    :   Depth in Meters
 GR  .GAPI     35 310 01 01:   Gamma Ray
 SP  .MV       01 010 01 01:   Spontaneous Potential
 ILD .OHMM     05 120 46 01:   Deep Induction Standard Processed Resistivity
 SFLA.OHMM     10 222 01 01:   SFL Resistivity (Averaged)
#
~Parameter Information Block
#MNEM.UNIT            Value               Description
#----------    --------------------    -------------------
 RUN .                         ONE:    Run Number
 PDAT.                         UNK:    Permanent Datum
 EPD .M                 -9999.5000:    Elevation Of Perm. Datum
 WSTA.                         LOC:    
 TD  .M                  2375.0000:    Total Depth
#
~Other Information Block
<DescLogPlotStart>   NEURALOG PLOT DEFINITION
PLOTDEFVERSION: 3
LASFILE: C:\Users\wadet\Desktop\Alphabow Evaluation\well_info\second_white_spec
DEPTHSCALE: 600.000000
RESOLUTION: 200
DEPTHLABELFREQ: 100.000000
HEAVYGRIDFREQ: 50.000000
MEDIUMGRIDFREQ: 25.000000
LIGHTGRIDFREQ: 25.000000
#
#   TRACK 1
#
STARTTRACK: 
 LEFTX: 0.500000 inch
 RIGHTX: 3.000000 inch
 SCALETYPE: Linear
 NUMCHARTDIVISIONS: 7
CURVE: GR    0.000000   150.000000 (0,0,255)      Solid             2     N    
CURVE: SP    -80.000000 20.000000  (0,131,131)    Dot               2     N    
ENDTRACK: 
#
#   TRACK 2
#
STARTTRACK: 
 LEFTX: 3.500000 inch
 RIGHTX: 6.000000 inch
 SCALETYPE: Linear
 NUMCHARTDIVISIONS: 10
CURVE: ILD   0.000000   50.000000  (255,0,255)    Solid             2     N    
CURVE: SFLA  0.000000   50.000000  (255,0,0)      Dot               2     N    
ENDTRACK: 
<DescLogPlotEnd>
~A DEPTH     GR               SP               ILD              SFLA            
# ...
   2311.2264 119.81883273     -23.40188308     13.83211328      19.89984557     
   2311.3788 120.37274393     -23.39686052     13.79121808      19.99408891     
   2311.5312 121.03934845     -23.39183796     13.75390632      20.09867213     
   2311.6836 121.31852345     -23.38681539     13.83861718      20.18997319     
   2311.8360 121.64304291     -23.38179283     13.92185646      20.29736980     
   2311.9884 121.33154696     -23.37677027     14.00204759      20.49564144     
   2312.1408 121.63668206     -23.37174771     14.08546985      20.50127068     
   2312.2932 122.59462264     -23.36672514     14.16559690      20.49523122     
   2312.4456 123.48044363     -23.36170258     14.24956878      20.50084064     
   2312.5980 125.69605524     -23.35668002     14.32977983      20.49486229     
   2312.7504 123.77627473     -23.35165746     14.41369487      20.50043668     
   2312.9028 121.68359880     -23.34663489     14.42673090      20.49484975     
   2313.0552 120.67221570     -23.34161233     14.31099769      20.28153070     
   2313.2076 117.04210039     -23.33658977     14.19136644      20.01062830     
   2313.3600 117.26036212     -23.33156721     14.07580620      19.75018849     
   2313.5124 117.35077253     -23.32654464     13.95595234      19.47953046     
   2313.6648 118.80941609     -23.32152208     13.84065264      19.21991222     
   2313.8172 121.05681174     -23.31649952     13.72079268      18.94962135     
   2313.9696 124.69765195     -23.31147696     13.60584333      18.69015701     
   2314.1220 126.92202575     -23.30645439     13.48601919      18.41944180     
   2314.2744 128.74023150     -23.30143183     13.37109884      18.16066088     
   2314.4268 131.23515707     -23.29640927     13.25136769      18.04753444     
   2314.5792 132.78700678     -23.29138671     13.14308960      17.86491833     
   2314.7316 131.52356638     -23.28636414     13.23405637      17.68258268     
   2314.8840 129.53574406     -23.28134158     13.32403640      17.51563148     
   2315.0364 127.92831392     -23.27631902     13.41042269      17.33236479     
   2315.1888 126.47951331     -23.27129646     13.49993139      17.16622162     
   2315.3412 124.67805890     -23.26627389     13.58663445      16.98231548     
   2315.4936 119.84580528     -23.26125133     13.67558598      16.81623362     
   2315.6460 118.78314596     -23.25622877     13.76258011      16.63215880     
   2315.7984 117.68816243     -23.25120621     13.85131863      16.42566493     
   2315.9508 116.92549658     -23.24618364     13.93782248      16.93417791     
   2316.1032 115.83262330     -23.24116108     14.20426907      17.61184272     
   2316.2556 114.14494693     -23.23613852     14.53463465      18.27459001     
   2316.4080 113.66734513     -23.23111596     14.86761561      18.95070279     
   2316.5604 115.39671471     -23.22609339     15.19743383      19.61525895     
   2316.7128 115.82748171     -23.22107083     15.53106949      20.28937949     
   2316.8652 117.27162718     -23.21604827     15.86013680      20.95629703     
   2317.0176 117.36521263     -23.21102571     16.20787012      21.62809443     
   2317.1700 116.97154773     -23.20600314     16.76903322      22.29722999     
   2317.3224 115.48839370     -23.20098058     17.36011846      22.96692794     
   2317.4748 115.12146563     -23.19595802     17.94495102      23.63797335     
   2317.6272 117.94997351     -23.19093546     18.53609221      24.30603311     
   2317.7796 119.46108857     -23.18591289     19.12111179      24.97837920     
   2317.9320 119.48156429     -23.18089033     19.71183112      25.64561887     
   2318.0844 120.39598797     -23.17586777     20.29748644      26.31903440     
   2318.2368 121.95076869     -23.17084521     20.49422459      26.98604145     
   2318.3892 121.02272351     -23.16582264     20.39214283      27.00912728     
   2318.5416 119.46993323     -23.16080008     20.23302192      26.63723646     
   2318.6940 120.57977381     -23.15577752     20.07231684      26.27272790     
   2318.8464 121.94650919     -23.15074497     19.91208856      25.90080402     
   2318.9988 122.88390921     -23.14571780     19.75229458      25.53633902     
   2319.1512 124.73406560     -23.14068197     19.57506272      25.16435690     
   2319.3036 125.36289996     -23.13565912     19.27711936      24.79996604     
   2319.4560 124.11799324     -23.13061809     19.02454446      24.42789581     
   2319.6084 121.33804963     -23.12560113     18.77508098      24.06360204     
   2319.7608 119.16887599     -23.12055378     18.52214145      23.69143351     
   2319.9132 119.00711544     -23.11554327     18.27301228      23.32722541     
   2320.0656 119.21278275     -23.11048963     18.01981441      22.95536820     
   2320.2180 119.40576893     -23.10548494     17.77086580      22.65328157     
   2320.3704 119.79082704     -23.10042625     17.51768509      22.71400006     
   2320.5228 121.01712112     -23.09542559     17.26873473      22.77262508     
   2320.6752 123.51370511     -23.09036410     17.01515320      22.82466915     
   2320.8276 123.80210741     -23.08536487     16.92597338      22.88152442     
   2320.9800 123.82763238     -23.08030339     16.92391314      22.93403369     
   2321.1324 126.27926265     -23.06888713     16.77834162      22.98965272     
   2321.2848 126.61864058     -23.05342025     16.70258033      23.04350808     
   2321.4372 127.51201136     -23.03800727     16.63132800      23.09775669     
   2321.5896 129.40747826     -23.02254548     16.55565761      23.15267716     
   2321.7420 129.67212864     -23.00712664     16.48432581      23.20913891     
   2321.8944 130.33443167     -22.99167118     16.40585228      23.26472661     
   2322.0468 131.52104620     -22.97624585     16.33507403      23.32191383     
   2322.1992 131.25746723     -22.96079675     16.25428435      23.37312615     
   2322.3516 129.34262413     -22.94536548     16.18424383      23.67490766     
   2322.5040 126.61304099     -22.92992164     16.10576841      23.95316884     
   2322.6564 124.07477138     -22.91448600     16.11483821      24.24455056     
   2322.8088 122.58737846     -22.89904224     16.10613194      24.51368638     
   2322.9612 125.61607286     -22.88382275     16.21825382      24.81058628     
   2323.1136 128.78876592     -22.86837312     16.63784925      25.07371319     
   2323.2660 130.57409234     -22.85324461     17.08253918      25.37686051     
   2323.4184 133.13349471     -22.83765133     17.50269122      25.63376007     
   2323.5708 133.36300204     -22.82270507     18.45779233      25.94284912     
   2323.7232 130.98082927     -22.80687173     19.97756014      26.20777004     
   2323.8756 129.95499668     -22.79219318     21.51957180      26.34481057     
   2324.0280 127.27682493     -22.77606934     23.14608655      28.62085060     
   2324.1804 125.61401213     -22.76169127     22.95031052      31.11889720     
   2324.3328 125.72587952     -22.74527080     22.73864566      33.54757616     
   2324.4852 121.90287548     -22.73117142     21.95528228      36.03437775     
   2324.6376 116.02114046     -22.71450374     20.08632198      38.46534150     
   2324.7900 112.33934317     -22.70060786     20.51108836      40.95507542     
   2324.9424 108.91208022     -22.68307661     21.85883508      41.63265035     
   2325.0948 105.22107101     -22.66705243     23.20730217      39.50693321     
   2325.2472 101.29218590     -22.78702404     23.63482836      37.31508131     
   2325.3996 105.79923181     -22.93033091     22.41833121      35.19108993     
   2325.5520 112.44222443     -23.06901299     21.20869400      32.99848030     
   2325.7044 117.23698723     -23.21275834     19.99052130      30.87479433     
   2325.8568 121.10932141     -23.35148587     19.10271393      28.68093021     
   2326.0092 125.62019704     -23.49585229     18.87881852      26.14301771     
   2326.1616 126.04778720     -23.63430451     18.66661761      26.30381634     
