~Version Information Block
 VERS.                2.00:     CWLS LOG ASCII STANDARD - VERSION 2.000000
 WRAP.                  NO:     One Line Per Depth Step
#
~Well Information Block
#MNEM.UNIT                     Data                         Information
#----------   ------------------------------------------   ----------------
 STRT.M                                      2100.0000:     START DEPTH
 STOP.M                                      2374.9296:     STOP DEPTH
 STEP.M                                         0.1524:     STEP
 NULL.                                       -999.2500:     NULL VALUE
 COMP.                                        Alphabow:     COMPANY
 WELL.                  SOC PINE CK 2-29-56-19 #107872:     WELL
 FLD .                                                :     FIELD
 LOC .                                                :     LOCATION
 CNTY.                                                :     COUNTY
 STAT.                                                :     STATE
 CTRY.                                                :     COUNTRY
 SRVC.                                                :     SERVICE COMPANY
 DATE.                                      03/28/2025:     DATE
 API .                                100022905619W500:     API NUMBER
 UWI .                                100022905619W500:     UWI NUMBER
 TVD .                                              NO:     TVD flag
 WSTA.                                             LOC:     Well status
#
~Curve Information Block
#MNEM.UNIT       API CODE      Curve Description
#----------    -------------   -------------------
 DEPT.M                    :   Depth in Meters
 GR  .GAPI     35 310 01 01:   Gamma Ray
 SP  .MV       01 010 01 01:   Spontaneous Potential
 ILD .OHMM     05 120 46 01:   Deep Induction Standard Processed Resistivity
 SFLA.OHMM     10 222 01 01:   SFL Resistivity (Averaged)
#
~Parameter Information Block
#MNEM.UNIT            Value               Description
#----------    --------------------    -------------------
 RUN .                         ONE:    Run Number
 PDAT.                         UNK:    Permanent Datum
 EPD .M                 -9999.5000:    Elevation Of Perm. Datum
 WSTA.                         LOC:    
 TD  .M                  2375.0000:    Total Depth
#
~Other Information Block
<DescLogPlotStart>   NEURALOG PLOT DEFINITION
PLOTDEFVERSION: 3
LASFILE: C:\Users\wadet\Desktop\Alphabow Evaluation\well_info\second_white_spec
DEPTHSCALE: 600.000000
RESOLUTION: 200
DEPTHLABELFREQ: 100.000000
HEAVYGRIDFREQ: 50.000000
MEDIUMGRIDFREQ: 25.000000
LIGHTGRIDFREQ: 25.000000
#
#   TRACK 1
#
STARTTRACK: 
 LEFTX: 0.500000 inch
 RIGHTX: 3.000000 inch
 SCALETYPE: Linear
 NUMCHARTDIVISIONS: 7
CURVE: GR    0.000000   150.000000 (0,0,255)      Solid             2     N    
CURVE: SP    -80.000000 20.000000  (0,131,131)    Dot               2     N    
ENDTRACK: 
#
#   TRACK 2
#
STARTTRACK: 
 LEFTX: 3.500000 inch
 RIGHTX: 6.000000 inch
 SCALETYPE: Linear
 NUMCHARTDIVISIONS: 10
CURVE: ILD   0.000000   50.000000  (255,0,255)    Solid             2     N    
CURVE: SFLA  0.000000   50.000000  (255,0,0)      Dot               2     N    
ENDTRACK: 
<DescLogPlotEnd>
~A DEPTH     GR               SP               ILD              SFLA            
# ...
   2175.4380 97.55418945      -28.86552691     12.83672316      13.86127588     
   2175.5904 94.92205525      -28.76796478     13.04839769      15.07519773     
   2175.7428 91.68859762      -28.66895473     13.13809600      15.59736263     
   2175.8952 94.29402134      -28.57116788     13.13705592      16.09676873     
   2176.0476 95.71840824      -28.47238315     13.02366614      16.10687848     
   2176.2000 100.48169249     -28.37438156     12.82067646      15.68992719     
   2176.3524 103.14562619     -28.27579076     12.61893874      15.38992363     
   2176.5048 105.74639430     -28.17762476     12.41620241      14.05794617     
   2176.6572 107.15957146     -28.07916213     12.21434826      13.24311006     
   2176.8096 107.91996787     -27.98090856     12.01165376      13.44758365     
   2176.9620 107.45620017     -27.88249110     11.94244736      13.24044396     
   2177.1144 106.07671158     -27.89472739     11.99955684      13.14276545     
   2177.2668 104.96895199     -28.01804260     12.05833752      13.23861579     
   2177.4192 103.61048729     -28.14149195     12.11396905      13.55192462     
   2177.5716 102.47947394     -28.26478063     12.17468832      14.05416014     
   2177.7240 101.44917837     -28.38827590     12.22879216      14.16367574     
   2177.8764 99.68672242      -28.51152846     12.29161241      14.56453787     
   2178.0288 99.58891929      -28.63509474     12.33552105      14.76398748     
   2178.1812 101.22777832     -28.75796643     12.38376121      14.97572002     
   2178.3336 102.68143768     -28.88157156     12.41461911      15.08275124     
   2178.4860 104.01752925     -29.00427498     12.46631415      15.07955705     
   2178.6384 104.85064462     -29.12813617     12.49398753      14.97872367     
   2178.7908 104.02740178     -29.25050021     12.53270374      14.77490741     
   2178.9432 103.61398566     -29.37477442     12.61895470      14.66863767     
   2179.0956 102.48761237     -29.49666634     12.63553295      14.57204041     
   2179.2480 102.37632847     -29.62145302     12.92421935      14.46269013     
   2179.4004 103.72608134     -29.74281412     13.04414302      14.16571443     
   2179.5528 106.39806883     -29.86831306     12.81616434      14.05260394     
   2179.7052 106.20009097     -29.98931521     12.12489542      13.75888961     
   2179.8576 105.65630849     -30.11528438     12.00631259      13.27193111     
   2180.0100 105.24123793     -30.23590153     11.89142614      12.71687943     
   2180.1624 104.61594221     -30.36215119     11.78891407      12.01023761     
   2180.3148 103.40417988     -30.51236449     11.71283751      11.82065073     
   2180.4672 102.07386622     -30.43646511     11.61353506      12.41942526     
   2180.6196 99.99577739      -30.33003425     11.53399741      12.53475813     
   2180.7720 98.98523349      -30.22882644     11.60289868      12.72684704     
   2180.9244 99.37291079      -30.12283891     11.91512734      12.94187558     
   2181.0768 100.22960280     -30.02102575     12.01262750      13.13632948     
   2181.2292 100.91671412     -29.91578065     12.01630215      13.32676370     
   2181.3816 102.40444841     -29.81312008     12.01351682      13.47929334     
   2181.5340 103.08003958     -29.70878980     12.01591836      13.64384071     
   2181.6864 103.33762988     -29.60518799     12.01416115      13.79891049     
   2181.8388 104.00767600     -29.50178325     11.97828612      13.95768764     
   2181.9912 104.88980015     -29.39731253     11.93958720      13.92469768     
   2182.1436 105.85536818     -29.29468256     11.90493994      13.89429100     
   2182.2960 106.74535309     -29.18955912     11.86654753      13.86339399     
   2182.4484 106.77442003     -29.08737684     11.83236021      13.83178552     
   2182.6008 106.75112577     -28.98193026     11.91049024      13.80148599     
   2182.7532 105.84194552     -28.86614323     11.91259046      13.77037342     
   2182.9056 104.89812912     -28.89453825     11.91040399      13.74111627     
   2183.0580 103.66848097     -28.93125200     11.91220386      13.70962059     
   2183.2104 103.04743292     -28.96448299     11.92912156      13.68009491     
   2183.3628 103.66182751     -29.00092965     11.95273402      13.64899691     
   2183.5152 104.91231997     -29.03451415     11.97398393      13.61912071     
   2183.6676 108.60388853     -29.07056233     11.99655905      13.58827530     
   2183.8200 110.48967385     -29.10458129     12.01400111      13.55815183     
   2183.9724 110.76130592     -29.14017984     12.01386656      13.46266411     
   2184.1248 112.04194429     -29.17464241     12.01405882      13.33864593     
   2184.2772 109.51558718     -29.20982371     12.01369046      13.21401478     
   2184.4296 106.78679678     -29.24465881     11.89139867      13.08954777     
   2184.5820 103.94514216     -29.27684407     11.78270856      13.09692087     
   2184.7344 100.60175163     -29.27692642     11.67380788      13.19648583     
   2184.8868 103.01850410     -29.27664022     11.56590896      13.29594164     
   2185.0392 103.90325552     -29.27680259     11.45622247      13.39547269     
   2185.1916 104.65559423     -29.27649267     11.40212654      13.49513492     
   2185.3440 105.54865314     -29.27683929     11.40009313      13.59434396     
   2185.4964 106.12425332     -29.27659244     11.50468947      13.69424870     
   2185.6488 106.15554580     -29.28113142     11.70589360      13.79317762     
   2185.8012 105.51065742     -29.29127196     11.70935587      13.89340453     
   2185.9536 104.28830045     -29.30180276     11.68588090      13.99198219     
   2186.1060 102.11643698     -29.31201229     11.63572585      14.09257453     
   2186.2584 101.19097876     -29.32247866     11.57721433      14.19078866     
   2186.4108 99.34546560      -29.33272670     11.52751160      14.29166862     
   2186.5632 97.48035585      -29.34312239     11.46858062      14.34070124     
   2186.7156 97.18378449      -29.35340357     11.41882653      14.25386249     
   2186.8680 97.78850878      -29.36377601     11.39895948      14.16375307     
   2187.0204 98.72021028      -29.37406616     11.40337855      14.07676522     
   2187.1728 99.33762044      -29.38438065     11.50076029      13.98682573     
   2187.3252 100.88006933     -29.39468088     11.48896025      13.95689944     
   2187.4776 103.68390199     -29.40498317     11.45940965      13.95587540     
   2187.6300 104.89316043     -29.41529729     11.43922118      13.86823614     
   2187.7824 105.55424534     -29.42558454     11.40952198      13.78834738     
   2187.9348 102.71745328     -29.43591424     11.40353748      13.70861612     
   2188.0872 100.30290165     -29.44619323     11.39856692      13.62958742     
   2188.2396 98.06287922      -29.45654586     11.40419280      13.54908547     
   2188.3920 94.11708418      -29.46681188     11.39852174      13.47098565     
   2188.5444 97.12510500      -29.47717632     11.50682725      13.38966731     
   2188.6968 100.30668644     -29.47541969     11.70470712      13.34567523     
   2188.8492 104.85427275     -29.45718132     11.71135722      13.44564235     
   2189.0016 108.65828474     -29.43882158     11.70457275      13.65215659     
   2189.1540 109.49583605     -29.42058541     11.60930859      13.85408424     
   2189.3064 108.65486998     -29.40222649     11.49895339      13.79043860     
   2189.4588 107.64335019     -29.38398652     11.38123538      13.70825098     
   2189.6112 108.02999982     -29.36563418     11.25041516      13.63101824     
   2189.7636 108.88619861     -29.34738134     11.13234263      13.54914514     
   2189.9160 109.55670434     -29.32911683     11.19505975      13.47194060     
   2190.0684 109.89907061     -29.31084456     11.20036916      13.44588795     
   2190.2208 110.35398844     -29.29262746     11.29773902      13.44877962     
   2190.3732 109.82842754     -29.27428791     11.50665067      13.39768539     
