~Version Information Block
 VERS.                2.00:     CWLS LOG ASCII STANDARD - VERSION 2.000000
 WRAP.                  NO:     One Line Per Depth Step
#
~Well Information Block
#MNEM.UNIT                     Data                         Information
#----------   ------------------------------------------   ----------------
 STRT.M                                      2100.0000:     START DEPTH
 STOP.M                                      2374.9296:     STOP DEPTH
 STEP.M                                         0.1524:     STEP
 NULL.                                       -999.2500:     NULL VALUE
 COMP.                                        Alphabow:     COMPANY
 WELL.                  SOC PINE CK 2-29-56-19 #107872:     WELL
 FLD .                                                :     FIELD
 LOC .                                                :     LOCATION
 CNTY.                                                :     COUNTY
 STAT.                                                :     STATE
 CTRY.                                                :     COUNTRY
 SRVC.                                                :     SERVICE COMPANY
 DATE.                                      03/28/2025:     DATE
 API .                                100022905619W500:     API NUMBER
 UWI .                                100022905619W500:     UWI NUMBER
 TVD .                                              NO:     TVD flag
 WSTA.                                             LOC:     Well status
#
~Curve Information Block
#MNEM.UNIT       API CODE      Curve Description
#----------    -------------   -------------------
 DEPT.M                    :   Depth in Meters
 GR  .GAPI     35 310 01 01:   Gamma Ray
 SP  .MV       01 010 01 01:   Spontaneous Potential
 ILD .OHMM     05 120 46 01:   Deep Induction Standard Processed Resistivity
 SFLA.OHMM     10 222 01 01:   SFL Resistivity (Averaged)
#
~Parameter Information Block
#MNEM.UNIT            Value               Description
#----------    --------------------    -------------------
 RUN .                         ONE:    Run Number
 PDAT.                         UNK:    Permanent Datum
 EPD .M                 -9999.5000:    Elevation Of Perm. Datum
 WSTA.                         LOC:    
 TD  .M                  2375.0000:    Total Depth
#
~Other Information Block
<DescLogPlotStart>   NEURALOG PLOT DEFINITION
PLOTDEFVERSION: 3
LASFILE: C:\Users\wadet\Desktop\Alphabow Evaluation\well_info\second_white_spec
DEPTHSCALE: 600.000000
RESOLUTION: 200
DEPTHLABELFREQ: 100.000000
HEAVYGRIDFREQ: 50.000000
MEDIUMGRIDFREQ: 25.000000
LIGHTGRIDFREQ: 25.000000
#
#   TRACK 1
#
STARTTRACK: 
 LEFTX: 0.500000 inch
 RIGHTX: 3.000000 inch
 SCALETYPE: Linear
 NUMCHARTDIVISIONS: 7
CURVE: GR    0.000000   150.000000 (0,0,255)      Solid             2     N    
CURVE: SP    -80.000000 20.000000  (0,131,131)    Dot               2     N    
ENDTRACK: 
#
#   TRACK 2
#
STARTTRACK: 
 LEFTX: 3.500000 inch
 RIGHTX: 6.000000 inch
 SCALETYPE: Linear
 NUMCHARTDIVISIONS: 10
CURVE: ILD   0.000000   50.000000  (255,0,255)    Solid             2     N    
CURVE: SFLA  0.000000   50.000000  (255,0,0)      Dot               2     N    
ENDTRACK: 
<DescLogPlotEnd>
~A DEPTH     GR               SP               ILD              SFLA            
# ...
   2145.2628 91.99782003      -30.25434912     17.35688950      20.82453801     
   2145.4152 96.73334185      -30.31247427     18.35183299      22.72958878     
   2145.5676 95.37473146      -30.37290107     19.36042497      24.86614321     
   2145.7200 93.37849364      -30.43096070     20.35691406      26.97497171     
   2145.8724 91.72265547      -30.49121835     21.36239286      29.11758631     
   2146.0248 89.78086873      -30.54968689     23.40324205      31.21967288     
   2146.1772 88.06330288      -30.60930470     25.40213103      33.36943220     
   2146.3296 86.18852882      -30.66862143     26.38104248      35.46428014     
   2146.4820 84.40096635      -30.72185404     27.20985751      37.62104875     
   2146.6344 82.59894158      -31.01081823     28.04822101      39.70943768     
   2146.7868 80.74655614      -31.27285270     28.86676255      41.87181319     
   2146.9392 76.93734639      -31.53923727     28.97712118      43.95571405     
   2147.0916 70.79477698      -31.80007531     29.10138352      46.13329681     
   2147.2440 64.07534074      -32.06755232     29.25469532      48.50014053     
   2147.3964 66.62971331      -32.36951584     29.37956921      46.67847342     
   2147.5488 69.66669023      -32.17770835     29.53670854      44.59239484     
   2147.7012 72.22804804      -31.94008576     29.65571187      42.52650228     
   2147.8536 74.03443425      -31.71149774     29.81570973      40.44184441     
   2148.0060 75.71510061      -31.47387149     29.93349400      38.37464771     
   2148.1584 77.50301371      -31.24505151     29.59523666      36.29161473     
   2148.3108 79.21244361      -31.00791061     28.96085343      34.22263444     
   2148.4632 80.97523237      -30.77843769     28.38251304      32.14159684     
   2148.6156 82.70799239      -30.54207578     27.74872309      30.07074338     
   2148.7680 84.46183563      -30.30892949     27.16577230      27.99157353     
   2148.9204 90.93986073      -30.07563477     26.27206204      25.91900898     
   2149.0728 97.44343865      -29.84419967     25.11210840      23.84134422     
   2149.2252 104.02498219     -29.60872989     23.76508095      21.76754585     
   2149.3776 111.67284086     -29.37678702     19.88808466      19.85283053     
   2149.5300 110.58850038     -29.14180658     19.58663985      18.26133899     
   2149.6824 109.11238531     -28.90958839     18.75614675      16.65778562     
   2149.8348 107.81691352     -28.67511021     17.73273171      15.40496602     
   2149.9872 106.33990407     -28.44198507     16.65390523      15.01621320     
   2150.1396 105.03909043     -28.24493356     12.04949945      14.69840014     
   2150.2920 103.57309412     -28.01933613     12.00359405      14.37897323     
   2150.4444 102.44817060     -27.82497278     12.15655078      14.06070738     
   2150.5968 107.98444883     -27.62933909     12.05357959      13.76416169     
   2150.7492 112.93656925     -27.43607523     12.06398521      13.76313244     
   2150.9016 114.17041456     -27.23925112     11.96470531      13.82726149     
   2151.0540 114.18709087     -27.04721462     11.97189291      13.94839848     
   2151.2064 112.01964821     -26.84917879     11.87908790      14.07023560     
   2151.3588 109.22933417     -26.65828117     11.87639843      14.19084857     
   2151.5112 107.08694665     -26.45918143     11.79488399      14.31323002     
   2151.6636 106.13558758     -26.26936394     11.77865155      14.43374945     
   2151.8160 103.70801786     -26.17835222     11.70112623      14.57387306     
   2151.9684 103.96043993     -26.02421757     11.72232755      14.60528137     
   2152.1208 105.87794350     -26.10376655     12.01009437      14.64607757     
   2152.2732 106.74141743     -26.19447221     12.02445785      14.67132638     
   2152.4256 108.35397451     -26.27397053     12.00952103      14.67302657     
   2152.5780 110.76466288     -26.36463991     12.01713267      14.67137792     
   2152.7304 111.13664511     -26.44430615     12.00992633      14.39406422     
   2152.8828 112.00788513     -26.53471860     12.01713341      14.15557885     
   2153.0352 113.30203452     -26.61475721     12.01072500      13.91684778     
   2153.1876 113.56058733     -26.70477968     11.91542993      13.67964323     
   2153.3400 112.67375705     -26.78499408     11.81131974      13.43953003     
   2153.4924 111.97843793     -26.87461003     11.66039327      13.20333887     
   2153.6448 110.81513067     -26.95514971     11.50219763      12.96323433     
   2153.7972 110.41390243     -27.00742168     11.34674616      12.74303940     
   2153.9496 111.45686072     -27.20923310     11.19074245      12.90093921     
   2154.1020 112.54994371     -27.36487281     11.03279766      13.05653884     
   2154.2544 114.57822967     -27.52479900     10.88105468      13.20915353     
   2154.4068 115.31562447     -27.69327598     10.79166878      13.36085145     
   2154.5592 115.87051262     -27.85353567     10.80070267      13.51805395     
   2154.7116 117.12513247     -28.02196354     10.78909615      13.66190287     
   2154.8640 118.15597168     -28.18236552     10.80317626      13.76988836     
   2155.0164 119.61835248     -28.35056481     10.86020197      14.76585080     
   2155.1688 122.15901762     -28.51127165     11.08031103      16.77424519     
   2155.3212 118.14562501     -28.67910243     11.26245845      17.71291704     
   2155.4736 114.55619988     -28.86052021     11.98328498      18.73790786     
   2155.6260 109.94305738     -28.87371010     13.66607699      19.54845115     
   2155.7784 84.36322022      -28.88253627     15.39212467      19.91826666     
   2155.9308 85.14726545      -28.89668133     17.42021258      21.52174736     
   2156.0832 83.17219722      -28.90594454     17.64367846      24.10875867     
   2156.2356 86.41796792      -28.91978216     17.72766338      26.06982912     
   2156.3880 89.32336998      -28.92987284     18.34758910      24.92756594     
   2156.5404 90.18557422      -28.94322998     19.10922017      25.77345862     
   2156.6928 94.83982538      -28.95375189     20.08847147      25.43038682     
   2156.8452 97.98660424      -28.96669738     20.28433367      24.95948353     
   2156.9976 99.11023336      -28.97761334     20.28980752      24.50773910     
   2157.1500 98.97834030      -28.99019859     20.28668419      23.84126633     
   2157.3024 99.67185398      -29.00093348     20.18537963      23.17433180     
   2157.4548 99.65052782      -29.01290587     19.98127297      22.92975886     
   2157.6072 98.70224210      -29.02369112     19.81035445      22.96624254     
   2157.7596 95.65235005      -29.03569586     19.67722011      22.93700769     
   2157.9120 95.27076519      -29.04684617     19.13312551      22.85911147     
   2158.0644 92.24819504      -29.05902749     18.76084060      22.53414815     
   2158.2168 91.83105572      -29.07041393     18.99513683      22.24309454     
   2158.3692 92.24573678      -29.07100926     18.99484356      21.92631503     
   2158.5216 94.00454548      -29.18687746     18.87714075      21.52995478     
   2158.6740 95.34047647      -29.42447875     18.76689850      21.31638114     
   2158.8264 95.88026862      -29.66152866     18.65083750      21.42642368     
   2158.9788 96.58143970      -29.89893984     18.54008567      21.52001560     
   2159.1312 96.82322396      -30.13619260     18.42485061      21.63202104     
   2159.2836 96.88477180      -30.37339863     18.31231957      21.61977711     
   2159.4360 96.52825368      -30.61084824     18.19746646      21.53010251     
   2159.5884 95.94269120      -30.53064982     18.15021026      21.31169033     
   2159.7408 95.60906437      -30.17003835     18.08822741      21.01926474     
   2159.8932 94.64972138      -29.80858215     18.03084632      21.20898589     
   2160.0456 93.41646032      -29.44842413     17.97375903      20.80092937     
   2160.1980 92.19505229      -29.36673650     17.91599027      20.38641163     
