~Version Information Block
 VERS.                2.00:     CWLS LOG ASCII STANDARD - VERSION 2.000000
 WRAP.                  NO:     One Line Per Depth Step
#
~Well Information Block
#MNEM.UNIT                     Data                         Information
#----------   ------------------------------------------   ----------------
 STRT.M                                      2100.0000:     START DEPTH
 STOP.M                                      2374.9296:     STOP DEPTH
 STEP.M                                         0.1524:     STEP
 NULL.                                       -999.2500:     NULL VALUE
 COMP.                                        Alphabow:     COMPANY
 WELL.                  SOC PINE CK 2-29-56-19 #107872:     WELL
 FLD .                                                :     FIELD
 LOC .                                                :     LOCATION
 CNTY.                                                :     COUNTY
 STAT.                                                :     STATE
 CTRY.                                                :     COUNTRY
 SRVC.                                                :     SERVICE COMPANY
 DATE.                                      03/28/2025:     DATE
 API .                                100022905619W500:     API NUMBER
 UWI .                                100022905619W500:     UWI NUMBER
 TVD .                                              NO:     TVD flag
 WSTA.                                             LOC:     Well status
#
~Curve Information Block
#MNEM.UNIT       API CODE      Curve Description
#----------    -------------   -------------------
 DEPT.M                    :   Depth in Meters
 GR  .GAPI     35 310 01 01:   Gamma Ray
 SP  .MV       01 010 01 01:   Spontaneous Potential
 ILD .OHMM     05 120 46 01:   Deep Induction Standard Processed Resistivity
 SFLA.OHMM     10 222 01 01:   SFL Resistivity (Averaged)
#
~Parameter Information Block
#MNEM.UNIT            Value               Description
#----------    --------------------    -------------------
 RUN .                         ONE:    Run Number
 PDAT.                         UNK:    Permanent Datum
 EPD .M                 -9999.5000:    Elevation Of Perm. Datum
 WSTA.                         LOC:    
 TD  .M                  2375.0000:    Total Depth
#
~Other Information Block
<DescLogPlotStart>   NEURALOG PLOT DEFINITION
PLOTDEFVERSION: 3
LASFILE: C:\Users\wadet\Desktop\Alphabow Evaluation\well_info\second_white_spec
DEPTHSCALE: 600.000000
RESOLUTION: 200
DEPTHLABELFREQ: 100.000000
HEAVYGRIDFREQ: 50.000000
MEDIUMGRIDFREQ: 25.000000
LIGHTGRIDFREQ: 25.000000
#
#   TRACK 1
#
STARTTRACK: 
 LEFTX: 0.500000 inch
 RIGHTX: 3.000000 inch
 SCALETYPE: Linear
 NUMCHARTDIVISIONS: 7
CURVE: GR    0.000000   150.000000 (0,0,255)      Solid             2     N    
CURVE: SP    -80.000000 20.000000  (0,131,131)    Dot               2     N    
ENDTRACK: 
#
#   TRACK 2
#
STARTTRACK: 
 LEFTX: 3.500000 inch
 RIGHTX: 6.000000 inch
 SCALETYPE: Linear
 NUMCHARTDIVISIONS: 10
CURVE: ILD   0.000000   50.000000  (255,0,255)    Solid             2     N    
CURVE: SFLA  0.000000   50.000000  (255,0,0)      Dot               2     N    
ENDTRACK: 
<DescLogPlotEnd>
~A DEPTH     GR               SP               ILD              SFLA            
# ...
   2130.1752 65.00734993      -37.53679123     28.08785225      44.77201640     
   2130.3276 67.40389784      -37.93982115     28.73961010      42.56086708     
   2130.4800 69.75663386      -37.44605183     28.80501892      37.50669004     
   2130.6324 72.14543225      -36.88204457     28.22454223      32.43980645     
   2130.7848 74.50905186      -36.33911211     27.56503713      27.04708399     
   2130.9372 76.85615509      -35.77639068     26.98600772      26.52378396     
   2131.0896 79.25267268      -35.23179168     26.33973535      25.98078142     
   2131.2420 81.56676770      -34.67110310     25.71889871      25.42256027     
   2131.3944 83.62949660      -34.12438860     24.44822958      24.87540171     
   2131.5468 85.09941361      -33.69220021     23.14535774      24.32159727     
   2131.6992 86.76014665      -33.41988061     21.81165484      23.76995396     
   2131.8516 88.20111531      -33.14029865     20.81661444      23.21950680     
   2132.0040 89.89168001      -32.89878602     20.49882531      22.64992186     
   2132.1564 91.30725899      -32.69003737     19.81869570      19.69140684     
   2132.3088 94.47838501      -32.48361178     19.10650299      19.48010017     
   2132.4612 98.91656353      -32.27579761     18.41076732      19.57811915     
   2132.6136 94.74476988      -32.06883856     17.63972590      19.66125022     
   2132.7660 98.92050716      -31.86137279     16.82671025      19.76000109     
   2132.9184 99.41051155      -31.65314592     16.41464339      19.83898809     
   2133.0708 98.90281469      -31.44557124     16.32260085      19.95492719     
   2133.2232 97.54780799      -31.23737273     16.82006898      20.01875224     
   2133.3756 96.44456633      -31.02977720     17.32713922      20.13203736     
   2133.5280 95.36710058      -30.86568640     17.81834354      20.20499128     
   2133.6804 92.43952040      -30.74106560     17.80616408      20.30593857     
   2133.8328 91.01664583      -30.61582623     17.33825223      20.38521998     
   2133.9852 89.67288075      -30.49144754     17.22271511      20.47841481     
   2134.1376 89.76643660      -30.36636619     17.38379775      20.55933805     
   2134.2900 91.54691135      -30.24205263     17.53855474      20.64912969     
   2134.4424 92.23352763      -30.11722915     17.53807231      20.73194561     
   2134.5948 93.10595623      -29.99295571     17.53703264      20.81803297     
   2134.7472 93.46926702      -29.86810323     17.53786963      20.90463063     
   2134.8996 93.78261804      -29.74351922     17.53581528      20.99099174     
   2135.0520 94.96375241      -29.71644740     17.53721636      21.07775523     
   2135.2044 96.07831100      -29.75695542     17.62861188      21.11388675     
   2135.3568 97.17207384      -29.79811513     17.71828075      21.06427920     
   2135.5092 99.62012615      -29.83819550     17.80175927      20.97747035     
   2135.6616 99.33227483      -29.87981637     17.89289618      20.89078356     
   2135.8140 98.69748455      -29.89708430     17.97588364      20.80443454     
   2135.9664 97.16072155      -29.89834366     18.06786174      20.71706585     
   2136.1188 94.98428609      -29.89665636     18.14625637      20.63140833     
   2136.2712 95.29781058      -29.89831566     18.12666748      20.54310681     
   2136.4236 95.91161765      -29.89629920     18.09353605      20.50261375     
   2136.5760 97.15864071      -29.89820130     18.07720640      20.49974338     
   2136.7284 97.15301035      -30.05853425     18.04121965      20.60374188     
   2136.8808 97.78928526      -30.22395922     18.16306483      20.70064626     
   2137.0332 97.46251373      -30.30170541     18.26270597      20.80657402     
   2137.1856 96.25302713      -30.28937725     18.38849915      20.90222752     
   2137.3380 95.28890354      -30.27324671     18.48624829      21.01446164     
   2137.4904 93.16686232      -30.26083482     18.15550907      21.41643687     
   2137.6428 92.18457077      -30.24505390     18.32950828      21.62677763     
   2137.7952 92.55393502      -30.23238635     18.54718388      21.62000178     
   2137.9476 94.03586925      -30.21685924     18.73398701      21.52395748     
   2138.1000 94.72453451      -30.20395231     18.95098477      21.51742386     
   2138.2524 96.19885737      -30.18860145     19.16128552      21.40207640     
   2138.4048 95.96004696      -30.17551456     18.98066702      21.26145854     
   2138.5572 95.26621355      -30.16066907     18.75045518      21.13141051     
   2138.7096 95.33864919      -30.14742029     18.54347792      20.99171525     
   2138.8620 97.12367602      -30.13277445     18.31593101      20.86085315     
   2139.0144 99.98052054      -30.11926237     18.10646939      20.72208949     
   2139.1668 103.62490654     -30.10286137     17.88140799      20.59057947     
   2139.3192 107.10202466     -29.99701591     17.66749334      20.45250529     
   2139.4716 108.88463044     -29.87023545     17.43770933      20.29531482     
   2139.6240 108.96178695     -29.74232412     17.21723496      20.03059377     
   2139.7764 107.59490656     -29.61622123     16.98903012      19.71164224     
   2139.9288 105.46581811     -29.48760556     16.71835420      19.38750119     
   2140.0812 103.14955420     -29.36220027     16.51192847      19.06821399     
   2140.2336 101.55173356     -29.23292757     16.25290895      18.74367216     
   2140.3860 101.74571463     -29.10799719     15.99126131      18.35586011     
   2140.5384 102.18216281     -28.97816487     15.73176770      18.25101597     
   2140.6908 101.73992961     -28.86708761     15.47031403      18.15157116     
   2140.8432 100.32982407     -28.99215376     15.21026611      17.87060675     
   2140.9956 99.87748556      -29.11037796     14.98106948      17.63695120     
   2141.1480 97.85899918      -29.22329079     14.95391582      17.39735428     
   2141.3004 98.64323879      -29.34124451     14.90631781      17.16378532     
   2141.4528 99.41089781      -29.45455611     14.86234574      16.92414221     
   2141.6052 101.74887977     -29.57200146     14.81373608      16.69057699     
   2141.7576 102.81522685     -29.68574476     14.77069448      16.45097374     
   2141.9100 103.30459811     -29.80256622     14.72100302      16.21097812     
   2142.0624 104.04267211     -29.91689707     14.67672489      16.20783696     
   2142.2148 104.85559214     -30.03316127     14.67181609      16.21040298     
   2142.3672 106.19351326     -30.14799460     14.47351033      16.19298355     
   2142.5196 106.71644945     -30.26383164     14.39894444      16.17932071     
   2142.6720 106.79349484     -30.30882936     14.32927415      16.16111267     
   2142.8244 107.95917630     -30.29355866     14.24584416      16.14677829     
   2142.9768 107.70485041     -30.27924554     14.17677432      16.12984579     
   2143.1292 106.73937296     -30.26518418     14.09347787      16.11213231     
   2143.2816 106.44967526     -30.25122491     14.02476415      16.11259010     
   2143.4340 107.98947082     -30.23716858     13.95956888      16.11485743     
   2143.5864 108.59115330     -30.22318735     13.96706454      16.11550396     
   2143.7388 109.86625075     -30.20915002     14.16753559      16.11789268     
   2143.8912 111.35049319     -30.19515329     14.24377949      16.11810429     
   2144.0436 111.44000480     -30.18112767     14.30089017      16.12122543     
   2144.1960 111.01323548     -30.16711472     14.36281881      16.12044179     
   2144.3484 109.29824337     -30.15345882     14.42335181      16.12475896     
   2144.5008 107.27340272     -30.13934527     14.47834414      16.12303645     
   2144.6532 105.91188586     -30.12585572     15.02505257      16.67887929     
   2144.8056 104.15358286     -30.11146753     15.64401278      17.68543912     
   2144.9580 100.30291275     -30.13555001     16.27391295      18.70312710     
   2145.1104 96.12273690      -30.19420421     16.92630587      19.70623158     
