~Version Information Block
 VERS.                2.00:     CWLS LOG ASCII STANDARD - VERSION 2.000000
 WRAP.                  NO:     One Line Per Depth Step
#
~Well Information Block
#MNEM.UNIT                     Data                         Information
#----------   ------------------------------------------   ----------------
 STRT.M                                      2100.0000:     START DEPTH
 STOP.M                                      2374.9296:     STOP DEPTH
 STEP.M                                         0.1524:     STEP
 NULL.                                       -999.2500:     NULL VALUE
 COMP.                                        Alphabow:     COMPANY
 WELL.                  SOC PINE CK 2-29-56-19 #107872:     WELL
 FLD .                                                :     FIELD
 LOC .                                                :     LOCATION
 CNTY.                                                :     COUNTY
 STAT.                                                :     STATE
 CTRY.                                                :     COUNTRY
 SRVC.                                                :     SERVICE COMPANY
 DATE.                                      03/28/2025:     DATE
 API .                                100022905619W500:     API NUMBER
 UWI .                                100022905619W500:     UWI NUMBER
 TVD .                                              NO:     TVD flag
 WSTA.                                             LOC:     Well status
#
~Curve Information Block
#MNEM.UNIT       API CODE      Curve Description
#----------    -------------   -------------------
 DEPT.M                    :   Depth in Meters
 GR  .GAPI     35 310 01 01:   Gamma Ray
 SP  .MV       01 010 01 01:   Spontaneous Potential
 ILD .OHMM     05 120 46 01:   Deep Induction Standard Processed Resistivity
 SFLA.OHMM     10 222 01 01:   SFL Resistivity (Averaged)
#
~Parameter Information Block
#MNEM.UNIT            Value               Description
#----------    --------------------    -------------------
 RUN .                         ONE:    Run Number
 PDAT.                         UNK:    Permanent Datum
 EPD .M                 -9999.5000:    Elevation Of Perm. Datum
 WSTA.                         LOC:    
 TD  .M                  2375.0000:    Total Depth
#
~Other Information Block
<DescLogPlotStart>   NEURALOG PLOT DEFINITION
PLOTDEFVERSION: 3
LASFILE: C:\Users\wadet\Desktop\Alphabow Evaluation\well_info\second_white_spec
DEPTHSCALE: 600.000000
RESOLUTION: 200
DEPTHLABELFREQ: 100.000000
HEAVYGRIDFREQ: 50.000000
MEDIUMGRIDFREQ: 25.000000
LIGHTGRIDFREQ: 25.000000
#
#   TRACK 1
#
STARTTRACK: 
 LEFTX: 0.500000 inch
 RIGHTX: 3.000000 inch
 SCALETYPE: Linear
 NUMCHARTDIVISIONS: 7
CURVE: GR    0.000000   150.000000 (0,0,255)      Solid             2     N    
CURVE: SP    -80.000000 20.000000  (0,131,131)    Dot               2     N    
ENDTRACK: 
#
#   TRACK 2
#
STARTTRACK: 
 LEFTX: 3.500000 inch
 RIGHTX: 6.000000 inch
 SCALETYPE: Linear
 NUMCHARTDIVISIONS: 10
CURVE: ILD   0.000000   50.000000  (255,0,255)    Solid             2     N    
CURVE: SFLA  0.000000   50.000000  (255,0,0)      Dot               2     N    
ENDTRACK: 
<DescLogPlotEnd>
~A DEPTH     GR               SP               ILD              SFLA            
# ...
   2190.5256 107.39054684     -29.25615618     11.72963249      13.48426439     
   2190.6780 106.43657229     -29.23771603     11.93292842      13.56281837     
   2190.8304 105.52471940     -29.21969632     12.12783483      13.65056515     
   2190.9828 104.91063694     -29.20113733     12.32332917      13.72804707     
   2191.1352 103.35320639     -29.18321781     12.42082345      13.81680820     
   2191.2876 102.76720680     -29.16451960     12.52757740      13.85189210     
   2191.4400 102.40830971     -29.14670673     12.52201182      13.96037900     
   2191.5924 100.92943541     -29.12791378     12.52755152      14.36236032     
   2191.7448 100.53198827     -29.11017905     12.52102869      14.36818151     
   2191.8972 99.09037508      -29.09132846     12.52734134      14.48385244     
   2192.0496 96.80164962      -29.07114192     12.82650404      14.62160328     
   2192.2020 95.39048312      -29.09876869     12.93538345      14.74960755     
   2192.3544 94.00363409      -29.13197270     12.92867997      14.88604342     
   2192.5068 93.23083501      -29.16407533     13.03711552      14.97583507     
   2192.6592 96.15749267      -29.19722062     13.33759208      15.05657973     
   2192.8116 97.54953445      -29.22913904     13.28598737      14.96939932     
   2192.9640 103.27314782     -29.26220679     13.20699177      14.88552906     
   2193.1164 106.51649142     -29.29412015     13.13604221      14.79879714     
   2193.2688 110.09075157     -29.32725467     13.05886951      14.77358976     
   2193.4212 112.69016401     -29.35903789     13.03514450      14.66977481     
   2193.5736 111.65644892     -29.39236352     12.75300203      14.57007685     
   2193.7260 109.58497231     -29.42390111     12.50737432      14.37116292     
   2193.8784 107.97164733     -29.45751668     12.26349330      14.20094013     
   2194.0308 109.25836472     -29.48873344     12.01619388      14.02250757     
   2194.1832 109.23663185     -29.52268485     11.77383994      13.85720444     
   2194.3356 108.61511249     -29.55356818     11.52523492      13.85198280     
   2194.4880 107.70771022     -29.58782846     11.37438581      13.55151264     
   2194.6404 104.88170620     -29.61874757     11.30995388      13.46282056     
   2194.7928 104.93685870     -29.65333070     11.25541006      13.38356529     
   2194.9452 98.04912684      -29.68757324     11.19066969      13.29251729     
   2195.0976 89.78271491      -29.55414298     11.13683200      13.21255869     
   2195.2500 89.69462999      -29.40163984     11.09266325      13.12195269     
   2195.4024 89.79186118      -29.25236829     11.09876794      13.04118591     
   2195.5548 91.55595360      -29.10020642     11.09279867      12.93392272     
   2195.7072 89.79303313      -28.95052681     10.89446621      12.93819138     
   2195.8596 93.82823880      -28.79883747     10.88875348      12.93504349     
   2196.0120 99.27357554      -28.64851082     10.79167194      12.93952874     
   2196.1644 104.55186892     -28.49735079     10.67520605      12.96322245     
   2196.3168 109.97965458     -28.34651035     10.58861837      13.00789156     
   2196.4692 111.99050616     -28.19589860     10.49449465      13.04169298     
   2196.6216 112.47350318     -28.04452901     10.40640192      13.08811955     
   2196.7740 112.87758114     -27.89440702     10.31389909      13.11982551     
   2196.9264 113.33799747     -27.88838813     10.27767340      13.14491615     
   2197.0788 113.76508837     -27.98422349     10.37967082      13.33838289     
   2197.2312 114.19273775     -28.07773456     10.58276739      13.35001765     
   2197.3836 112.03787522     -28.17343105     10.76383701      13.29229271     
   2197.5360 109.94527671     -28.26664826     10.93555000      13.22108745     
   2197.6884 107.86458186     -28.36226236     11.11243856      13.12013960     
   2197.8408 105.77971488     -28.45567825     11.29548817      13.04442499     
   2197.9932 103.68963878     -28.55095450     11.31945504      13.12999860     
   2198.1456 102.90292561     -28.65630932     11.33732994      13.84776665     
   2198.2980 104.09974487     -28.65631594     11.36334694      14.91552591     
   2198.4504 105.33213347     -28.66598449     11.38108505      14.78831143     
   2198.6028 106.51954261     -28.69400182     11.39990902      14.63182994     
   2198.7552 107.75913468     -28.72337740     11.39592089      14.50264028     
   2198.9076 109.23444905     -28.75063685     11.39947685      14.34864025     
   2199.0600 108.95640481     -28.78073004     11.39608613      14.21668025     
   2199.2124 109.23632909     -28.80752307     11.16804207      14.06557435     
   2199.3648 109.26529306     -28.83855738     10.98814971      13.95754433     
   2199.5172 109.55325599     -28.86036532     10.81390398      13.66834311     
   2199.6696 110.18936290     -28.67339297     10.63455742      13.40482797     
   2199.8220 110.11416905     -28.50821618     10.48018785      13.13324680     
   2199.9744 110.01380910     -28.34794746     10.17157251      12.86789289     
   2200.1268 109.91291733     -28.18293964     9.89146508       12.59759181     
   2200.2792 109.79200112     -28.02236519     9.62882004       12.33155859     
   2200.4316 109.71309719     -27.85778010     9.37198020       12.06188235     
   2200.5840 109.57503719     -27.69666760     9.10868841       11.79709343     
   2200.7364 109.88504572     -27.53249424     8.85270677       11.52715460     
   2200.8888 111.06724315     -27.37094753     8.58867729       11.40410816     
   2201.0412 111.75485898     -27.20733015     8.33810712       11.40137557     
   2201.1936 111.98606586     -27.04532597     8.33323875       11.30205574     
   2201.3460 111.76585478     -26.88207695     8.33841762       11.29929124     
   2201.4984 111.66561880     -26.83395005     8.23091470       11.20756779     
   2201.6508 112.83546037     -26.90179686     8.03197306       11.11097581     
   2201.8032 114.44282430     -26.97042846     8.02675839       11.01828697     
   2201.9556 114.86877787     -27.03820213     8.03175870       10.92277881     
   2202.1080 116.61263017     -27.10663418     8.02709285       10.82839285     
   2202.2604 116.72789593     -27.17431374     8.03129570       10.73456703     
   2202.4128 115.07267991     -27.24287127     8.02742915       10.63818613     
   2202.5652 110.53199517     -27.31044138     8.03051606       10.59540819     
   2202.7176 109.20423557     -27.37908732     8.02790509       10.61171218     
   2202.8700 107.42649573     -27.41874417     8.02975257       10.63627721     
   2203.0224 106.43148767     -27.46876791     8.13024969       10.65107550     
   2203.1748 107.10283377     -27.59200153     8.23303313       10.67682056     
   2203.3272 107.06823429     -27.71611200     8.33461126       10.78545791     
   2203.4796 106.78290091     -27.83934319     8.43665359       10.79156397     
   2203.6320 105.83856145     -27.96327438     8.43713753       10.98964907     
   2203.7844 104.91801229     -28.08675517     8.43643198       11.09761429     
   2203.9368 102.74831524     -28.21056872     8.49485958       11.23890742     
   2204.0892 101.51296067     -28.33455274     8.66227360       11.41726832     
   2204.2416 101.19828361     -28.45800305     8.83207995       11.58611188     
   2204.3940 103.68596382     -28.58237604     8.99813493       11.70887239     
   2204.5464 106.76095322     -28.70545988     9.16464915       11.70501199     
   2204.6988 108.21537851     -28.83074062     9.32783473       11.70729761     
   2204.8512 108.77346100     -28.95329819     9.49460021       11.70550459     
   2205.0036 109.45222845     -29.07880955     9.65747621       11.70685914     
   2205.1560 110.12560684     -29.20078852     9.82453479       11.70626400     
   2205.3084 109.60323959     -29.32683615     9.86464038       11.70659640     
   2205.4608 108.87184270     -29.44828322     9.86737590       11.70706002     
