~Version Information Block
 VERS.                2.00:     CWLS LOG ASCII STANDARD - VERSION 2.000000
 WRAP.                  NO:     One Line Per Depth Step
#
~Well Information Block
#MNEM.UNIT                     Data                         Information
#----------   ------------------------------------------   ----------------
 STRT.M                                      2100.0000:     START DEPTH
 STOP.M                                      2374.9296:     STOP DEPTH
 STEP.M                                         0.1524:     STEP
 NULL.                                       -999.2500:     NULL VALUE
 COMP.                                        Alphabow:     COMPANY
 WELL.                  SOC PINE CK 2-29-56-19 #107872:     WELL
 FLD .                                                :     FIELD
 LOC .                                                :     LOCATION
 CNTY.                                                :     COUNTY
 STAT.                                                :     STATE
 CTRY.                                                :     COUNTRY
 SRVC.                                                :     SERVICE COMPANY
 DATE.                                      03/28/2025:     DATE
 API .                                100022905619W500:     API NUMBER
 UWI .                                100022905619W500:     UWI NUMBER
 TVD .                                              NO:     TVD flag
 WSTA.                                             LOC:     Well status
#
~Curve Information Block
#MNEM.UNIT       API CODE      Curve Description
#----------    -------------   -------------------
 DEPT.M                    :   Depth in Meters
 GR  .GAPI     35 310 01 01:   Gamma Ray
 SP  .MV       01 010 01 01:   Spontaneous Potential
 ILD .OHMM     05 120 46 01:   Deep Induction Standard Processed Resistivity
 SFLA.OHMM     10 222 01 01:   SFL Resistivity (Averaged)
#
~Parameter Information Block
#MNEM.UNIT            Value               Description
#----------    --------------------    -------------------
 RUN .                         ONE:    Run Number
 PDAT.                         UNK:    Permanent Datum
 EPD .M                 -9999.5000:    Elevation Of Perm. Datum
 WSTA.                         LOC:    
 TD  .M                  2375.0000:    Total Depth
#
~Other Information Block
<DescLogPlotStart>   NEURALOG PLOT DEFINITION
PLOTDEFVERSION: 3
LASFILE: C:\Users\wadet\Desktop\Alphabow Evaluation\well_info\second_white_spec
DEPTHSCALE: 600.000000
RESOLUTION: 200
DEPTHLABELFREQ: 100.000000
HEAVYGRIDFREQ: 50.000000
MEDIUMGRIDFREQ: 25.000000
LIGHTGRIDFREQ: 25.000000
#
#   TRACK 1
#
STARTTRACK: 
 LEFTX: 0.500000 inch
 RIGHTX: 3.000000 inch
 SCALETYPE: Linear
 NUMCHARTDIVISIONS: 7
CURVE: GR    0.000000   150.000000 (0,0,255)      Solid             2     N    
CURVE: SP    -80.000000 20.000000  (0,131,131)    Dot               2     N    
ENDTRACK: 
#
#   TRACK 2
#
STARTTRACK: 
 LEFTX: 3.500000 inch
 RIGHTX: 6.000000 inch
 SCALETYPE: Linear
 NUMCHARTDIVISIONS: 10
CURVE: ILD   0.000000   50.000000  (255,0,255)    Solid             2     N    
CURVE: SFLA  0.000000   50.000000  (255,0,0)      Dot               2     N    
ENDTRACK: 
<DescLogPlotEnd>
~A DEPTH     GR               SP               ILD              SFLA            
# ...
   2220.7008 104.89630569     -27.62396694     11.43352385      14.97522686     
   2220.8532 105.53525936     -27.62396694     11.33847868      14.97965480     
   2221.0056 105.82201526     -27.62396694     11.23765018      14.97583322     
   2221.1580 105.84441535     -27.62396694     11.14262505      14.77564929     
   2221.3104 105.20018954     -27.62396694     11.17640634      14.46593392     
   2221.4628 105.22402432     -27.62396694     11.33582934      14.26545180     
   2221.6152 106.12673160     -27.62396694     11.50247401      14.16028008     
   2221.7676 106.45846421     -27.62396694     11.49657093      13.75521574     
   2221.9200 106.74851286     -27.62396694     11.48573089      13.54795971     
   2222.0724 106.14973970     -27.62396694     11.47862051      13.44943750     
   2222.2248 105.51511367     -27.62396694     11.46840715      13.24178575     
   2222.3772 104.29231146     -27.62396694     11.46044687      13.24551868     
   2222.5296 103.66028921     -27.62396694     11.45081282      13.24141989     
   2222.6820 103.67150462     -27.62396694     11.44206855      13.34805314     
   2222.8344 103.35274753     -27.62396694     11.43319485      13.44513709     
   2222.9868 103.05214394     -27.62396694     11.42368765      13.65501095     
   2223.1392 101.81161150     -27.62396694     11.41538449      14.05730359     
   2223.2916 100.89048773     -27.62396694     11.40540688      14.26808481     
   2223.4440 99.64626448      -27.62406788     11.40157798      14.46554395     
   2223.5964 98.41440788      -27.62405109     11.53267638      14.67657171     
   2223.7488 98.09809074      -27.62419541     11.67386938      14.97530705     
   2223.9012 97.17945391      -27.62410787     11.81296093      15.08455410     
   2224.0536 96.24292113      -27.62434899     11.95392509      15.17908789     
   2224.2060 96.87232940      -27.62414152     12.09308529      15.23595409     
   2224.3584 98.10001271      -27.62452130     12.23366856      15.28118910     
   2224.5108 99.34698827      -27.62416208     12.37322528      15.18463175     
   2224.6632 100.88313470     -27.62470009     12.42179939      15.07663609     
   2224.8156 100.58264077     -27.62412067     12.34198601      14.98002811     
   2224.9680 101.12890487     -27.62472944     12.27148694      14.86634023     
   2225.1204 101.66174799     -27.62400360     12.20134024      14.77159210     
   2225.2728 102.17574248     -27.62473001     12.13062686      14.66898861     
   2225.4252 105.53195087     -27.62392197     12.06062173      14.67499013     
   2225.5776 107.68652738     -27.62469024     11.98984274      14.66938499     
   2225.7300 108.00569177     -27.68870364     11.91989689      14.88039298     
   2225.8824 107.37534665     -27.75396044     11.84931575      14.97553401     
   2226.0348 107.69205122     -27.81777415     11.77947035      14.88129092     
   2226.1872 109.23343188     -27.88290598     11.70903252      14.87357162     
   2226.3396 109.54497453     -27.94687671     11.63904044      14.57532583     
   2226.4920 110.47539768     -28.01182709     11.56875910      14.36319769     
   2226.6444 110.78003498     -28.07598449     11.49860666      14.26874284     
   2226.7968 110.48491052     -28.14076096     11.42848354      14.26156136     
   2226.9492 110.15801668     -28.20510027     11.35818083      13.85936540     
   2227.1016 109.87792256     -28.22942863     11.28803953      13.85430385     
   2227.2540 107.36363544     -28.19666977     11.21744444      14.26639312     
   2227.4064 104.93695985     -28.16395747     11.14742938      14.36626635     
   2227.5588 106.73460839     -28.13124682     11.07664103      14.36673339     
   2227.7112 108.04179136     -28.09853152     11.00673044      14.47001426     
   2227.8636 108.27594420     -28.06578017     10.93581660      14.67121629     
   2228.0160 108.36273194     -28.03314518     10.91003640      14.87973221     
   2228.1684 107.96123491     -28.00039007     10.96205595      14.97623146     
   2228.3208 107.12750295     -27.96786222     11.01554204      14.98308186     
   2228.4732 107.34107600     -27.93500201     11.06739650      15.07690573     
   2228.6256 107.43902842     -27.90257155     11.12104220      14.98385227     
   2228.7780 108.89298254     -27.86962647     11.17274935      14.97367902     
   2228.9304 109.29306672     -27.83058357     11.22641040      14.88201419     
   2229.0828 110.75789705     -27.80861792     11.27804834      14.76889136     
   2229.2352 111.76150845     -27.78173569     11.33173234      14.78041055     
   2229.3876 112.93056857     -27.75420307     11.38341553      14.87021254     
   2229.5400 112.98724455     -27.72722845     11.43698530      14.98492898     
   2229.6924 112.31533137     -27.69966493     11.50213334      15.07460179     
   2229.8448 112.35473210     -27.67262157     11.50269787      15.08716415     
   2229.9972 111.41141684     -27.64513443     11.50208630      15.18537807     
   2230.1496 110.69931510     -27.61801071     11.50232305      15.07143738     
   2230.3020 110.79161877     -27.59060412     11.50206246      14.93296914     
   2230.4544 111.10827105     -27.56340334     11.50201533      14.81833359     
   2230.6068 110.79861358     -27.53606694     11.50221730      14.76880885     
   2230.7592 110.48538237     -27.50880575     11.50184051      14.57555328     
   2230.9116 111.11105543     -27.48151858     11.50234627      14.56507617     
   2231.0640 111.71997683     -27.45432026     11.50170620      14.57465031     
   2231.2164 112.34837993     -27.42703558     11.42976826      14.56545748     
   2231.3688 113.26751056     -27.40698226     11.36675335      14.57386711     
   2231.5212 113.89326167     -27.39055404     11.30532344      14.66761202     
   2231.6736 112.96624269     -27.37436906     11.24229798      14.77781529     
   2231.8260 111.10385975     -27.35781782     11.18081069      14.76994794     
   2231.9784 110.49988071     -27.34177553     11.11790493      14.67594421     
   2232.1308 109.23824916     -27.32506779     11.05626701      14.56570957     
   2232.2832 109.27149540     -27.30919253     10.99345803      14.57432746     
   2232.4356 110.15574066     -27.29220136     10.93161828      14.46338059     
   2232.5880 112.99755495     -27.27649933     10.86900406      14.37034440     
   2232.7404 115.40758025     -27.25931553     10.80697712      14.25845663     
   2232.8928 115.79177185     -27.24381633     10.74464430      13.86000517     
   2233.0452 117.87565816     -27.22642692     10.68249446      13.74735107     
   2233.1976 116.72815474     -27.21169589     10.62031055      13.55368172     
   2233.3500 116.01467437     -27.25746240     10.55801847      13.44076395     
   2233.5024 114.25815032     -27.30410427     10.49596828      13.34970348     
   2233.6548 112.60858643     -27.34815534     10.43342945      13.23674288     
   2233.8072 112.40373308     -27.39491621     10.37154403      13.14561591     
   2233.9596 112.92039936     -27.43889928     10.30884534      13.13507676     
   2234.1120 113.63714986     -27.48569584     10.24712399      13.14561134     
   2234.2644 114.16046844     -27.52968300     10.18426463      13.13527388     
   2234.4168 114.86797302     -27.57643583     10.12269289      13.14521612     
   2234.5692 114.78444427     -27.62280583     10.05970229      13.23716513     
   2234.7216 114.85905075     -27.59472101     9.99823690       13.24676133     
   2234.8740 117.88690269     -27.56264845     9.93517018       13.20796103     
   2235.0264 117.94928894     -27.53283055     9.86857659       13.15042563     
   2235.1788 117.89773344     -27.50094288     9.87992976       13.07412957     
   2235.3312 118.87092524     -27.47093113     9.91087722       12.93942881     
   2235.4836 119.45565005     -27.43923874     9.94024891       12.93056658     
   2235.6360 120.10342240     -27.41236817     9.97107872       12.83680365     
