~Version Information Block
 VERS.                2.00:     CWLS LOG ASCII STANDARD - VERSION 2.000000
 WRAP.                  NO:     One Line Per Depth Step
#
~Well Information Block
#MNEM.UNIT                     Data                         Information
#----------   ------------------------------------------   ----------------
 STRT.M                                      2100.0000:     START DEPTH
 STOP.M                                      2374.9296:     STOP DEPTH
 STEP.M                                         0.1524:     STEP
 NULL.                                       -999.2500:     NULL VALUE
 COMP.                                        Alphabow:     COMPANY
 WELL.                  SOC PINE CK 2-29-56-19 #107872:     WELL
 FLD .                                                :     FIELD
 LOC .                                                :     LOCATION
 CNTY.                                                :     COUNTY
 STAT.                                                :     STATE
 CTRY.                                                :     COUNTRY
 SRVC.                                                :     SERVICE COMPANY
 DATE.                                      03/28/2025:     DATE
 API .                                100022905619W500:     API NUMBER
 UWI .                                100022905619W500:     UWI NUMBER
 TVD .                                              NO:     TVD flag
 WSTA.                                             LOC:     Well status
#
~Curve Information Block
#MNEM.UNIT       API CODE      Curve Description
#----------    -------------   -------------------
 DEPT.M                    :   Depth in Meters
 GR  .GAPI     35 310 01 01:   Gamma Ray
 SP  .MV       01 010 01 01:   Spontaneous Potential
 ILD .OHMM     05 120 46 01:   Deep Induction Standard Processed Resistivity
 SFLA.OHMM     10 222 01 01:   SFL Resistivity (Averaged)
#
~Parameter Information Block
#MNEM.UNIT            Value               Description
#----------    --------------------    -------------------
 RUN .                         ONE:    Run Number
 PDAT.                         UNK:    Permanent Datum
 EPD .M                 -9999.5000:    Elevation Of Perm. Datum
 WSTA.                         LOC:    
 TD  .M                  2375.0000:    Total Depth
#
~Other Information Block
<DescLogPlotStart>   NEURALOG PLOT DEFINITION
PLOTDEFVERSION: 3
LASFILE: C:\Users\wadet\Desktop\Alphabow Evaluation\well_info\second_white_spec
DEPTHSCALE: 600.000000
RESOLUTION: 200
DEPTHLABELFREQ: 100.000000
HEAVYGRIDFREQ: 50.000000
MEDIUMGRIDFREQ: 25.000000
LIGHTGRIDFREQ: 25.000000
#
#   TRACK 1
#
STARTTRACK: 
 LEFTX: 0.500000 inch
 RIGHTX: 3.000000 inch
 SCALETYPE: Linear
 NUMCHARTDIVISIONS: 7
CURVE: GR    0.000000   150.000000 (0,0,255)      Solid             2     N    
CURVE: SP    -80.000000 20.000000  (0,131,131)    Dot               2     N    
ENDTRACK: 
#
#   TRACK 2
#
STARTTRACK: 
 LEFTX: 3.500000 inch
 RIGHTX: 6.000000 inch
 SCALETYPE: Linear
 NUMCHARTDIVISIONS: 10
CURVE: ILD   0.000000   50.000000  (255,0,255)    Solid             2     N    
CURVE: SFLA  0.000000   50.000000  (255,0,0)      Dot               2     N    
ENDTRACK: 
<DescLogPlotEnd>
~A DEPTH     GR               SP               ILD              SFLA            
# ...
   2281.0512 119.76825358     -25.31716709     14.70572375      19.88220085     
   2281.2036 119.47856360     -25.26811588     14.80935205      20.08952816     
   2281.3560 117.60129671     -25.21972838     14.87606212      20.18713760     
   2281.5084 113.60517192     -25.17072685     14.93862929      20.49892112     
   2281.6608 114.34565645     -25.12227897     15.00451129      20.59467940     
   2281.8132 115.46899338     -25.07334551     15.06772069      20.29637978     
   2281.9656 116.52311482     -25.02482521     15.13316591      20.18601564     
   2282.1180 117.64662165     -24.97596507     15.19664917      20.09465078     
   2282.2704 118.69958094     -24.92737394     15.26215045      19.88057711     
   2282.4228 119.82219790     -24.87857899     15.32607287      19.58616603     
   2282.5752 119.14533069     -24.82993104     15.39138137      19.37200024     
   2282.7276 117.62517345     -24.78118240     15.45525352      19.28124047     
   2282.8800 117.60673970     -24.73250011     15.49004622      19.27246215     
   2283.0324 117.31431416     -24.68377309     15.48961373      19.17978021     
   2283.1848 117.30559234     -24.63508189     15.41048641      19.17327250     
   2283.3372 117.31020611     -24.58635181     15.32695747      18.76982462     
   2283.4896 117.31023425     -24.53758290     15.24427066      18.76707380     
   2283.6420 119.16062793     -24.48881400     15.16093565      18.66524233     
   2283.7944 120.09535841     -24.44004510     15.07793883      18.66701642     
   2283.9468 120.39131329     -24.39127620     14.99699165      19.07092289     
   2284.0992 121.02835785     -24.34250729     14.91098578      19.17902584     
   2284.2516 120.39152816     -24.29373839     14.83130710      19.57878752     
   2284.4040 118.24611631     -24.24496949     14.77418055      20.09878615     
   2284.5564 116.05963373     -24.19625466     14.78149881      20.80223645     
   2284.7088 115.77055151     -24.14752036     14.87345273      21.42628656     
   2284.8612 116.94302203     -24.09882172     15.02091372      22.24942911     
   2285.0136 118.38863778     -24.05006822     15.16198664      22.89609074     
   2285.1660 120.08849160     -24.00139096     15.33858050      23.52079789     
   2285.3184 120.70663339     -23.95261488     15.47308459      24.28095509     
   2285.4708 121.63489901     -23.90396031     15.65628584      24.78341251     
   2285.6232 121.62157947     -23.85516257     15.78502024      24.68904404     
   2285.7756 121.63885726     -23.80652750     15.97332082      24.27796612     
   2285.9280 120.99249308     -23.75771345     16.09793499      23.97560886     
   2286.0804 120.41473077     -23.70909065     16.32528158      23.67070133     
   2286.2328 121.91787115     -23.66026905     17.82237352      23.05177358     
   2286.3852 122.28213027     -23.61164864     17.85645035      22.65401954     
   2286.5376 122.84544082     -23.56282996     17.65438600      22.43985869     
   2286.6900 122.60344034     -23.51420144     17.45776039      22.14968391     
   2286.8424 121.91198909     -23.50012479     17.20376556      21.92817227     
   2286.9948 121.36626543     -23.51405020     16.99942515      21.84573589     
   2287.1472 121.59734509     -23.52783565     16.75349434      21.61781380     
   2287.2996 121.67660555     -23.54173855     16.53987306      20.82865183     
   2287.4520 121.29017262     -23.55554763     16.30431596      20.49285820     
   2287.6044 118.27576176     -23.56942694     16.07976906      19.80144052     
   2287.7568 113.55840733     -23.58325842     16.09225244      19.16508257     
   2287.9092 109.61260497     -23.59711756     16.20920358      20.47263178     
   2288.0616 107.37209352     -23.61096612     16.34542469      22.67296122     
   2288.2140 105.59377961     -23.62481195     16.45427440      24.91796673     
   2288.3664 107.68066045     -23.63866960     16.59684865      27.12858128     
   2288.5188 110.23739127     -23.65251073     16.70138447      25.10404719     
   2288.6712 111.39332725     -23.66636875     16.83430760      25.79415996     
   2288.8236 115.50301768     -23.68021353     18.20034919      27.89744843     
   2288.9760 119.63767756     -23.69406828     19.46984232      30.01976105     
   2289.1284 121.69488701     -23.70791666     20.58860135      31.92946135     
   2289.2808 121.90186432     -23.72182531     20.82786017      29.40176355     
   2289.4332 119.83892395     -23.73571125     21.01157142      29.02300801     
   2289.5856 119.11231419     -23.74962934     21.22939004      28.73380952     
   2289.7380 118.60280901     -23.76350237     21.41793473      28.37181376     
   2289.8904 119.95336466     -23.77743646     21.62291114      28.08784730     
   2290.0428 121.00805403     -23.79129098     21.29954866      27.73092549     
   2290.1952 121.85196184     -23.80524534     21.00191009      27.77058765     
   2290.3476 122.92281137     -23.81907871     20.69479114      27.53541204     
   2290.5000 125.61777817     -23.83305413     20.39346059      27.36195434     
   2290.6524 126.31718388     -23.84686752     20.08946965      27.23098567     
   2290.8048 126.56334680     -23.86086089     19.78595031      26.43013904     
   2290.9572 126.92553665     -23.87465924     19.48310038      25.50883115     
   2291.1096 127.19591367     -23.88864291     19.17937919      24.49783510     
   2291.2620 125.98592815     -23.90488015     18.87798374      24.21769715     
   2291.4144 125.04520008     -23.91771346     18.57490055      23.92774212     
   2291.5668 124.42823509     -23.93309537     18.27230888      23.60328377     
   2291.7192 122.26883350     -23.94866528     17.98841531      23.30270481     
   2291.8716 121.62992897     -23.96406261     17.75823776      23.05755977     
   2292.0240 121.03452701     -23.97961442     17.52968548      22.85865459     
   2292.1764 120.69522777     -23.99503155     17.29864220      22.49391072     
   2292.3288 121.34816980     -24.01056291     17.07071041      22.24352314     
   2292.4812 124.71596145     -24.02600010     16.83828516      21.93761684     
   2292.6336 127.84706932     -24.04151279     16.61105558      21.83333692     
   2292.7860 129.66794694     -24.05696637     16.51461267      21.80474128     
   2292.9384 131.87196957     -24.07246567     16.46121855      21.77196918     
   2293.0908 133.07106625     -24.08792913     16.35726797      21.74797499     
   2293.2432 132.48987286     -24.10342235     16.26200520      21.71320272     
   2293.3956 130.90530924     -24.10536139     16.15660459      21.68927585     
   2293.5480 128.46909341     -24.09347483     16.06254205      21.65462025     
   2293.7004 125.95404070     -24.08156185     15.95611997      21.62960557     
   2293.8528 124.75995415     -24.06968127     15.90493979      21.82812485     
   2294.0052 123.78656001     -24.05776879     16.10092462      21.93542006     
   2294.1576 122.28376053     -24.04589266     16.21122914      21.93004087     
   2294.3100 121.31183044     -24.03397659     16.30394156      21.93525594     
   2294.4624 120.42814078     -24.02210310     16.32065214      21.92982684     
   2294.6148 120.07515785     -24.01018539     16.33225073      21.93503727     
   2294.7672 118.57141136     -23.99831253     16.36511820      21.92957250     
   2294.9196 117.92442130     -23.98639514     16.37595601      21.83242862     
   2295.0720 117.14790519     -23.97452112     16.40929675      21.66036781     
   2295.2244 116.30735731     -23.96260559     16.40433864      21.53102169     
   2295.3768 114.85740634     -23.95072917     16.31322611      21.41875833     
   2295.5292 113.91040291     -23.93881641     16.30246515      21.14546013     
   2295.6816 114.23384803     -23.92693704     15.90417932      20.91026121     
   2295.8340 114.53075304     -23.91500434     15.67722627      20.68231417     
   2295.9864 116.69850658     -23.90504695     15.50181385      20.60234595     
