~Version Information Block
 VERS.                2.00:     CWLS LOG ASCII STANDARD - VERSION 2.000000
 WRAP.                  NO:     One Line Per Depth Step
#
~Well Information Block
#MNEM.UNIT                     Data                         Information
#----------   ------------------------------------------   ----------------
 STRT.M                                      2100.0000:     START DEPTH
 STOP.M                                      2374.9296:     STOP DEPTH
 STEP.M                                         0.1524:     STEP
 NULL.                                       -999.2500:     NULL VALUE
 COMP.                                        Alphabow:     COMPANY
 WELL.                  SOC PINE CK 2-29-56-19 #107872:     WELL
 FLD .                                                :     FIELD
 LOC .                                                :     LOCATION
 CNTY.                                                :     COUNTY
 STAT.                                                :     STATE
 CTRY.                                                :     COUNTRY
 SRVC.                                                :     SERVICE COMPANY
 DATE.                                      03/28/2025:     DATE
 API .                                100022905619W500:     API NUMBER
 UWI .                                100022905619W500:     UWI NUMBER
 TVD .                                              NO:     TVD flag
 WSTA.                                             LOC:     Well status
#
~Curve Information Block
#MNEM.UNIT       API CODE      Curve Description
#----------    -------------   -------------------
 DEPT.M                    :   Depth in Meters
 GR  .GAPI     35 310 01 01:   Gamma Ray
 SP  .MV       01 010 01 01:   Spontaneous Potential
 ILD .OHMM     05 120 46 01:   Deep Induction Standard Processed Resistivity
 SFLA.OHMM     10 222 01 01:   SFL Resistivity (Averaged)
#
~Parameter Information Block
#MNEM.UNIT            Value               Description
#----------    --------------------    -------------------
 RUN .                         ONE:    Run Number
 PDAT.                         UNK:    Permanent Datum
 EPD .M                 -9999.5000:    Elevation Of Perm. Datum
 WSTA.                         LOC:    
 TD  .M                  2375.0000:    Total Depth
#
~Other Information Block
<DescLogPlotStart>   NEURALOG PLOT DEFINITION
PLOTDEFVERSION: 3
LASFILE: C:\Users\wadet\Desktop\Alphabow Evaluation\well_info\second_white_spec
DEPTHSCALE: 600.000000
RESOLUTION: 200
DEPTHLABELFREQ: 100.000000
HEAVYGRIDFREQ: 50.000000
MEDIUMGRIDFREQ: 25.000000
LIGHTGRIDFREQ: 25.000000
#
#   TRACK 1
#
STARTTRACK: 
 LEFTX: 0.500000 inch
 RIGHTX: 3.000000 inch
 SCALETYPE: Linear
 NUMCHARTDIVISIONS: 7
CURVE: GR    0.000000   150.000000 (0,0,255)      Solid             2     N    
CURVE: SP    -80.000000 20.000000  (0,131,131)    Dot               2     N    
ENDTRACK: 
#
#   TRACK 2
#
STARTTRACK: 
 LEFTX: 3.500000 inch
 RIGHTX: 6.000000 inch
 SCALETYPE: Linear
 NUMCHARTDIVISIONS: 10
CURVE: ILD   0.000000   50.000000  (255,0,255)    Solid             2     N    
CURVE: SFLA  0.000000   50.000000  (255,0,0)      Dot               2     N    
ENDTRACK: 
<DescLogPlotEnd>
~A DEPTH     GR               SP               ILD              SFLA            
# ...
   2115.0876 100.07548182     -32.29296474     11.51244707      13.82697094     
   2115.2400 101.21309087     -32.38255910     11.39302427      13.75680046     
   2115.3924 102.39369135     -32.47604003     11.27468052      13.67768274     
   2115.5448 102.76830175     -32.57986016     11.17476039      13.60732110     
   2115.6972 103.62335993     -32.47174036     11.11182025      13.52868491     
   2115.8496 106.17182229     -32.34076442     11.04870626      13.44709660     
   2116.0020 108.26718803     -32.21219569     10.98559784      13.44392542     
   2116.1544 108.96128170     -32.08185167     10.92257281      13.34455729     
   2116.3068 110.43508820     -31.95260204     10.85945545      13.26628714     
   2116.4592 109.89306391     -31.82295411     10.79622045      13.06202915     
   2116.6116 108.89205329     -31.69302763     10.73282164      12.83307916     
   2116.7640 108.65251177     -31.55013085     10.66939310      12.77259883     
   2116.9164 109.51508494     -31.54333109     10.60614947      12.61970686     
   2117.0688 110.19408078     -31.53769122     10.54257332      12.46344874     
   2117.2212 110.14145545     -31.52986051     10.47946169      12.31230017     
   2117.3736 109.25711927     -31.52439410     10.41577639      12.21793680     
   2117.5260 107.98668030     -31.51652971     10.42209672      12.22238474     
   2117.6784 104.60609215     -31.51096185     10.52410193      12.21331417     
   2117.8308 101.81173697     -31.50332197     10.62673755      12.24523768     
   2117.9832 99.64285135      -31.49744894     10.72885042      12.28447813     
   2118.1356 99.65989600      -31.48984713     10.83142995      12.35021127     
   2118.2880 102.41938984     -31.48359108     10.93360141      12.38337256     
   2118.4404 103.69703201     -31.47630963     11.03669629      12.43332805     
   2118.5928 104.38721448     -31.46977785     11.13895951      12.71267927     
   2118.7452 106.18302303     -31.46271755     11.13976959      12.74446830     
   2118.8976 108.28262054     -31.45602570     11.02162991      12.70781885     
   2119.0500 108.66179827     -31.44906160     10.90538222      12.74958947     
   2119.2024 109.82493763     -31.44199705     10.78654016      12.63739611     
   2119.3548 109.89742200     -31.43449694     10.67113612      12.55336925     
   2119.5072 109.51492338     -31.42742547     10.55135305      12.35972866     
   2119.6596 108.34625093     -31.42062066     10.43696888      12.35141084     
   2119.8120 108.28172733     -31.41399395     10.20163023      12.08393704     
   2119.9644 108.33877330     -31.40709660     9.86212771       9.69984562      
   2120.1168 108.28430087     -31.40055115     9.51430692       9.44893647      
   2120.2692 108.32692702     -31.39358931     9.17558976       9.33922302      
   2120.4216 108.29007586     -31.38708690     8.82716755       9.08802871      
   2120.5740 108.32107286     -31.38010701     8.44095566       8.97964688      
   2120.7264 108.30233216     -31.37359548     8.46156459       8.72820963      
   2120.8788 108.31664722     -31.36665254     8.54203953       8.57872288      
   2121.0312 108.31311592     -31.36007721     8.61372398       8.59395760      
   2121.1836 108.31732088     -31.35322234     8.69262126       8.98719778      
   2121.3360 108.32242561     -31.34653868     8.76515757       9.25000941      
   2121.4884 107.07624665     -31.13691580     8.84216256       9.59424502      
   2121.6408 104.30601344     -30.41247547     8.91705756       11.47659403     
   2121.7932 102.42981662     -29.68825379     8.99723535       11.60127314     
   2121.9456 102.13916396     -29.48926306     9.08549904       11.61670955     
   2122.0980 102.73179315     -29.49556641     9.16699727       11.72798020     
   2122.2504 103.37623494     -29.50130301     9.25820660       11.75060342     
   2122.4028 103.65715513     -29.50768438     9.33656887       11.92688885     
   2122.5552 103.68720739     -29.51336920     9.43047513       12.20177689     
   2122.7076 104.58416082     -29.51977388     9.50652444       12.33063439     
   2122.8600 105.54454253     -29.52546448     9.60225971       12.30797154     
   2123.0124 106.13096259     -29.53183533     9.65658021       12.32609314     
   2123.1648 106.47261085     -29.53758520     9.66793853       12.31150599     
   2123.3172 108.61004872     -29.54387531     10.28195588      12.32234250     
   2123.4696 111.11460672     -29.54972231     10.48095118      12.27296754     
   2123.6220 111.70836857     -29.55590478     10.46474108      12.21392755     
   2123.7744 111.98639071     -29.56186365     10.46901577      12.14408788     
   2123.9268 112.63846249     -29.56759272     10.45444811      12.08298845     
   2124.0792 111.41566347     -29.57287832     10.45686737      12.01652035     
   2124.2316 109.54162049     -29.57861174     10.44444100      11.95220681     
   2124.3840 107.38854744     -29.58466411     10.44460523      11.88609378     
   2124.5364 105.51895220     -29.59071648     10.43446293      11.80996711     
   2124.6888 104.91273222     -29.59676885     10.43242541      11.80942506     
   2124.8412 104.85249233     -29.60316102     10.42430620      11.81020542     
   2124.9936 104.79871195     -29.60940213     10.42050730      11.81005372     
   2125.1460 104.71974625     -29.61590065     10.41382231      11.81078190     
   2125.2984 104.66996855     -29.62200884     10.40890287      11.77189892     
   2125.4508 104.59199830     -29.62866173     10.40323929      11.74099015     
   2125.6032 106.46223358     -29.63460067     10.39783713      11.70823016     
   2125.7556 107.68466494     -29.64142999     10.39336026      11.67788726     
   2125.9080 108.63119696     -29.64719372     10.38698235      11.64420070     
   2126.0604 111.70134643     -29.65418844     10.38265152      11.61522547     
   2126.2128 112.01640447     -29.65980490     10.42245947      11.58710856     
   2126.3652 110.14681527     -29.66692119     10.49183938      11.55864947     
   2126.5176 108.58766101     -29.67244810     10.56221434      11.53169576     
   2126.6700 107.66651642     -29.67961721     10.63132990      11.55684549     
   2126.8224 105.77118247     -29.68513089     10.70309063      11.62725521     
   2126.9748 105.82616662     -29.69227283     10.76798540      11.68200861     
   2127.1272 107.61182985     -29.91606445     10.84431749      11.75692201     
   2127.2796 110.18299166     -30.29786259     10.90347150      11.79864557     
   2127.4320 111.92492359     -30.67833314     10.97708586      12.15477788     
   2127.5844 113.92308916     -31.05997498     10.99891259      12.22819553     
   2127.7368 112.21502207     -31.44061780     11.28182172      12.54429478     
   2127.8892 103.42705232     -31.82207990     11.53403722      12.77572604     
   2128.0416 102.09211910     -32.20295303     11.79921407      13.08437873     
   2128.1940 101.15007147     -32.58280666     12.05365982      13.31247444     
   2128.3464 95.38815154      -32.96401032     12.30860764      13.75255624     
   2128.4988 85.36210428      -33.34309744     12.57768559      18.68468145     
   2128.6512 75.71888946      -33.72541877     12.82875108      23.60885323     
   2128.8036 66.87484591      -34.10306057     16.22822510      28.53302501     
   2128.9560 57.84159848      -34.48711129     19.48811169      33.45719679     
   2129.1084 48.58145097      -34.86280156     22.76123217      38.38136857     
   2129.2608 50.75833426      -35.24914513     25.07891212      43.30554035     
   2129.4132 53.20775108      -35.62288563     27.57670794      45.95895907     
   2129.5656 55.50822361      -36.01175765     30.18389496      45.72157053     
   2129.7180 57.94330731      -36.38369781     26.34178802      45.48418200     
   2129.8704 60.25859757      -36.77447730     26.86141700      45.24679346     
   2130.0228 62.67974277      -37.14490040     27.51591524      45.00940493     
