~Version Information Block
 VERS.                2.00:     CWLS LOG ASCII STANDARD - VERSION 2.000000
 WRAP.                  NO:     One Line Per Depth Step
#
~Well Information Block
#MNEM.UNIT                     Data                         Information
#----------   ------------------------------------------   ----------------
 STRT.M                                      2100.0000:     START DEPTH
 STOP.M                                      2374.9296:     STOP DEPTH
 STEP.M                                         0.1524:     STEP
 NULL.                                       -999.2500:     NULL VALUE
 COMP.                                        Alphabow:     COMPANY
 WELL.                  SOC PINE CK 2-29-56-19 #107872:     WELL
 FLD .                                                :     FIELD
 LOC .                                                :     LOCATION
 CNTY.                                                :     COUNTY
 STAT.                                                :     STATE
 CTRY.                                                :     COUNTRY
 SRVC.                                                :     SERVICE COMPANY
 DATE.                                      03/28/2025:     DATE
 API .                                100022905619W500:     API NUMBER
 UWI .                                100022905619W500:     UWI NUMBER
 TVD .                                              NO:     TVD flag
 WSTA.                                             LOC:     Well status
#
~Curve Information Block
#MNEM.UNIT       API CODE      Curve Description
#----------    -------------   -------------------
 DEPT.M                    :   Depth in Meters
 GR  .GAPI     35 310 01 01:   Gamma Ray
 SP  .MV       01 010 01 01:   Spontaneous Potential
 ILD .OHMM     05 120 46 01:   Deep Induction Standard Processed Resistivity
 SFLA.OHMM     10 222 01 01:   SFL Resistivity (Averaged)
#
~Parameter Information Block
#MNEM.UNIT            Value               Description
#----------    --------------------    -------------------
 RUN .                         ONE:    Run Number
 PDAT.                         UNK:    Permanent Datum
 EPD .M                 -9999.5000:    Elevation Of Perm. Datum
 WSTA.                         LOC:    
 TD  .M                  2375.0000:    Total Depth
#
~Other Information Block
<DescLogPlotStart>   NEURALOG PLOT DEFINITION
PLOTDEFVERSION: 3
LASFILE: C:\Users\wadet\Desktop\Alphabow Evaluation\well_info\second_white_spec
DEPTHSCALE: 600.000000
RESOLUTION: 200
DEPTHLABELFREQ: 100.000000
HEAVYGRIDFREQ: 50.000000
MEDIUMGRIDFREQ: 25.000000
LIGHTGRIDFREQ: 25.000000
#
#   TRACK 1
#
STARTTRACK: 
 LEFTX: 0.500000 inch
 RIGHTX: 3.000000 inch
 SCALETYPE: Linear
 NUMCHARTDIVISIONS: 7
CURVE: GR    0.000000   150.000000 (0,0,255)      Solid             2     N    
CURVE: SP    -80.000000 20.000000  (0,131,131)    Dot               2     N    
ENDTRACK: 
#
#   TRACK 2
#
STARTTRACK: 
 LEFTX: 3.500000 inch
 RIGHTX: 6.000000 inch
 SCALETYPE: Linear
 NUMCHARTDIVISIONS: 10
CURVE: ILD   0.000000   50.000000  (255,0,255)    Solid             2     N    
CURVE: SFLA  0.000000   50.000000  (255,0,0)      Dot               2     N    
ENDTRACK: 
<DescLogPlotEnd>
~A DEPTH     GR               SP               ILD              SFLA            
# ...
   2235.7884 120.08126105     -27.39340784     10.00088644      12.93067846     
   2235.9408 119.78639154     -27.37546551     10.03136689      13.04068784     
   2236.0932 119.77498405     -27.35668888     10.06133081      13.13500591     
   2236.2456 120.09521276     -27.33857575     10.09140422      13.24445784     
   2236.3980 120.08599391     -27.31995002     10.12190231      13.23716255     
   2236.5504 120.40349405     -27.30171152     10.15140941      13.24414903     
   2236.7028 120.39038872     -27.28317809     10.18251746      13.23724048     
   2236.8552 120.40838043     -27.26485185     10.21139604      13.03978480     
   2237.0076 119.45204908     -27.24634904     10.24312445      12.82887359     
   2237.1600 118.56017384     -27.22788261     10.27141778      12.73349386     
   2237.3124 118.20937540     -27.20940053     10.30367064      12.62448917     
   2237.4648 117.95161300     -27.19090922     10.33151458      12.52937959     
   2237.6172 117.88895838     -27.17245285     10.36424238      12.62499463     
   2237.7696 118.27074876     -27.15393595     10.37714558      12.63157386     
   2237.9220 120.55152169     -27.13550410     10.37984958      12.62537861     
   2238.0744 121.37330355     -27.11697031     10.58143784      12.63211947     
   2238.2268 121.89290057     -27.09857202     10.68615133      12.72825559     
   2238.3792 122.61659224     -27.08002020     10.68375108      12.73469679     
   2238.5316 124.37036729     -27.06163772     10.69730814      12.72909761     
   2238.6840 124.16963321     -27.04307310     10.72641793      12.63298093     
   2238.8364 121.89791669     -27.02469977     10.75982190      12.52485882     
   2238.9888 120.14817433     -27.00381051     10.78889233      12.53113033     
   2239.1412 119.43016485     -26.96777884     10.82207169      12.42201961     
   2239.2936 117.35467266     -26.92627066     10.85122750      12.32693002     
   2239.4460 117.26843499     -26.88507357     10.88465507      12.31853586     
   2239.5984 117.33855893     -26.84352219     10.91330140      12.22542875     
   2239.7508 117.58593172     -26.80238453     10.94748494      12.31736064     
   2239.9032 116.78978095     -26.76075902     10.97518747      12.76344202     
   2240.0556 115.95569983     -26.71970767     11.01036741      12.95067052     
   2240.2080 115.17956334     -26.67798708     11.03682618      13.14606468     
   2240.3604 114.52425259     -26.63703548     11.07319377      13.74540056     
   2240.5128 112.97056536     -26.59521505     11.09884190      13.96358359     
   2240.6652 112.99155042     -26.55435857     11.13594734      14.35842620     
   2240.8176 117.30045263     -26.51245250     11.16082140      14.67850714     
   2240.9700 119.19322374     -26.47166776     11.19961092      14.86959261     
   2241.1224 121.01266175     -26.42970768     11.49965833      14.88168389     
   2241.2748 123.52389836     -26.38508669     11.50569268      14.87057281     
   2241.4272 125.01470979     -26.38444623     11.52857829      14.67615033     
   2241.5796 124.44875013     -26.38499422     11.60616035      14.46336028     
   2241.7320 121.91743961     -26.38438321     11.67438568      14.26579824     
   2241.8844 119.49304291     -26.38487028     11.75050637      14.15828150     
   2242.0368 117.27813935     -26.38434049     11.82029024      14.16192914     
   2242.1892 115.46729251     -26.38473009     11.91244388      14.15964483     
   2242.3416 115.11589261     -26.38430926     11.91162743      14.16144868     
   2242.4940 115.46298337     -26.38458365     11.91176562      14.16093168     
   2242.6464 119.14207664     -26.38427887     11.90448378      14.36562260     
   2242.7988 120.10340504     -26.38444162     11.89124950      14.57071319     
   2242.9512 121.30789451     -26.38423927     11.88196792      14.87653360     
   2243.1036 126.60310329     -26.38431292     11.86730919      15.18413632     
   2243.2560 126.57291081     -26.38418313     11.85891489      15.28551728     
   2243.4084 124.43746159     -26.38420282     11.84356548      15.28652846     
   2243.5608 122.24020578     -26.38410720     11.83604133      15.28627782     
   2243.7132 118.86820438     -26.37565512     11.81991808      15.28622868     
   2243.8656 117.29173974     -26.35961361     11.81253262      15.18391549     
   2244.0180 116.39006908     -26.34358663     12.01225492      14.97954509     
   2244.1704 115.43932770     -26.32755001     12.13633427      14.77580391     
   2244.3228 114.21623597     -26.31151825     12.25600283      14.67347205     
   2244.4752 115.13514527     -26.29548607     12.38487292      14.57232704     
   2244.6276 115.44023001     -26.27945043     12.50463381      14.57197455     
   2244.7800 116.07446076     -26.26342139     12.63321080      14.67529330     
   2244.9324 117.04944935     -26.24738347     12.75287782      14.80684867     
   2245.0848 118.29458918     -26.23135577     12.88158049      14.96691569     
   2245.2372 119.12570745     -26.21531747     13.00086211      15.08332230     
   2245.3896 119.51668562     -26.19928924     12.99659467      15.28960788     
   2245.5420 119.11954142     -26.18325231     12.93386127      15.28736085     
   2245.6944 116.43565085     -26.16717398     12.88164069      15.39194748     
   2245.8468 115.08482417     -26.15106587     12.81817250      15.79684894     
   2245.9992 112.72458844     -26.13495880     12.76651072      15.69868924     
   2246.1516 112.60262536     -26.11883948     12.70245679      15.59160199     
   2246.3040 113.03617733     -26.10272057     12.65106164      15.69923033     
   2246.4564 115.70041738     -26.08660131     12.58751711      15.89660780     
   2246.6088 117.05489660     -26.07048235     12.52877263      16.31232846     
   2246.7612 117.25591413     -26.05436314     12.82990968      16.61020452     
   2246.9136 116.73993893     -26.03824412     13.03875534      17.12970283     
   2247.0660 116.33553811     -26.02212496     13.23926789      17.63045841     
   2247.2184 116.11153432     -26.00600590     13.34428064      17.84464729     
   2247.3708 114.79646390     -25.98988678     13.49132457      18.34500050     
   2247.5232 114.86804909     -25.97376769     13.54761250      18.55921300     
   2247.6756 116.03997212     -25.95764858     13.54790626      18.54931862     
   2247.8280 116.40811986     -25.94152949     13.75080994      18.35449571     
   2247.9804 117.27818681     -25.92541038     13.75284846      18.14166536     
   2248.1328 117.63818015     -25.90929122     13.74998685      17.84312332     
   2248.2852 117.27620221     -25.89317207     13.69856643      17.73474595     
   2248.4376 118.25281574     -25.87705291     13.57721051      17.53559121     
   2248.5900 121.29867520     -25.86093375     13.44713647      17.42929126     
   2248.7424 122.58720511     -25.84481460     13.44331350      17.43259821     
   2248.8948 124.08808827     -25.82869544     13.44685945      17.32842082     
   2249.0472 126.45227877     -25.81257629     13.43597530      17.38219697     
   2249.1996 126.87796872     -25.79645713     13.42929526      17.32957549     
   2249.3520 126.30118774     -25.78033797     13.41731328      17.33179688     
   2249.5044 125.02528809     -25.76421882     13.40941679      17.12620562     
   2249.6568 123.82444359     -25.74809966     13.39822160      17.02736748     
   2249.8092 124.10036014     -25.73198050     13.38932657      16.92272698     
   2249.9616 122.49195903     -25.71586135     13.37894935      16.57887746     
   2250.1140 120.90983315     -25.69974219     13.36915380      16.49329382     
   2250.2664 119.37030612     -25.68362304     13.35978246      16.41877799     
   2250.4188 118.22710728     -25.66750388     13.34904856      16.30812835     
   2250.5712 117.93335452     -25.65138472     13.34488179      16.21590993     
   2250.7236 117.29730869     -25.63526557     13.36027497      16.20446196     
