~Version Information Block
 VERS.                2.00:     CWLS LOG ASCII STANDARD - VERSION 2.000000
 WRAP.                  NO:     One Line Per Depth Step
#
~Well Information Block
#MNEM.UNIT                     Data                         Information
#----------   ------------------------------------------   ----------------
 STRT.M                                      2100.0000:     START DEPTH
 STOP.M                                      2374.9296:     STOP DEPTH
 STEP.M                                         0.1524:     STEP
 NULL.                                       -999.2500:     NULL VALUE
 COMP.                                        Alphabow:     COMPANY
 WELL.                  SOC PINE CK 2-29-56-19 #107872:     WELL
 FLD .                                                :     FIELD
 LOC .                                                :     LOCATION
 CNTY.                                                :     COUNTY
 STAT.                                                :     STATE
 CTRY.                                                :     COUNTRY
 SRVC.                                                :     SERVICE COMPANY
 DATE.                                      03/28/2025:     DATE
 API .                                100022905619W500:     API NUMBER
 UWI .                                100022905619W500:     UWI NUMBER
 TVD .                                              NO:     TVD flag
 WSTA.                                             LOC:     Well status
#
~Curve Information Block
#MNEM.UNIT       API CODE      Curve Description
#----------    -------------   -------------------
 DEPT.M                    :   Depth in Meters
 GR  .GAPI     35 310 01 01:   Gamma Ray
 SP  .MV       01 010 01 01:   Spontaneous Potential
 ILD .OHMM     05 120 46 01:   Deep Induction Standard Processed Resistivity
 SFLA.OHMM     10 222 01 01:   SFL Resistivity (Averaged)
#
~Parameter Information Block
#MNEM.UNIT            Value               Description
#----------    --------------------    -------------------
 RUN .                         ONE:    Run Number
 PDAT.                         UNK:    Permanent Datum
 EPD .M                 -9999.5000:    Elevation Of Perm. Datum
 WSTA.                         LOC:    
 TD  .M                  2375.0000:    Total Depth
#
~Other Information Block
<DescLogPlotStart>   NEURALOG PLOT DEFINITION
PLOTDEFVERSION: 3
LASFILE: C:\Users\wadet\Desktop\Alphabow Evaluation\well_info\second_white_spec
DEPTHSCALE: 600.000000
RESOLUTION: 200
DEPTHLABELFREQ: 100.000000
HEAVYGRIDFREQ: 50.000000
MEDIUMGRIDFREQ: 25.000000
LIGHTGRIDFREQ: 25.000000
#
#   TRACK 1
#
STARTTRACK: 
 LEFTX: 0.500000 inch
 RIGHTX: 3.000000 inch
 SCALETYPE: Linear
 NUMCHARTDIVISIONS: 7
CURVE: GR    0.000000   150.000000 (0,0,255)      Solid             2     N    
CURVE: SP    -80.000000 20.000000  (0,131,131)    Dot               2     N    
ENDTRACK: 
#
#   TRACK 2
#
STARTTRACK: 
 LEFTX: 3.500000 inch
 RIGHTX: 6.000000 inch
 SCALETYPE: Linear
 NUMCHARTDIVISIONS: 10
CURVE: ILD   0.000000   50.000000  (255,0,255)    Solid             2     N    
CURVE: SFLA  0.000000   50.000000  (255,0,0)      Dot               2     N    
ENDTRACK: 
<DescLogPlotEnd>
~A DEPTH     GR               SP               ILD              SFLA            
# ...
   2341.4016 101.21082826     -23.87298603     10.23643963      12.00565314     
   2341.5540 102.71499468     -23.82973501     10.27972215      12.06281312     
   2341.7064 103.06430843     -23.78681355     10.32304248      12.12071777     
   2341.8588 104.27060075     -23.74357521     10.36678597      12.17814630     
   2342.0112 106.77587433     -23.70064880     10.40966511      12.23598744     
   2342.1636 107.67754769     -23.65740820     10.45380993      12.29356371     
   2342.3160 108.00621134     -23.61449192     10.49634544      12.35120427     
   2342.4684 107.67858533     -23.57123323     10.54076155      12.40904594     
   2342.6208 106.14644087     -23.52834251     10.58208250      12.46662077     
   2342.7732 105.51416095     -23.48505183     10.58330331      12.52453125     
   2342.9256 103.05000889     -23.44219796     10.63361441      12.58203743     
   2343.0780 99.01937055      -23.39886754     10.68693739      12.64001308     
   2343.2304 97.17140501      -23.35605404     10.73655035      12.69746079     
   2343.3828 96.23704962      -23.31268506     10.79003722      12.81082141     
   2343.5352 94.38835092      -23.30972112     10.83906094      13.00319107     
   2343.6876 94.07091429      -23.36980486     10.89347334      13.19619693     
   2343.8400 95.93698662      -23.43049019     10.94126721      13.38855898     
   2343.9924 97.78411279      -23.49056205     10.99717492      13.58157007     
   2344.1448 100.26831635     -23.55123347     11.04326471      13.77398126     
   2344.2972 101.80574136     -23.61134410     11.10101352      13.96695662     
   2344.4496 102.43821250     -23.67179991     11.14540373      14.15941947     
   2344.6020 103.04707384     -23.73198382     11.20509009      14.35232950     
   2344.7544 102.75285468     -23.79230127     11.24764005      14.54486841     
   2344.9068 103.65476214     -23.85267565     11.30874372      14.73769512     
   2345.0592 104.58255975     -23.91275616     11.35010854      14.93032082     
   2345.2116 105.46989654     -23.97340554     11.40754480      15.12306118     
   2345.3640 106.17216438     -24.03318376     11.90768921      15.31532788     
   2345.5164 106.45413838     -24.09415019     12.03347267      15.50749434     
   2345.6688 106.78802330     -24.15361029     12.13386336      15.70039871     
   2345.8212 106.75469061     -24.21488178     12.25383601      15.89335791     
   2345.9736 107.09769020     -24.27413107     12.35544396      16.08702024     
   2346.1260 107.05338494     -24.33573019     12.47389301      16.27909815     
   2346.2784 106.17605864     -24.39479053     12.57725488      16.48229887     
   2346.4308 104.57488313     -24.45652961     12.69378546      16.70011963     
   2346.5832 103.08775062     -24.52277920     12.79909427      16.92266993     
   2346.7356 102.71477928     -24.47993612     13.03929449      17.13862128     
   2346.8880 104.63922909     -24.42832101     13.34241390      17.36290988     
   2347.0404 107.35311511     -24.37935454     13.53990713      17.57673169     
   2347.1928 108.66615480     -24.32790090     13.70741706      17.80354537     
   2347.3452 115.09104436     -24.27872691     13.87840284      18.01534326     
   2347.4976 119.50043417     -24.22751630     14.04671302      18.24432507     
   2347.6500 124.99613417     -24.17807592     14.21759813      18.17172231     
   2347.8024 129.71327825     -24.12714200     14.38897645      17.75235034     
   2347.9548 128.08056375     -24.07742786     14.56065975      17.74324880     
   2348.1072 126.60677579     -24.02675215     14.72944455      18.26637487     
   2348.2596 124.36479928     -23.97680665     14.89985949      19.07248651     
   2348.4120 120.40593737     -23.92632606     15.06790188      19.49392832     
   2348.5644 120.03785160     -23.87622867     15.23923135      20.30016518     
   2348.7168 120.08288409     -23.82585250     15.39209706      21.12998854     
   2348.8692 118.81726538     -23.77569951     15.54722942      21.83168750     
   2349.0216 118.52006131     -23.72534392     15.69146762      22.45754260     
   2349.1740 117.91291381     -23.69894254     15.85030747      22.85020671     
   2349.3264 116.34443210     -23.69886688     15.99089389      23.37383885     
   2349.4788 117.94195048     -23.69887092     16.15236410      23.96903875     
   2349.6312 117.87630846     -23.69878555     16.30092294      24.80093575     
   2349.7836 118.28004607     -23.69847126     16.51934579      25.59989005     
   2349.9360 117.72206060     -23.69849202     16.91276763      26.90154831     
   2350.0884 117.33348791     -23.69802943     18.76563648      28.34229421     
   2350.2408 116.66753621     -23.69830484     21.71159004      29.81411079     
   2350.3932 106.55758008     -23.69748557     22.64394416      32.04101657     
   2350.5456 102.06312927     -23.69820921     22.83656316      32.97349972     
   2350.6980 98.82044466      -23.69686639     22.87482177      34.49492312     
   2350.8504 95.56134254      -23.69816768     22.80009197      36.02803703     
   2351.0028 96.02771047      -23.69621825     22.29627574      37.25510363     
   2351.1552 99.28526632      -23.69822853     21.79188094      37.55766280     
   2351.3076 101.27170842     -23.69574315     21.28036873      36.84820457     
   2351.4600 105.48943395     -23.69831214     20.78369307      35.92083838     
   2351.6124 109.91441468     -23.69537873     20.38353624      33.07044350     
   2351.7648 113.17120048     -23.69837579     19.15192711      30.91402059     
   2351.9172 114.84854804     -23.69516591     18.12394361      28.78185404     
   2352.0696 113.88127987     -23.48943166     17.33773710      26.93030866     
   2352.2220 113.59669297     -23.31411134     17.31968548      26.22945581     
   2352.3744 113.27553372     -23.14506035     17.13353146      25.70652538     
   2352.5268 112.96837925     -22.96997760     16.94906650      25.41323709     
   2352.6792 113.28226376     -22.80057464     16.79345759      25.50372201     
   2352.8316 113.88455545     -22.62594069     16.61156579      25.51813261     
   2352.9840 113.90267647     -22.45600113     16.44855788      25.50775538     
   2353.1364 113.89004188     -22.28192864     16.27306033      25.00844806     
   2353.2888 113.58682335     -22.11139041     15.82736967      24.49201342     
   2353.4412 113.59475115     -22.00282312     15.22188249      23.47867567     
   2353.5936 113.26931680     -21.93580402     14.61054544      22.14528637     
   2353.7460 112.37739169     -21.86691382     14.07089091      21.23479976     
   2353.8984 111.39677478     -21.79946176     14.06267704      20.20577443     
   2354.0508 110.86353438     -21.73091548     13.96989807      19.39571605     
   2354.2032 111.06235156     -21.66321757     14.21898260      18.77226673     
   2354.3556 112.48321605     -21.59481593     14.47040243      18.37453517     
   2354.5080 112.88467831     -21.52671814     14.69928442      18.35810063     
   2354.6604 114.02445277     -21.45843407     14.95163888      18.47861056     
   2354.8128 114.09140879     -21.39028368     15.18062250      18.65981531     
   2354.9652 115.49386932     -21.32204246     15.43260011      18.98324589     
   2355.1176 120.25839946     -21.25386043     15.66196846      19.32495460     
   2355.2700 123.96977358     -21.17724870     15.91361955      19.72702574     
   2355.4224 131.38908604     -21.09193875     16.14291106      20.38842888     
   2355.5748 131.70821171     -21.00659339     16.39444113      21.54635452     
   2355.7272 136.03540219     -20.92129708     16.60459736      22.83735369     
   2355.8796 135.40916499     -20.83603980     16.72229933      23.17798019     
   2356.0320 135.12600314     -20.75080674     17.12046124      26.10383602     
   2356.1844 135.38253002     -20.66554816     17.55680972      27.97415793     
   2356.3368 135.15404434     -20.58031539     17.96936781      28.86191809     
