~Version Information Block
 VERS.                2.00:     CWLS LOG ASCII STANDARD - VERSION 2.000000
 WRAP.                  NO:     One Line Per Depth Step
#
~Well Information Block
#MNEM.UNIT                     Data                         Information
#----------   ------------------------------------------   ----------------
 STRT.M                                      2100.0000:     START DEPTH
 STOP.M                                      2374.9296:     STOP DEPTH
 STEP.M                                         0.1524:     STEP
 NULL.                                       -999.2500:     NULL VALUE
 COMP.                                        Alphabow:     COMPANY
 WELL.                  SOC PINE CK 2-29-56-19 #107872:     WELL
 FLD .                                                :     FIELD
 LOC .                                                :     LOCATION
 CNTY.                                                :     COUNTY
 STAT.                                                :     STATE
 CTRY.                                                :     COUNTRY
 SRVC.                                                :     SERVICE COMPANY
 DATE.                                      03/28/2025:     DATE
 API .                                100022905619W500:     API NUMBER
 UWI .                                100022905619W500:     UWI NUMBER
 TVD .                                              NO:     TVD flag
 WSTA.                                             LOC:     Well status
#
~Curve Information Block
#MNEM.UNIT       API CODE      Curve Description
#----------    -------------   -------------------
 DEPT.M                    :   Depth in Meters
 GR  .GAPI     35 310 01 01:   Gamma Ray
 SP  .MV       01 010 01 01:   Spontaneous Potential
 ILD .OHMM     05 120 46 01:   Deep Induction Standard Processed Resistivity
 SFLA.OHMM     10 222 01 01:   SFL Resistivity (Averaged)
#
~Parameter Information Block
#MNEM.UNIT            Value               Description
#----------    --------------------    -------------------
 RUN .                         ONE:    Run Number
 PDAT.                         UNK:    Permanent Datum
 EPD .M                 -9999.5000:    Elevation Of Perm. Datum
 WSTA.                         LOC:    
 TD  .M                  2375.0000:    Total Depth
#
~Other Information Block
<DescLogPlotStart>   NEURALOG PLOT DEFINITION
PLOTDEFVERSION: 3
LASFILE: C:\Users\wadet\Desktop\Alphabow Evaluation\well_info\second_white_spec
DEPTHSCALE: 600.000000
RESOLUTION: 200
DEPTHLABELFREQ: 100.000000
HEAVYGRIDFREQ: 50.000000
MEDIUMGRIDFREQ: 25.000000
LIGHTGRIDFREQ: 25.000000
#
#   TRACK 1
#
STARTTRACK: 
 LEFTX: 0.500000 inch
 RIGHTX: 3.000000 inch
 SCALETYPE: Linear
 NUMCHARTDIVISIONS: 7
CURVE: GR    0.000000   150.000000 (0,0,255)      Solid             2     N    
CURVE: SP    -80.000000 20.000000  (0,131,131)    Dot               2     N    
ENDTRACK: 
#
#   TRACK 2
#
STARTTRACK: 
 LEFTX: 3.500000 inch
 RIGHTX: 6.000000 inch
 SCALETYPE: Linear
 NUMCHARTDIVISIONS: 10
CURVE: ILD   0.000000   50.000000  (255,0,255)    Solid             2     N    
CURVE: SFLA  0.000000   50.000000  (255,0,0)      Dot               2     N    
ENDTRACK: 
<DescLogPlotEnd>
~A DEPTH     GR               SP               ILD              SFLA            
# ...
   2205.6132 110.57136367     -29.39366142     9.96656519       11.70620677     
   2205.7656 111.65148248     -29.27059829     10.07195205      11.74147793     
   2205.9180 108.68799881     -29.15357596     10.17067610      11.76767709     
   2206.0704 110.10455274     -29.03022666     10.17408629      11.79922351     
   2206.2228 108.68101298     -28.91338584     10.17051926      11.82435294     
   2206.3752 107.94548367     -28.78996923     10.17420546      11.85717708     
   2206.5276 106.50357797     -28.67307729     10.17080999      11.88135650     
   2206.6800 105.48452421     -28.54982883     10.17428490      11.91469550     
   2206.8324 106.80459034     -28.45214803     10.27339761      11.57719162     
   2206.9848 107.67285935     -28.68691486     10.27626312      10.99597163     
   2207.1372 108.02984875     -28.86461209     10.27405027      11.09330907     
   2207.2896 107.68654515     -28.84441455     10.27602209      11.19966473     
   2207.4420 107.39899946     -28.83077411     10.22992747      11.29809799     
   2207.5944 105.84124133     -28.81333972     10.18109466      11.50486553     
   2207.7468 104.91587949     -28.79921030     10.13087017      11.60540708     
   2207.8992 104.91806205     -28.78222074     10.07111284      11.70758975     
   2208.0516 105.53593519     -28.76740053     10.07163057      11.81090661     
   2208.2040 105.84802468     -28.75070100     10.07093998      11.80796649     
   2208.3564 105.84184644     -28.73554639     9.96990370       11.81224600     
   2208.5088 105.84384368     -28.71911492     9.95226146       11.90843591     
   2208.6612 106.76814869     -28.70376704     9.94045504       12.11989283     
   2208.8136 108.30939829     -28.68745044     9.92566787       12.31575958     
   2208.9660 108.93078061     -28.67206480     9.91390905       12.32509064     
   2209.1184 110.77900472     -28.65602580     9.89913082       12.41753753     
   2209.2708 112.33682898     -28.60428404     9.88749393       12.42713266     
   2209.4232 112.32741792     -28.55288401     9.87257110       12.51920756     
   2209.5756 111.72116347     -28.50207795     9.86129088       12.42727005     
   2209.7280 111.09169914     -28.45042558     9.84606514       12.41805246     
   2209.8804 111.39008973     -28.39955793     9.83485484       12.29208496     
   2210.0328 111.98228988     -28.34798362     9.81919195       12.21774477     
   2210.1852 112.64429784     -28.29702879     9.80851429       12.15872285     
   2210.3376 113.26141355     -28.24554656     9.79222110       12.01178468     
   2210.4900 113.56905837     -28.19449912     9.78263289       11.91529187     
   2210.6424 112.65007521     -28.14310580     9.76350825       11.70597541     
   2210.7948 110.46948754     -28.09197701     9.76790753       11.60783586     
   2210.9472 108.63636818     -28.04065415     9.86525752       11.60436923     
   2211.0996 104.58983041     -27.98946839     9.87056654       11.60727342     
   2211.2520 102.14746944     -27.93818729     9.86496419       11.70724811     
   2211.4044 100.87410733     -27.88697577     9.87105245       11.81101160     
   2211.5568 99.36686763      -27.83570511     9.86470406       12.01428314     
   2211.7092 100.87145801     -27.78443603     9.87118567       12.21922829     
   2211.8616 101.52949633     -27.73316695     10.06865037      12.42361160     
   2212.0140 103.65350842     -27.68189787     10.17740064      12.62722824     
   2212.1664 104.30801266     -27.63062879     10.17071077      12.83254991     
   2212.3188 103.97047011     -27.57933980     10.17712890      12.93305140     
   2212.4712 103.68598581     -27.52847428     10.17087747      12.93519709     
   2212.6236 103.67107709     -27.47721201     10.17667528      12.93243377     
   2212.7760 104.29907874     -27.42651600     10.37538661      12.83297488     
   2212.9284 104.91828841     -27.37499779     10.47374627      12.62572306     
   2213.0808 105.83650336     -27.32463803     10.56122477      12.32197124     
   2213.2332 107.39753517     -27.27271433     10.65715327      12.11537345     
   2213.3856 110.46670950     -27.22281375     10.74582937      11.91313690     
   2213.5380 111.41990253     -27.17009722     10.84056388      11.91213294     
   2213.6904 112.00557498     -27.12049287     10.93023899      11.91297537     
   2213.8428 111.10969143     -27.06719484     10.97316435      12.01542041     
   2213.9952 108.59736709     -27.01814902     10.91931169      12.21932182     
   2214.1476 106.77844360     -26.96434253     10.86815210      12.42501338     
   2214.3000 103.95746751     -26.91572985     10.81512321      12.62763188     
   2214.4524 102.75854761     -26.86158744     10.76334988      12.62994152     
   2214.6048 104.26942081     -26.80041296     10.71039788      12.83197914     
   2214.7572 105.54233272     -26.99047926     10.65845005      12.93595151     
   2214.9096 106.86265458     -27.25063092     10.60552986      12.85200173     
   2215.0620 107.49430624     -27.50518220     10.55368403      12.73335842     
   2215.2144 108.06394564     -27.76515113     10.50105740      12.62862023     
   2215.3668 108.01600852     -28.02009872     10.48134284      12.52553513     
   2215.5192 107.37001334     -28.27960104     10.54544829      12.52681814     
   2215.6716 106.47079043     -28.53506099     10.60454680      12.52437062     
   2215.8240 106.44758265     -28.60185034     10.66288228      12.73140771     
   2215.9764 106.16237894     -28.49984085     10.72181495      13.03432902     
   2216.1288 105.21269198     -28.40032433     10.78041080      13.14004482     
   2216.2812 104.61288311     -28.29875320     10.83897539      13.54495483     
   2216.4336 103.66357233     -28.19887096     10.89786085      13.65072720     
   2216.5860 103.67992344     -28.09757963     10.95629345      13.74991219     
   2216.7384 104.27834344     -27.99751117     10.98485448      13.85461167     
   2216.8908 104.29538359     -27.89631072     10.96457018      13.75092547     
   2217.0432 104.89918481     -27.79622104     10.94479257      13.65015031     
   2217.1956 105.53493250     -27.69537969     10.92484319      13.44571015     
   2217.3480 105.83106746     -27.62400971     10.90445329      13.34330937     
   2217.5004 105.53520140     -27.62374801     10.99262624      13.34459832     
   2217.6528 105.21356361     -27.62441457     11.09314539      13.34265380     
   2217.8052 104.91460689     -27.62413611     11.19741016      13.24307628     
   2217.9576 105.21341736     -27.62481078     11.23415648      13.24025477     
   2218.1100 105.53021833     -27.62453481     11.29465516      13.24362151     
   2218.2624 105.83332977     -27.62486959     11.34724370      13.24063883     
   2218.4148 106.45726214     -27.62443134     11.40290768      13.24433910     
   2218.5672 106.76272073     -27.62466144     11.49954302      13.24082634     
   2218.7196 107.07451713     -27.62433158     11.60743866      13.34698505     
   2218.8720 106.76199650     -27.62445469     11.90758824      13.34281188     
   2219.0244 106.14522295     -27.62422558     11.91398067      13.34668471     
   2219.1768 105.52473760     -27.62425850     11.89061902      13.54679203     
   2219.3292 104.90950495     -27.62410544     11.86182210      13.65267852     
   2219.4816 105.21588997     -27.62407908     11.82094017      13.75017446     
   2219.6340 105.84033289     -27.62396694     11.79146620      13.95838472     
   2219.7864 105.83295376     -27.62396694     11.75140701      14.26022329     
   2219.9388 105.57493429     -27.62396694     11.72119730      14.35132522     
   2220.0912 105.26131303     -27.62396694     11.68206892      14.44553859     
   2220.2436 104.97200682     -27.62396694     11.65099074      14.57075816     
   2220.3960 104.65581013     -27.62396694     11.61254250      14.66851161     
   2220.5484 104.29638325     -27.62396694     11.53455974      14.87716770     
