~Version Information Block
 VERS.                2.00:     CWLS LOG ASCII STANDARD - VERSION 2.000000
 WRAP.                  NO:     One Line Per Depth Step
#
~Well Information Block
#MNEM.UNIT                     Data                         Information
#----------   ------------------------------------------   ----------------
 STRT.M                                      2100.0000:     START DEPTH
 STOP.M                                      2374.9296:     STOP DEPTH
 STEP.M                                         0.1524:     STEP
 NULL.                                       -999.2500:     NULL VALUE
 COMP.                                        Alphabow:     COMPANY
 WELL.                  SOC PINE CK 2-29-56-19 #107872:     WELL
 FLD .                                                :     FIELD
 LOC .                                                :     LOCATION
 CNTY.                                                :     COUNTY
 STAT.                                                :     STATE
 CTRY.                                                :     COUNTRY
 SRVC.                                                :     SERVICE COMPANY
 DATE.                                      03/28/2025:     DATE
 API .                                100022905619W500:     API NUMBER
 UWI .                                100022905619W500:     UWI NUMBER
 TVD .                                              NO:     TVD flag
 WSTA.                                             LOC:     Well status
#
~Curve Information Block
#MNEM.UNIT       API CODE      Curve Description
#----------    -------------   -------------------
 DEPT.M                    :   Depth in Meters
 GR  .GAPI     35 310 01 01:   Gamma Ray
 SP  .MV       01 010 01 01:   Spontaneous Potential
 ILD .OHMM     05 120 46 01:   Deep Induction Standard Processed Resistivity
 SFLA.OHMM     10 222 01 01:   SFL Resistivity (Averaged)
#
~Parameter Information Block
#MNEM.UNIT            Value               Description
#----------    --------------------    -------------------
 RUN .                         ONE:    Run Number
 PDAT.                         UNK:    Permanent Datum
 EPD .M                 -9999.5000:    Elevation Of Perm. Datum
 WSTA.                         LOC:    
 TD  .M                  2375.0000:    Total Depth
#
~Other Information Block
<DescLogPlotStart>   NEURALOG PLOT DEFINITION
PLOTDEFVERSION: 3
LASFILE: C:\Users\wadet\Desktop\Alphabow Evaluation\well_info\second_white_spec
DEPTHSCALE: 600.000000
RESOLUTION: 200
DEPTHLABELFREQ: 100.000000
HEAVYGRIDFREQ: 50.000000
MEDIUMGRIDFREQ: 25.000000
LIGHTGRIDFREQ: 25.000000
#
#   TRACK 1
#
STARTTRACK: 
 LEFTX: 0.500000 inch
 RIGHTX: 3.000000 inch
 SCALETYPE: Linear
 NUMCHARTDIVISIONS: 7
CURVE: GR    0.000000   150.000000 (0,0,255)      Solid             2     N    
CURVE: SP    -80.000000 20.000000  (0,131,131)    Dot               2     N    
ENDTRACK: 
#
#   TRACK 2
#
STARTTRACK: 
 LEFTX: 3.500000 inch
 RIGHTX: 6.000000 inch
 SCALETYPE: Linear
 NUMCHARTDIVISIONS: 10
CURVE: ILD   0.000000   50.000000  (255,0,255)    Solid             2     N    
CURVE: SFLA  0.000000   50.000000  (255,0,0)      Dot               2     N    
ENDTRACK: 
<DescLogPlotEnd>
~A DEPTH     GR               SP               ILD              SFLA            
# ...
   2326.3140 125.62664141     -23.77883708     18.44247199      26.58097802     
   2326.4664 124.79265618     -23.91724555     18.23061576      26.79225389     
   2326.6188 124.08746008     -24.06169195     18.00337823      27.06771397     
   2326.7712 122.30043086     -24.20031767     17.97233050      27.28210022     
   2326.9236 121.61833332     -24.34442118     18.42179773      27.55436985     
   2327.0760 121.04543371     -24.48350359     18.88934443      27.77278989     
   2327.2284 121.62527632     -24.16853500     19.34120608      27.98331799     
   2327.3808 124.74703563     -23.68993517     19.81164707      28.57416589     
   2327.5332 127.81766870     -23.21450136     20.26435390      28.38744209     
   2327.6856 131.54061113     -22.73682992     20.16893568      28.57493748     
   2327.8380 134.01315075     -22.26068171     19.82949487      29.09934740     
   2327.9904 136.80280900     -21.78374591     19.50613154      29.08694543     
   2328.1428 138.34777675     -21.63336226     19.17427722      28.38100847     
   2328.2952 136.80337436     -21.63387045     18.85019543      27.75857816     
   2328.4476 135.25393701     -21.63335525     18.56761571      26.94703392     
   2328.6000 133.64770527     -21.63424309     18.35170495      26.12601440     
   2328.7524 132.22038018     -21.63348939     18.16088134      25.72046194     
   2328.9048 130.52180718     -21.63446920     17.97345530      25.31040090     
   2329.0572 128.20619406     -21.63376692     17.78328279      25.31287531     
   2329.2096 127.73613724     -21.63456315     17.58960151      25.51682868     
   2329.3620 130.12152583     -21.63415822     17.40238466      25.72091890     
   2329.5144 130.45378657     -21.63456760     17.20917956      26.12958718     
   2329.6668 132.05826215     -21.63383401     17.73661767      26.43623289     
   2329.8192 131.61452353     -21.63371323     18.75014094      26.53734717     
   2329.9716 128.25473223     -21.63326428     19.78147315      27.34617353     
   2330.1240 124.03704153     -21.63307791     20.78725568      28.75733980     
   2330.2764 121.06802473     -21.63270336     21.83589631      30.17957377     
   2330.4288 115.21465678     -21.63251564     27.00704758      30.96676812     
   2330.5812 113.03732434     -21.63262941     32.76450818      31.07393533     
   2330.7336 109.22926816     -21.63266075     32.95585056      31.15888333     
   2330.8860 63.73160072      -21.63278581     33.25045027      31.26988239     
   2331.0384 103.86727500     -21.63281052     33.45290371      31.35099201     
   2331.1908 104.72221688     -21.63291225     33.64137185      31.43974136     
   2331.3432 103.38726656     -21.63313770     33.85755769      31.42017858     
   2331.4956 103.49822164     -21.63314342     29.40100628      30.82625534     
   2331.6480 102.07512080     -21.63349096     26.87458797      30.80605799     
   2331.8004 102.14469076     -21.63329979     25.00928542      30.70335429     
   2331.9528 104.31515213     -21.63391498     22.38847627      30.48858720     
   2332.1052 104.86101823     -21.63339374     20.10612309      30.30899295     
   2332.2576 104.38503209     -21.68316561     19.35330083      29.27160316     
   2332.4100 104.79006572     -21.78126377     18.53227378      27.55530485     
   2332.5624 104.75446755     -21.88172433     17.61624874      26.92581311     
   2332.7148 104.73345323     -21.97946573     16.62997867      26.63819958     
   2332.8672 110.98681350     -22.07997036     16.19928140      25.90433254     
   2333.0196 110.58521563     -22.17743777     15.83429856      25.41481271     
   2333.1720 109.45169718     -22.27804333     15.33156097      24.88050748     
   2333.3244 107.44957722     -22.37559773     14.86545111      24.19342520     
   2333.4768 107.31843844     -22.46005562     14.36861376      23.44723152     
   2333.6292 108.99478817     -22.66586571     13.89777512      22.46226440     
   2333.7816 108.78577454     -22.84478444     13.40489187      21.40064472     
   2333.9340 103.80631679     -23.02280863     12.94766850      20.42364227     
   2334.0864 103.23256622     -23.20084355     12.73262770      18.94666334     
   2334.2388 101.92551512     -23.37981660     12.39818569      17.97598845     
   2334.3912 100.77878793     -23.55688355     12.04482821      16.80032760     
   2334.5436 99.42374034      -23.73679627     11.70771349      14.09682469     
   2334.6960 99.56279561      -23.91308061     11.35724342      14.24663974     
   2334.8484 99.95761490      -24.09380378     11.01974094      13.97126531     
   2335.0008 99.63753329      -24.31498534     10.58302986      13.52677172     
   2335.1532 99.54204361      -24.31785496     10.38458231      13.17564935     
   2335.3056 99.31196614      -24.31504787     10.27606916      12.82238225     
   2335.4580 99.05228430      -24.31794172     10.07763588      12.75545214     
   2335.6104 101.18663843     -24.31529994     9.96913837       12.72478203     
   2335.7628 102.12558016     -24.31785753     9.59300777       12.74887471     
   2335.9152 103.05833883     -24.31567235     9.31316220       12.62685269     
   2336.0676 106.44726592     -24.31784730     9.04429363       12.53827840     
   2336.2200 107.71044546     -24.31622227     8.76503924       12.42532452     
   2336.3724 107.67106602     -24.31779908     8.64528438       12.43119244     
   2336.5248 105.23986197     -24.31673847     8.64119477       12.32332736     
   2336.6772 102.71442338     -24.31780883     8.63681641       12.22397138     
   2336.8296 100.59781736     -24.31717675     8.61850310       12.11760041     
   2336.9820 99.30735710      -24.31791443     8.60520006       12.11807977     
   2337.1344 99.04977068      -24.31751826     8.58814719       12.11703986     
   2337.2868 99.61941150      -24.31812595     8.57356651       12.01613743     
   2337.4392 101.21104210     -24.31783640     8.55760642       12.01377200     
   2337.5916 103.94999113     -24.29790524     8.54230098       12.01587669     
   2337.7440 105.53739495     -24.27961206     8.52735158       12.01307954     
   2337.8964 105.80787165     -24.26186014     8.51124065       11.91385616     
   2338.0488 105.53669680     -24.24359214     8.49691739       11.91111552     
   2338.2012 105.18897596     -24.22580538     8.48005110       11.91372314     
   2338.3536 105.23131113     -24.20758012     8.46630689       11.91141890     
   2338.5060 105.81126259     -24.18974483     8.44902181       11.91315505     
   2338.6584 106.47673925     -24.17157155     8.43800326       11.91195143     
   2338.8108 106.73642233     -24.15368330     8.53815202       11.81049725     
   2338.9632 106.78802139     -24.13556154     8.64232360       11.70835050     
   2339.1156 106.41798379     -24.11759290     8.76264455       11.70771546     
   2339.2680 105.86420300     -24.10163018     8.87431586       11.60674833     
   2339.4204 105.79261335     -24.08680750     8.98175953       11.50316124     
   2339.5728 105.87042089     -24.07195919     9.09340323       11.50507810     
   2339.7252 104.86472199     -24.05709569     9.20092107       11.50287393     
   2339.8776 101.54551759     -24.04228370     9.31244774       11.43071569     
   2340.0300 100.40592041     -24.02735478     9.42012024       11.48591389     
   2340.1824 99.40877291      -24.01258183     9.53146105       11.54578704     
   2340.3348 98.05902322      -23.99761668     9.63934170       11.60107057     
   2340.4872 96.90202476      -23.98287887     9.76520607       11.66074008     
   2340.6396 97.74908426      -23.96788137     9.96806116       11.71646028     
   2340.7920 98.43876267      -23.95317156     10.07139433      11.77564094     
   2340.9444 99.60886144      -23.93815176     10.10562090      11.83187819     
   2341.0968 100.90798143     -23.92345744     10.14982906      11.89062446     
   2341.2492 100.85046019     -23.90849172     10.19263974      11.94729891     
