~Version Information Block
 VERS.                2.00:     CWLS LOG ASCII STANDARD - VERSION 2.000000
 WRAP.                  NO:     One Line Per Depth Step
#
~Well Information Block
#MNEM.UNIT                     Data                         Information
#----------   ------------------------------------------   ----------------
 STRT.M                                      2100.0000:     START DEPTH
 STOP.M                                      2374.9296:     STOP DEPTH
 STEP.M                                         0.1524:     STEP
 NULL.                                       -999.2500:     NULL VALUE
 COMP.                                        Alphabow:     COMPANY
 WELL.                  SOC PINE CK 2-29-56-19 #107872:     WELL
 FLD .                                                :     FIELD
 LOC .                                                :     LOCATION
 CNTY.                                                :     COUNTY
 STAT.                                                :     STATE
 CTRY.                                                :     COUNTRY
 SRVC.                                                :     SERVICE COMPANY
 DATE.                                      03/28/2025:     DATE
 API .                                100022905619W500:     API NUMBER
 UWI .                                100022905619W500:     UWI NUMBER
 TVD .                                              NO:     TVD flag
 WSTA.                                             LOC:     Well status
#
~Curve Information Block
#MNEM.UNIT       API CODE      Curve Description
#----------    -------------   -------------------
 DEPT.M                    :   Depth in Meters
 GR  .GAPI     35 310 01 01:   Gamma Ray
 SP  .MV       01 010 01 01:   Spontaneous Potential
 ILD .OHMM     05 120 46 01:   Deep Induction Standard Processed Resistivity
 SFLA.OHMM     10 222 01 01:   SFL Resistivity (Averaged)
#
~Parameter Information Block
#MNEM.UNIT            Value               Description
#----------    --------------------    -------------------
 RUN .                         ONE:    Run Number
 PDAT.                         UNK:    Permanent Datum
 EPD .M                 -9999.5000:    Elevation Of Perm. Datum
 WSTA.                         LOC:    
 TD  .M                  2375.0000:    Total Depth
#
~Other Information Block
<DescLogPlotStart>   NEURALOG PLOT DEFINITION
PLOTDEFVERSION: 3
LASFILE: C:\Users\wadet\Desktop\Alphabow Evaluation\well_info\second_white_spec
DEPTHSCALE: 600.000000
RESOLUTION: 200
DEPTHLABELFREQ: 100.000000
HEAVYGRIDFREQ: 50.000000
MEDIUMGRIDFREQ: 25.000000
LIGHTGRIDFREQ: 25.000000
#
#   TRACK 1
#
STARTTRACK: 
 LEFTX: 0.500000 inch
 RIGHTX: 3.000000 inch
 SCALETYPE: Linear
 NUMCHARTDIVISIONS: 7
CURVE: GR    0.000000   150.000000 (0,0,255)      Solid             2     N    
CURVE: SP    -80.000000 20.000000  (0,131,131)    Dot               2     N    
ENDTRACK: 
#
#   TRACK 2
#
STARTTRACK: 
 LEFTX: 3.500000 inch
 RIGHTX: 6.000000 inch
 SCALETYPE: Linear
 NUMCHARTDIVISIONS: 10
CURVE: ILD   0.000000   50.000000  (255,0,255)    Solid             2     N    
CURVE: SFLA  0.000000   50.000000  (255,0,0)      Dot               2     N    
ENDTRACK: 
<DescLogPlotEnd>
~A DEPTH     GR               SP               ILD              SFLA            
   2100.0000 112.34504132     -31.13636364     8.43558282       9.86707566      
   2100.1524 112.34504132     -31.13636364     8.43558282       9.86707566      
   2100.3048 112.34504132     -31.13636364     8.43558282       10.06063640     
   2100.4572 110.60696812     -31.13636364     8.43558282       10.33988057     
   2100.6096 109.07667060     -31.16031318     8.43558282       10.61912474     
   2100.7620 107.54637308     -31.20207569     8.47446949       10.89836892     
   2100.9144 101.80785124     -31.24383819     8.53745689       11.17761309     
   2101.0668 102.01768445     -31.28560070     8.60044430       11.27595583     
   2101.2192 102.23409016     -31.32736320     8.66343171       11.23606380     
   2101.3716 102.45049587     -31.36912571     8.72641912       11.19617178     
   2101.5240 102.66690158     -31.41088821     8.78940652       11.15627975     
   2101.6764 102.88330729     -31.45265072     8.85239393       11.11638773     
   2101.8288 103.04752066     -31.49441322     8.91538134       11.07649571     
   2101.9812 102.60433388     -31.53617573     8.97836874       11.03660368     
   2102.1336 102.44136066     -31.48747408     8.96504817       11.01936777     
   2102.2860 102.25550615     -31.56003673     9.04803470       10.99094983     
   2102.4384 101.92627940     -31.57579430     9.04863536       10.97411370     
   2102.5908 101.52563747     -31.59158134     9.04805188       10.93277748     
   2102.7432 101.23611644     -31.60741049     9.04845379       10.88853663     
   2102.8956 100.79413838     -31.62322699     9.04812356       10.84772560     
   2103.0480 100.53694170     -31.63913281     9.04824595       10.80347414     
   2103.2004 101.80379100     -31.65494405     9.04821341       10.76283042     
   2103.3528 105.60402614     -31.67087805     9.04810096       10.71855466     
   2103.5052 109.80053952     -31.68672894     9.04837885       10.68582017     
   2103.6576 107.14066886     -31.70258288     9.04802282       10.68404361     
   2103.8100 107.48889802     -31.71855209     8.99402197       10.60885659     
   2103.9624 109.29923993     -31.73425398     8.94665275       10.54123913     
   2104.1148 109.81321263     -31.75040231     8.90037112       10.47654574     
   2104.2672 110.21172630     -31.70790748     8.85296286       10.40892526     
   2104.4196 112.91934265     -31.63634107     8.80666218       10.34427221     
   2104.5720 112.67038914     -31.56371850     8.75931214       10.27676389     
   2104.7244 113.24395179     -31.49231550     8.71298354       10.21210055     
   2104.8768 117.28260776     -31.41951623     8.66549330       10.14446022     
   2105.0292 117.87099250     -31.34343668     8.62208895       10.08010407     
   2105.1816 118.47095203     -31.34265779     8.58124064       10.01195600     
   2105.3340 119.08234721     -31.34330238     8.54158504       9.97066671      
   2105.4864 119.12681052     -31.34262762     8.50056795       9.96778574      
   2105.6388 118.84866626     -31.34308243     8.46116201       9.97094999      
   2105.7912 117.27089801     -31.34267601     8.41980111       9.92435748      
   2105.9436 115.14493903     -31.34279551     8.38111181       9.89343563      
   2106.0960 114.48104711     -31.34277587     8.33931342       9.85390650      
   2106.2484 114.22212382     -31.34247561     8.30111565       9.82356756      
   2106.4008 113.24943353     -31.34288829     8.25869355       9.78351276      
   2106.5532 110.82408859     -31.34216437     8.22116425       9.56344299      
   2106.7056 108.91813270     -31.34284578     8.17806812       9.53881732      
   2106.8580 108.66480108     -31.34191541     8.13138225       9.48721827      
   2107.0104 108.29370891     -31.34281093     8.12790765       9.42539298      
   2107.1628 108.35524741     -31.34179689     8.03031513       9.37373180      
   2107.3152 109.84120827     -31.25090024     7.94373956       9.31234268      
   2107.4676 110.51844054     -31.16622713     7.86521417       9.26037541      
   2107.6200 109.83979353     -31.08305118     7.77848688       9.19929396      
   2107.7724 108.04070101     -30.99875975     7.69997409       9.14716411      
   2107.9248 107.36819710     -30.91513724     7.61337978       9.08643030      
   2108.0772 107.10272353     -30.83138582     7.51959913       9.07456606      
   2108.2296 107.68440876     -30.74727786     7.63443771       9.12973592      
   2108.3820 108.01347215     -30.66405033     7.78239678       9.19373250      
   2108.5344 110.48377095     -30.57944226     7.92400908       9.24874412      
   2108.6868 113.56511330     -30.49666745     8.07132604       9.31278302      
   2108.8392 116.06781637     -30.41167505     8.21369739       9.36784077      
   2108.9916 116.94504272     -30.31168449     8.36034579       9.43173943      
   2109.1440 117.62926232     -30.31033828     8.50337302       9.56129446      
   2109.2964 116.00216863     -30.31175395     8.64938574       9.56502686      
   2109.4488 112.69286709     -30.31043484     8.79306351       9.76592943      
   2109.6012 111.66171238     -30.31171278     8.93838717       9.98956437      
   2109.7536 107.13513939     -30.31048332     9.08259037       10.25554291     
   2109.9060 106.20818361     -30.31148120     9.22746759       10.52581470     
   2110.0584 105.57149863     -30.31058861     9.37198772       10.79273614     
   2110.2108 104.70029918     -30.31122059     9.51640310       11.19710337     
   2110.3632 104.05368541     -30.34230952     9.66115973       11.50888257     
   2110.5156 103.00363560     -30.39622470     9.80539035       11.78302015     
   2110.6680 102.16312276     -30.44971901     9.95062767       12.05672618     
   2110.8204 102.39477066     -30.50331826     10.07106297      12.33091694     
   2110.9728 101.53294434     -30.55713284     10.19441384      12.52380157     
   2111.1252 100.24315963     -30.61054733     10.37750764      12.83110876     
   2111.2776 98.74016062      -30.66452318     10.56232444      13.23801196     
   2111.4300 98.39895185      -30.72319967     10.74522790      13.44437803     
   2111.5824 99.97201057      -30.75664527     10.93021883      13.44174243     
   2111.7348 100.56947138     -30.79281634     11.11298767      13.54710990     
   2111.8872 102.43881832     -30.82995921     11.29786093      13.64569433     
   2112.0396 103.97223706     -30.86612964     11.48055303      13.64996913     
   2112.1920 105.21521906     -30.90325277     11.66536271      13.85000943     
   2112.3444 107.37392168     -30.93946192     11.80747022      13.86453407     
   2112.4968 107.38205336     -30.97652966     11.84208532      13.87398831     
   2112.6492 106.75410439     -31.01280779     11.88820452      13.89221399     
   2112.8016 104.90888633     -31.04985009     11.93525196      13.90210383     
   2112.9540 102.11011421     -31.08623549     11.98184711      13.91948243     
   2113.1064 100.58028295     -31.12320412     12.02838402      13.93033486     
   2113.2588 98.70382855      -31.19384621     12.07549076      13.94653262     
   2113.4112 97.17984387      -31.28536653     12.12158464      13.95500193     
   2113.5636 97.15501849      -31.37689434     12.16925304      13.95627172     
   2113.7160 97.80279167      -31.46821017     12.21492998      13.95632221     
   2113.8684 98.70032050      -31.56002926     12.26294501      13.95571463     
   2114.0208 99.35691175      -31.65094414     12.31823423      13.95689705     
   2114.1732 99.31693001      -31.74320188     12.22597477      13.95492342     
   2114.3256 98.43291570      -31.83362676     12.10575941      13.95727860     
   2114.4780 97.76817286      -31.92638958     11.98829923      13.95431819     
   2114.6304 97.20214895      -32.01649192     11.86824070      13.95779594     
   2114.7828 98.07807106      -32.10973875     11.75046288      13.95372757     
   2114.9352 99.05783156      -32.19945517     11.63056390      13.85577163     
