~Version Information Block
 VERS.                2.00:     CWLS LOG ASCII STANDARD - VERSION 2.000000
 WRAP.                  NO:     One Line Per Depth Step
#
~Well Information Block
#MNEM.UNIT                     Data                         Information
#----------   ------------------------------------------   ----------------
 STRT.M                                      2100.0000:     START DEPTH
 STOP.M                                      2374.9296:     STOP DEPTH
 STEP.M                                         0.1524:     STEP
 NULL.                                       -999.2500:     NULL VALUE
 COMP.                                        Alphabow:     COMPANY
 WELL.                  SOC PINE CK 2-29-56-19 #107872:     WELL
 FLD .                                                :     FIELD
 LOC .                                                :     LOCATION
 CNTY.                                                :     COUNTY
 STAT.                                                :     STATE
 CTRY.                                                :     COUNTRY
 SRVC.                                                :     SERVICE COMPANY
 DATE.                                      03/28/2025:     DATE
 API .                                100022905619W500:     API NUMBER
 UWI .                                100022905619W500:     UWI NUMBER
 TVD .                                              NO:     TVD flag
 WSTA.                                             LOC:     Well status
#
~Curve Information Block
#MNEM.UNIT       API CODE      Curve Description
#----------    -------------   -------------------
 DEPT.M                    :   Depth in Meters
 GR  .GAPI     35 310 01 01:   Gamma Ray
 SP  .MV       01 010 01 01:   Spontaneous Potential
 ILD .OHMM     05 120 46 01:   Deep Induction Standard Processed Resistivity
 SFLA.OHMM     10 222 01 01:   SFL Resistivity (Averaged)
#
~Parameter Information Block
#MNEM.UNIT            Value               Description
#----------    --------------------    -------------------
 RUN .                         ONE:    Run Number
 PDAT.                         UNK:    Permanent Datum
 EPD .M                 -9999.5000:    Elevation Of Perm. Datum
 WSTA.                         LOC:    
 TD  .M                  2375.0000:    Total Depth
#
~Other Information Block
<DescLogPlotStart>   NEURALOG PLOT DEFINITION
PLOTDEFVERSION: 3
LASFILE: C:\Users\wadet\Desktop\Alphabow Evaluation\well_info\second_white_spec
DEPTHSCALE: 600.000000
RESOLUTION: 200
DEPTHLABELFREQ: 100.000000
HEAVYGRIDFREQ: 50.000000
MEDIUMGRIDFREQ: 25.000000
LIGHTGRIDFREQ: 25.000000
#
#   TRACK 1
#
STARTTRACK: 
 LEFTX: 0.500000 inch
 RIGHTX: 3.000000 inch
 SCALETYPE: Linear
 NUMCHARTDIVISIONS: 7
CURVE: GR    0.000000   150.000000 (0,0,255)      Solid             2     N    
CURVE: SP    -80.000000 20.000000  (0,131,131)    Dot               2     N    
ENDTRACK: 
#
#   TRACK 2
#
STARTTRACK: 
 LEFTX: 3.500000 inch
 RIGHTX: 6.000000 inch
 SCALETYPE: Linear
 NUMCHARTDIVISIONS: 10
CURVE: ILD   0.000000   50.000000  (255,0,255)    Solid             2     N    
CURVE: SFLA  0.000000   50.000000  (255,0,0)      Dot               2     N    
ENDTRACK: 
<DescLogPlotEnd>
~A DEPTH     GR               SP               ILD              SFLA            
# ...
   2356.4892 135.34880814     -20.49505753     18.40614553      29.70595222     
   2356.6416 135.18918906     -20.40982310     18.85336295      29.78318030     
   2356.7940 135.31596116     -20.32456772     18.77194685      29.59963133     
   2356.9464 135.22330736     -20.23930805     18.65991698      29.27512262     
   2357.0988 135.28722941     -20.15423480     18.56925683      28.98339612     
   2357.2512 135.24955148     -20.06893751     18.45862803      28.25691345     
   2357.4036 135.26864089     -19.98395803     18.36635156      27.65270629     
   2357.5560 134.65334406     -19.89851534     18.24359313      27.03164421     
   2357.7084 134.95694074     -19.81371555     17.95544691      26.22230355     
   2357.8608 134.98204684     -19.72802578     17.60732107      25.80718888     
   2358.0132 134.95855405     -19.64349370     17.27049425      25.50871775     
   2358.1656 134.98935779     -19.55751302     16.92385399      25.09311968     
   2358.3180 135.26950996     -19.47328228     16.58552609      24.79604855     
   2358.4704 134.98847818     -19.38700366     16.24051635      24.78990555     
   2358.6228 134.96416106     -19.30305333     16.00422656      24.80089916     
   2358.7752 134.98410213     -19.21652545     15.92184076      24.68960660     
   2358.9276 134.96751112     -19.13278092     15.82300473      24.59959312     
   2359.0800 134.98077629     -19.04617126     15.72054460      24.38482871     
   2359.2324 134.97046614     -18.94835135     15.62048609      23.68096631     
   2359.3848 134.98073714     -18.95989303     15.51868631      23.36492485     
   2359.5372 134.97191599     -18.97695240     15.41821994      23.16900776     
   2359.6896 134.97963832     -18.99124713     15.31689717      22.65028954     
   2359.8420 134.96845628     -19.00809452     15.21596348      22.24573460     
   2359.9944 136.31863513     -19.02265621     15.18720288      22.13242354     
   2360.1468 138.13936533     -19.03919472     15.24719114      21.40858894     
   2360.2992 139.98439044     -19.05409213     15.29668982      20.81548496     
   2360.4516 140.83969515     -19.07028429     15.34590402      20.60069045     
   2360.6040 141.16920611     -19.08552228     15.39521118      20.51253654     
   2360.7564 142.69426093     -19.10139530     15.44494026      20.59575906     
   2360.9088 143.02686096     -19.11691693     15.49463109      21.12974097     
   2361.0612 142.49304619     -19.13255350     15.54510236      22.02086575     
   2361.2136 142.40797894     -19.14825569     15.59443289      22.66530324     
   2361.3660 142.38480052     -19.20889762     15.64501886      23.75276978     
   2361.5184 142.40654562     -19.29572529     15.69575686      24.19880934     
   2361.6708 143.93405318     -19.38220769     15.93702052      24.66881580     
   2361.8232 143.95123870     -19.46918777     16.18579978      24.91508499     
   2361.9756 143.31802757     -19.55568122     16.43442893      24.36354587     
   2362.1280 141.78209970     -19.64267294     16.71764107      23.58748090     
   2362.2804 139.29831929     -19.72913491     16.48026686      23.14047023     
   2362.4328 139.30592741     -19.81617787     16.21129146      21.74736457     
   2362.5852 138.37553891     -19.90257027     15.93580858      21.09865348     
   2362.7376 136.52169926     -19.98969842     15.66876587      20.61633105     
   2362.8900 135.90235079     -20.07599387     15.39130306      20.38420039     
   2363.0424 135.59306485     -20.16322595     15.18672531      20.40414888     
   2363.1948 135.59625366     -20.24941592     15.63133334      20.48452555     
   2363.3472 135.59253531     -20.33674925     16.00789424      20.60774380     
   2363.4996 135.59604017     -20.42284794     16.36850924      20.79151370     
   2363.6520 135.59225365     -20.51025720     16.58806064      20.81369985     
   2363.8044 135.59614119     -20.59824932     16.69767224      20.48306157     
   2363.9568 135.59227355     -20.63566414     16.82736721      20.82026961     
   2364.1092 135.59898120     -20.67259115     16.93664519      21.29281993     
   2364.2616 135.59160720     -20.71080423     17.06693948      22.46391734     
   2364.4140 135.59873789     -20.74780979     17.11445022      23.13342562     
   2364.5664 135.58796263     -20.78592284     16.83486648      23.68789462     
   2364.7188 135.59565911     -20.82304468     16.53156417      24.04522294     
   2364.8712 135.89769506     -20.86103116     16.25258348      22.46754002     
   2365.0236 135.76195907     -20.89828351     15.94839431      20.29411232     
   2365.1760 135.58666803     -20.93614190     15.67034945      18.07713813     
   2365.3284 135.59106283     -20.97351392     14.66678876      15.45539250     
   2365.4808 135.89755250     -21.01126638     12.59069071      11.85176714     
   2365.6332 135.58850473     -21.04872624     10.48709255      12.79947731     
   2365.7856 135.59079863     -21.08641208     9.14413745       11.64665142     
   2365.9380 135.89558356     -21.12391558     9.07854224       11.40371685     
   2366.0904 135.59327183     -21.16158111     9.03901671       11.23402459     
   2366.2428 135.89309744     -21.19908579     8.97463487       11.26088416     
   2366.3952 135.90511640     -21.25736661     8.93334607       11.42079117     
   2366.5476 135.89087409     -21.34035583     8.87105567       11.47815411     
   2366.7000 135.90707610     -21.42341718     8.82744278       11.62473658     
   2366.8524 135.57980785     -21.50642315     8.76750054       11.68929285     
   2367.0048 135.59886336     -21.58946235     8.72085426       11.83814357     
   2367.1572 135.88845160     -21.67249478     8.66357550       11.90925935     
   2367.3096 135.90918092     -21.75550457     8.61434058       12.03684184     
   2367.4620 135.88767836     -21.83856781     8.55951149       12.12241651     
   2367.6144 135.90912818     -21.92154707     8.50817305       12.23803723     
   2367.7668 135.88780441     -22.00463888     8.45402146       12.33100969     
   2367.9192 135.59966307     -22.08759309     8.43779851       12.44085498     
   2368.0716 135.88751339     -22.17070505     8.43734254       12.54249488     
   2368.2240 135.90958340     -22.25362107     8.43524314       12.62691024     
   2368.3764 135.88779480     -22.33674238     8.43760135       12.62495259     
   2368.5288 135.90942195     -22.41964815     8.43463343       12.62673730     
   2368.6812 135.88796140     -22.45773030     8.43790391       12.62466371     
   2368.8336 135.90965754     -22.45766303     8.43401950       12.62707144     
   2368.9860 135.88780283     -22.45783288     8.43817003       12.62451256     
   2369.1384 135.90974031     -22.45776272     8.43356435       12.42325569     
   2369.2908 135.88727237     -22.45793766     8.43870459       12.26014162     
   2369.4432 135.90981550     -22.45786027     8.53532186       12.17342293     
   2369.5956 135.88771871     -22.45804430     8.54095264       12.08047094     
   2369.7480 135.60027639     -22.45795644     8.63712372       11.99373860     
   2369.9004 135.81749039     -22.45815168     8.74524801       11.91023710     
   2370.0528 135.71926451     -22.45820538     8.84109338       11.76548568     
   2370.2052 135.57905630     -22.45850830     8.84738677       11.68685459     
   2370.3576 135.59867241     -22.45859915     8.84101697       11.61321593     
   2370.5100 135.89000170     -22.44340857     8.79947729       11.53510817     
   2370.6624 135.90677971     -22.42688061     8.74133460       11.46086913     
   2370.8148 135.89158711     -22.41039374     8.69588999       11.38320782     
   2370.9672 135.90502092     -22.39390994     8.63791347       11.30842841     
   2371.1196 135.89343625     -22.37705646     8.59222372       11.23125151     
   2371.2720 135.90316640     -22.36062417     8.53507746       11.19772270     
   2371.4244 135.89521398     -22.34361287     8.54077343       11.19692884     
