~Version Information Block
 VERS.                2.00:     CWLS LOG ASCII STANDARD - VERSION 2.000000
 WRAP.                  NO:     One Line Per Depth Step
#
~Well Information Block
#MNEM.UNIT                     Data                         Information
#----------   ------------------------------------------   ----------------
 STRT.M                                      2100.0000:     START DEPTH
 STOP.M                                      2374.9296:     STOP DEPTH
 STEP.M                                         0.1524:     STEP
 NULL.                                       -999.2500:     NULL VALUE
 COMP.                                        Alphabow:     COMPANY
 WELL.                  SOC PINE CK 2-29-56-19 #107872:     WELL
 FLD .                                                :     FIELD
 LOC .                                                :     LOCATION
 CNTY.                                                :     COUNTY
 STAT.                                                :     STATE
 CTRY.                                                :     COUNTRY
 SRVC.                                                :     SERVICE COMPANY
 DATE.                                      03/28/2025:     DATE
 API .                                100022905619W500:     API NUMBER
 UWI .                                100022905619W500:     UWI NUMBER
 TVD .                                              NO:     TVD flag
 WSTA.                                             LOC:     Well status
#
~Curve Information Block
#MNEM.UNIT       API CODE      Curve Description
#----------    -------------   -------------------
 DEPT.M                    :   Depth in Meters
 GR  .GAPI     35 310 01 01:   Gamma Ray
 SP  .MV       01 010 01 01:   Spontaneous Potential
 ILD .OHMM     05 120 46 01:   Deep Induction Standard Processed Resistivity
 SFLA.OHMM     10 222 01 01:   SFL Resistivity (Averaged)
#
~Parameter Information Block
#MNEM.UNIT            Value               Description
#----------    --------------------    -------------------
 RUN .                         ONE:    Run Number
 PDAT.                         UNK:    Permanent Datum
 EPD .M                 -9999.5000:    Elevation Of Perm. Datum
 WSTA.                         LOC:    
 TD  .M                  2375.0000:    Total Depth
#
~Other Information Block
<DescLogPlotStart>   NEURALOG PLOT DEFINITION
PLOTDEFVERSION: 3
LASFILE: C:\Users\wadet\Desktop\Alphabow Evaluation\well_info\second_white_spec
DEPTHSCALE: 600.000000
RESOLUTION: 200
DEPTHLABELFREQ: 100.000000
HEAVYGRIDFREQ: 50.000000
MEDIUMGRIDFREQ: 25.000000
LIGHTGRIDFREQ: 25.000000
#
#   TRACK 1
#
STARTTRACK: 
 LEFTX: 0.500000 inch
 RIGHTX: 3.000000 inch
 SCALETYPE: Linear
 NUMCHARTDIVISIONS: 7
CURVE: GR    0.000000   150.000000 (0,0,255)      Solid             2     N    
CURVE: SP    -80.000000 20.000000  (0,131,131)    Dot               2     N    
ENDTRACK: 
#
#   TRACK 2
#
STARTTRACK: 
 LEFTX: 3.500000 inch
 RIGHTX: 6.000000 inch
 SCALETYPE: Linear
 NUMCHARTDIVISIONS: 10
CURVE: ILD   0.000000   50.000000  (255,0,255)    Solid             2     N    
CURVE: SFLA  0.000000   50.000000  (255,0,0)      Dot               2     N    
ENDTRACK: 
<DescLogPlotEnd>
~A DEPTH     GR               SP               ILD              SFLA            
# ...
   2265.9636 117.34202356     -24.54587339     13.57047817      18.56042933     
   2266.1160 116.95710018     -24.53391837     13.50925417      18.45509362     
   2266.2684 116.72753293     -24.52196334     13.44803138      18.45666586     
   2266.4208 117.87664405     -24.51000832     13.38680681      18.35440196     
   2266.5732 118.27926527     -24.49805330     13.32558487      18.25079846     
   2266.7256 120.03676552     -24.48609827     13.26435920      18.15164957     
   2266.8780 121.37714885     -24.47414325     13.20313859      17.94288309     
   2267.0304 120.96237631     -24.46218822     13.14191141      17.74398952     
   2267.1828 121.07386571     -24.45023320     13.08069242      17.53270216     
   2267.3352 122.82098409     -24.43827817     13.01946358      17.33615846     
   2267.4876 123.55150692     -24.42632315     12.95824621      17.22587779     
   2267.6400 123.43975563     -24.41436812     12.89704606      17.03026383     
   2267.7924 122.31351586     -24.40241310     12.83589708      17.02149048     
   2267.9448 121.27694100     -24.39045807     12.77469718      16.92810782     
   2268.0972 119.21680553     -24.37850305     12.71395922      16.91933564     
   2268.2496 118.18587871     -24.36654802     12.65420312      16.92730055     
   2268.4020 117.35137893     -24.35459300     12.59456337      17.02160466     
   2268.5544 116.95103408     -24.34263797     12.53476374      17.02818861     
   2268.7068 115.79355876     -24.33068295     12.47517656      16.92000472     
   2268.8592 115.10223105     -24.31872792     12.41531732      16.82251908     
   2269.0116 113.30827364     -24.30677290     12.35579430      16.81801229     
   2269.1640 111.08888759     -24.29481787     12.29586921      16.71927253     
   2269.3164 110.51628893     -24.28286006     12.23641067      16.51194925     
   2269.4688 112.64707799     -24.27090413     12.17642555      16.41219012     
   2269.6212 115.46267475     -24.25894535     12.11701965      16.40995660     
   2269.7736 117.48465952     -24.24699078     12.05699192      16.51441312     
   2269.9260 118.96826515     -24.23503029     12.01700878      16.55847490     
   2270.0784 120.41995463     -24.22307771     12.02257032      16.61836546     
   2270.2308 122.26695078     -24.21111502     12.02880188      16.67211258     
   2270.3832 122.25359706     -24.19916475     12.03436798      16.71937080     
   2270.5356 121.64649119     -24.18719975     12.04057438      16.71453478     
   2270.6880 120.08395797     -24.17525168     12.04617878      16.51619314     
   2270.8404 118.24402924     -24.16328469     12.05231105      16.30548434     
   2270.9928 116.36690318     -24.15133830     12.05797458      16.10875918     
   2271.1452 114.84158902     -24.13937004     12.06403802      15.79413328     
   2271.2976 114.19628736     -24.12742446     12.06977969      15.39461957     
   2271.4500 112.05436850     -24.11549347     12.07575880      15.28294681     
   2271.6024 112.64217550     -24.10178633     12.08158761      15.19056247     
   2271.7548 114.52856829     -24.08720685     12.08748027      15.17974445     
   2271.9072 116.04607302     -24.07261329     12.09339143      15.29260672     
   2272.0596 117.93646485     -24.05804888     12.09920895      15.58773939     
   2272.2120 119.14629299     -24.04343959     12.10518534      15.70133028     
   2272.3644 120.10482302     -24.02889075     12.11098257      15.68970510     
   2272.5168 120.69653473     -24.01426686     12.11641176      15.70191721     
   2272.6692 120.72490678     -23.99973089     12.11626302      15.68949894     
   2272.8216 121.00573679     -23.98509655     12.11642847      15.70226089     
   2272.9740 121.03273366     -23.97056803     12.11627214      15.79115410     
   2273.1264 121.00273458     -23.95592964     12.09819582      15.80508852     
   2273.2788 121.03092115     -23.94140157     12.08120396      15.89257435     
   2273.4312 120.99856339     -23.92676636     12.06446260      15.90767368     
   2273.5836 120.71919700     -23.91223164     12.04752243      15.89132669     
   2273.7360 119.44725240     -23.92174166     12.03071775      15.80599098     
   2273.8884 118.24002970     -23.95196729     12.01384965      15.68607307     
   2274.0408 117.28010644     -23.98212568     11.99696755      15.39837941     
   2274.1932 115.14647218     -24.01233534     11.98017850      15.27683397     
   2274.3456 115.42766216     -24.04250849     11.96321953      15.19514333     
   2274.4980 116.69385146     -24.07270396     11.94650147      15.17456160     
   2274.6504 117.28540300     -24.10289004     11.92948076      15.19557564     
   2274.8028 117.10516928     -24.13307444     11.91227124      15.36474525     
   2274.9552 116.64588499     -24.16326926     11.91206963      15.35650847     
   2275.1076 116.23125034     -24.19344756     11.91226779      15.30720328     
   2275.2600 115.74568471     -24.22364569     11.91206470      15.29602478     
   2275.4124 115.77150672     -24.25382347     11.91224723      15.68609849     
   2275.5648 115.74905008     -24.28401949     11.90965545      15.80495870     
   2275.7172 115.77573673     -24.31420171     11.90418614      15.89259623     
   2275.8696 114.81494408     -24.34439139     11.89840497      15.90491309     
   2276.0220 113.61175420     -24.37458131     11.89289500      15.99771128     
   2276.1744 112.94944917     -24.40480337     11.88732259      16.00419252     
   2276.3268 111.44979501     -24.43502543     11.88174441      16.00060481     
   2276.4792 110.77162244     -24.46524749     11.87628071      16.00064639     
   2276.6316 111.14542861     -24.49546956     11.87056585      16.00348608     
   2276.7840 110.45570432     -24.52569162     11.86535020      15.99716269     
   2276.9364 108.67849400     -24.55591368     11.85941510      15.90427079     
   2277.0888 108.59421878     -24.58613574     11.85445713      15.79036273     
   2277.2412 110.54121775     -24.61635780     11.84823481      15.39680247     
   2277.3936 112.61399631     -24.64657986     11.84361069      15.27851431     
   2277.5460 113.01907039     -24.67680192     11.83707205      15.19457051     
   2277.6984 116.32470950     -24.70702398     11.83316950      15.07398510     
   2277.8508 119.10820311     -24.73724604     11.82587902      15.09410051     
   2278.0032 120.34763318     -24.76746810     11.82247508      15.27925212     
   2278.1556 118.89665573     -24.79769016     11.81450911      15.29852850     
   2278.3080 117.25711957     -24.82791222     11.81335875      15.68946055     
   2278.4604 117.03648085     -24.85813429     11.91215114      15.70613595     
   2278.6128 116.02356923     -24.88835635     12.01833114      15.79370068     
   2278.7652 114.55329294     -24.91849441     12.11602138      15.80696975     
   2278.9176 114.79022648     -24.94869126     12.23053096      15.69390666     
   2279.0700 115.16282034     -24.97879956     12.37670871      15.60097699     
   2279.2224 115.10051468     -25.00903846     12.53446538      15.49206518     
   2279.3748 115.15275785     -25.03909361     12.67983686      15.59921193     
   2279.5272 116.34796275     -25.06939485     12.83821631      15.79933372     
   2279.6796 117.00691623     -25.09938101     12.98318020      16.20960511     
   2279.8320 117.59645758     -25.12975490     13.14305750      16.58196213     
   2279.9844 116.90622995     -25.15966807     13.55028062      16.92571632     
   2280.1368 116.27128591     -25.19011183     13.72114953      17.39770724     
   2280.2892 115.76705338     -25.21996164     13.87938738      17.86919619     
   2280.4416 116.37085518     -25.25045911     14.04949278      18.35225164     
   2280.5940 118.54843624     -25.28026757     14.20862015      18.86279874     
   2280.7464 119.15323656     -25.31079193     14.37761484      19.16880903     
   2280.8988 120.30728545     -25.34058932     14.53793633      19.47609384     
