~Version Information Block
 VERS.                2.00:     CWLS LOG ASCII STANDARD - VERSION 2.000000
 WRAP.                  NO:     One Line Per Depth Step
#
~Well Information Block
#MNEM.UNIT                     Data                         Information
#----------   ------------------------------------------   ----------------
 STRT.M                                      2100.0000:     START DEPTH
 STOP.M                                      2374.9296:     STOP DEPTH
 STEP.M                                         0.1524:     STEP
 NULL.                                       -999.2500:     NULL VALUE
 COMP.                                        Alphabow:     COMPANY
 WELL.                  SOC PINE CK 2-29-56-19 #107872:     WELL
 FLD .                                                :     FIELD
 LOC .                                                :     LOCATION
 CNTY.                                                :     COUNTY
 STAT.                                                :     STATE
 CTRY.                                                :     COUNTRY
 SRVC.                                                :     SERVICE COMPANY
 DATE.                                      03/28/2025:     DATE
 API .                                100022905619W500:     API NUMBER
 UWI .                                100022905619W500:     UWI NUMBER
 TVD .                                              NO:     TVD flag
 WSTA.                                             LOC:     Well status
#
~Curve Information Block
#MNEM.UNIT       API CODE      Curve Description
#----------    -------------   -------------------
 DEPT.M                    :   Depth in Meters
 GR  .GAPI     35 310 01 01:   Gamma Ray
 SP  .MV       01 010 01 01:   Spontaneous Potential
 ILD .OHMM     05 120 46 01:   Deep Induction Standard Processed Resistivity
 SFLA.OHMM     10 222 01 01:   SFL Resistivity (Averaged)
#
~Parameter Information Block
#MNEM.UNIT            Value               Description
#----------    --------------------    -------------------
 RUN .                         ONE:    Run Number
 PDAT.                         UNK:    Permanent Datum
 EPD .M                 -9999.5000:    Elevation Of Perm. Datum
 WSTA.                         LOC:    
 TD  .M                  2375.0000:    Total Depth
#
~Other Information Block
<DescLogPlotStart>   NEURALOG PLOT DEFINITION
PLOTDEFVERSION: 3
LASFILE: C:\Users\wadet\Desktop\Alphabow Evaluation\well_info\second_white_spec
DEPTHSCALE: 600.000000
RESOLUTION: 200
DEPTHLABELFREQ: 100.000000
HEAVYGRIDFREQ: 50.000000
MEDIUMGRIDFREQ: 25.000000
LIGHTGRIDFREQ: 25.000000
#
#   TRACK 1
#
STARTTRACK: 
 LEFTX: 0.500000 inch
 RIGHTX: 3.000000 inch
 SCALETYPE: Linear
 NUMCHARTDIVISIONS: 7
CURVE: GR    0.000000   150.000000 (0,0,255)      Solid             2     N    
CURVE: SP    -80.000000 20.000000  (0,131,131)    Dot               2     N    
ENDTRACK: 
#
#   TRACK 2
#
STARTTRACK: 
 LEFTX: 3.500000 inch
 RIGHTX: 6.000000 inch
 SCALETYPE: Linear
 NUMCHARTDIVISIONS: 10
CURVE: ILD   0.000000   50.000000  (255,0,255)    Solid             2     N    
CURVE: SFLA  0.000000   50.000000  (255,0,0)      Dot               2     N    
ENDTRACK: 
<DescLogPlotEnd>
~A DEPTH     GR               SP               ILD              SFLA            
# ...
   2250.8760 117.62490956     -25.61914641     13.39858987      16.11498271     
   2251.0284 118.22779537     -25.60302726     13.43373477      16.10102836     
   2251.1808 118.55968110     -25.58690810     13.47250856      16.11634289     
   2251.3332 118.84550202     -25.57078894     13.50756627      16.20202532     
   2251.4856 121.04411115     -25.55466979     13.55013268      16.42357019     
   2251.6380 122.24444653     -25.53855063     13.75202259      16.69042694     
   2251.7904 122.90618048     -25.52243147     13.85657983      16.93460411     
   2251.9428 125.33216939     -25.50631232     13.85379448      17.52675225     
   2252.0952 125.69529752     -25.49019316     13.85657678      18.05747686     
   2252.2476 125.02001225     -25.47407401     13.85313817      18.64860092     
   2252.4000 124.45848749     -25.45795485     13.85683157      19.07745660     
   2252.5524 123.78096484     -25.44183569     13.85224809      19.46468091     
   2252.7048 121.66762716     -25.42571654     13.85745563      19.68923992     
   2252.8572 121.30748940     -25.40959738     13.85119176      19.87319628     
   2253.0096 120.11238992     -25.39347823     13.85810297      19.89202617     
   2253.1620 119.14739517     -25.37735907     13.90318221      19.97643094     
   2253.3144 119.17232688     -25.36123991     14.08528546      19.99209472     
   2253.4668 119.77591601     -25.34512076     14.24915385      20.18246900     
   2253.6192 120.39951042     -25.32900160     14.47221235      20.19432586     
   2253.7716 120.40575946     -25.31288244     14.86968115      20.18490846     
   2253.9240 120.70118080     -25.29676329     14.88084798      20.09037763     
   2254.0764 120.72507851     -25.28064413     14.97172246      19.98342037     
   2254.2288 121.62284438     -25.26452498     14.86240001      19.68009733     
   2254.3812 121.97258049     -25.24840582     14.68972784      19.27132117     
   2254.5336 122.54665416     -25.23228666     14.53822572      18.96423805     
   2254.6860 123.52310943     -25.21616751     14.36684335      18.45658026     
   2254.8384 124.08942479     -25.20004835     14.21346326      18.14643536     
   2254.9908 123.40591086     -25.18392920     14.15679292      17.90833777     
   2255.1432 122.73565513     -25.16781004     14.00229043      17.70066462     
   2255.2956 122.28586484     -25.15169088     13.86219695      17.50402354     
   2255.4480 121.29899888     -25.13557173     13.75324255      17.43130855     
   2255.6004 119.50111923     -25.11945257     13.64855064      17.23251107     
   2255.7528 118.51353638     -25.10333341     13.65043754      17.22771622     
   2255.9052 118.26435451     -25.08721426     13.64985185      17.33429918     
   2256.0576 118.20487145     -25.07109510     13.57040620      17.33071793     
   2256.2100 117.33280921     -25.05497595     13.44508323      17.43583711     
   2256.3624 116.96710447     -25.03885679     13.31716164      17.43388373     
   2256.5148 116.71201517     -25.02273763     13.19291439      17.33297312     
   2256.6672 116.66497785     -25.00661848     13.13891176      17.12831970     
   2256.8196 116.70917604     -24.99049932     13.14175312      16.92364745     
   2256.9720 116.98684834     -24.97437832     13.13889737      16.72064619     
   2257.1244 116.39301937     -24.95828637     12.99062637      16.31032504     
   2257.2768 116.38012140     -24.94216022     12.84621853      16.10875790     
   2257.4292 116.38017832     -24.92608111     12.70729096      15.90150129     
   2257.5816 116.39502650     -24.90993438     12.56306965      15.70132070     
   2257.7340 116.98219848     -24.89388318     12.42664888      15.69680074     
   2257.8864 117.95735023     -24.87770206     12.42474515      15.59963903     
   2258.0388 117.58240008     -24.86169045     12.48905207      15.69605458     
   2258.1912 117.66005484     -24.84546616     12.55050451      15.70228286     
   2258.3436 117.56939998     -24.82949943     12.61301460      15.79703262     
   2258.4960 115.50510947     -24.81323062     12.67545941      16.00929093     
   2258.6484 114.77874708     -24.79730593     12.73679243      16.20460978     
   2258.8008 114.58073972     -24.78099958     12.80029296      16.41924500     
   2258.9532 116.63400095     -24.76510608     12.94391059      16.61196130     
   2259.1056 117.35870228     -24.74877646     13.19334337      16.93064386     
   2259.2580 120.66220536     -24.73171110     13.43808716      17.22323846     
   2259.4104 121.05856233     -24.73147158     13.68801691      17.64609772     
   2259.5628 120.98106943     -24.73168110     13.95512387      18.03811742     
   2259.7152 122.28044602     -24.73145697     13.98513264      18.25939881     
   2259.8676 122.58006479     -24.73164213     14.01202521      18.85354940     
   2260.0200 122.69700502     -24.73145010     14.04463348      18.93327383     
   2260.1724 122.76815332     -24.73159703     14.07185040      18.98224471     
   2260.3248 122.86693470     -24.73144748     14.10424358      19.07808189     
   2260.4772 121.94525777     -24.73154973     14.13205553      18.95622714     
   2260.6296 122.24089557     -24.73144495     14.16389278      18.67030915     
   2260.7820 122.88362162     -24.73150438     14.19229088      18.54878268     
   2260.9344 124.71037281     -24.73143861     14.22353792      18.56773365     
   2261.0868 125.37053195     -24.73146442     14.25236113      18.95782415     
   2261.2392 124.40015752     -24.73142566     14.28311198      19.07679036     
   2261.3916 122.59158382     -24.73142222     14.31246627      19.16305655     
   2261.5440 120.98802815     -24.73138793     14.34308304      19.28014508     
   2261.6964 119.20330521     -24.73137559     14.37258552      19.26680303     
   2261.8488 116.95030893     -24.73137112     14.40319931      19.17749264     
   2262.0012 116.74823448     -24.73135581     14.43260611      19.16648786     
   2262.1536 117.24297849     -24.73135422     14.46305367      19.17652443     
   2262.3060 117.39160215     -24.73133628     14.49224283      19.27052089     
   2262.4584 113.81783230     -24.73133691     14.52291128      19.68519575     
   2262.6108 111.22272471     -24.73131729     14.55189105      20.29262907     
   2262.7632 109.46616285     -24.73131896     14.58274727      20.70468103     
   2262.9156 109.68568662     -24.73129901     14.61157016      21.21274212     
   2263.0680 113.78782336     -24.73130026     14.64254453      21.41720226     
   2263.2204 112.78415305     -24.73128147     14.67115602      21.31613296     
   2263.3728 120.59974872     -24.73128087     14.61084424      21.00696233     
   2263.5252 121.44335580     -24.73126453     14.54858906      20.50111778     
   2263.6776 119.98979622     -24.72506432     14.48848623      20.29085570     
   2263.8300 119.56715956     -24.71311450     14.42634882      20.19626466     
   2263.9824 118.15004974     -24.70117084     14.36608944      20.18758656     
   2264.1348 118.92505227     -24.68922443     14.30413955      20.19725370     
   2264.2872 119.40826064     -24.67727755     14.24367092      20.18636733     
   2264.4396 121.38038143     -24.66533402     14.18194187      20.09564985     
   2264.5920 122.52613116     -24.65338473     14.12125126      19.98150749     
   2264.7444 122.60002824     -24.64144303     14.05973518      19.58512467     
   2264.8968 122.53456059     -24.62949256     13.99884988      19.36947933     
   2265.0492 121.04476121     -24.61755135     13.93750228      19.33860841     
   2265.2016 119.54660629     -24.60560106     13.87648090      19.28841152     
   2265.3540 118.56798517     -24.59365905     13.81523287      19.17651088     
   2265.5064 117.58562495     -24.58171012     13.75415029      19.16771816     
   2265.6588 117.95378146     -24.56976630     13.69292523      18.86881234     
   2265.8112 118.20491981     -24.55781948     13.63170123      18.65799461     
