~Version Information Block
 VERS.                2.00:     CWLS LOG ASCII STANDARD - VERSION 2.000000
 WRAP.                  NO:     One Line Per Depth Step
#
~Well Information Block
#MNEM.UNIT                     Data                         Information
#----------   ------------------------------------------   ----------------
 STRT.M                                      1950.0000:     START DEPTH
 STOP.M                                      2299.9104:     STOP DEPTH
 STEP.M                                         0.1524:     STEP
 NULL.                                       -999.2500:     NULL VALUE
 COMP.                                        Alphabow:     COMPANY
 WELL.                   SOC PINE CK 4-15-56-19 #92507:     WELL
 FLD .                                                :     FIELD
 LOC .                                                :     LOCATION
 CNTY.                                                :     COUNTY
 STAT.                                                :     STATE
 CTRY.                                                :     COUNTRY
 SRVC.                                                :     SERVICE COMPANY
 DATE.                                      03/29/2025:     DATE
 API .                                100041505619W500:     API NUMBER
 UWI .                                100041505619W500:     UWI NUMBER
 TVD .                                              NO:     TVD flag
 WSTA.                                             LOC:     Well status
#
~Curve Information Block
#MNEM.UNIT       API CODE      Curve Description
#----------    -------------   -------------------
 DEPT.M                    :   Depth in Meters
 SP  .MV       01 010 01 01:   Spontaneous Potential
 SFLU.OHMM     10 220 01 01:   SFL Resistivity (Unaveraged)
 ILD .OHMM     05 120 46 01:   Deep Induction Standard Processed Resistivity
#
~Parameter Information Block
#MNEM.UNIT            Value               Description
#----------    --------------------    -------------------
 RUN .                         ONE:    Run Number
 PDAT.                         UNK:    Permanent Datum
 EPD .M                 -9999.5000:    Elevation Of Perm. Datum
 WSTA.                         LOC:    
 TD  .M                  2300.0000:    Total Depth
#
~Other Information Block
<DescLogPlotStart>   NEURALOG PLOT DEFINITION
PLOTDEFVERSION: 3
LASFILE: C:\Users\wadet\Desktop\Alphabow Evaluation\well_info\second_white_spec
DEPTHSCALE: 240.000000
RESOLUTION: 200
DEPTHLABELFREQ: 50.000000
HEAVYGRIDFREQ: 50.000000
MEDIUMGRIDFREQ: 25.000000
LIGHTGRIDFREQ: 5.000000
#
#   TRACK 1
#
STARTTRACK: 
 LEFTX: 0.500000 inch
 RIGHTX: 3.000000 inch
 SCALETYPE: Linear
 NUMCHARTDIVISIONS: 9
CURVE: SP    -80.000000 20.000000  (0,0,255)      Solid             2     N    
ENDTRACK: 
#
#   TRACK 2
#
STARTTRACK: 
 LEFTX: 3.500000 inch
 RIGHTX: 8.500000 inch
 SCALETYPE: Linear
 NUMCHARTDIVISIONS: 34
CURVE: SFLU  2.000000   2000.000000 (0,131,131)    Solid             2     N   
CURVE: ILD   2.000000   2000.000000 (255,0,255)    Dot               2     N   
ENDTRACK: 
<DescLogPlotEnd>
~A DEPTH     SP               SFLU             ILD             
# ...
   2216.7000 -18.14057231     951.50042354     891.99674254    
   2216.8524 -18.45684482     947.97797802     891.58658757    
   2217.0048 -18.32931398     947.40939796     887.91020460    
   2217.1572 -18.33584687     949.53320062     886.24634364    
   2217.3096 -18.27195985     951.52200965     888.33848565    
   2217.4620 -18.49967181     949.92099067     890.33827298    
   2217.6144 -18.49358013     947.25049175     892.32312079    
   2217.7668 -18.50142031     947.44648068     894.31383525    
   2217.9192 -18.27520008     947.37217539     896.30501911    
   2218.0716 -18.29246907     951.61171656     898.29743058    
   2218.2240 -18.29297145     955.24528369     900.28403048    
   2218.3764 -18.29711355     953.42579312     902.25707316    
   2218.5288 -18.06854598     950.10236095     904.40426262    
   2218.6812 -18.08057444     949.50122532     910.78152198    
   2218.8336 -18.09487174     961.99794660     917.38115030    
   2218.9860 -17.66751283     979.57375086     923.97870411    
   2219.1384 -17.71925147     998.05230321     930.90606548    
   2219.2908 -17.67417130     999.13812695     937.57199184    
   2219.4432 -17.67894627     995.38393686     942.55395862    
   2219.5956 -17.45368546     992.12591256     947.76217197    
   2219.7480 -17.47120130     992.85851555     949.50954812    
   2219.9004 -17.47562022     995.41775936     948.94241672    
   2220.0528 -17.59992278     997.69895011     946.80774517    
   2220.2052 -17.67411620     1001.72516511    944.78543740    
   2220.3576 -17.72385960     1004.68856135    942.63925480    
   2220.5100 -18.03702250     1007.57841851    943.28540421    
   2220.6624 -17.72876724     1003.04629230    943.87223996    
   2220.8148 -17.42699283     999.25520631     942.97167983    
   2220.9672 -17.27784939     992.34617307     939.17427706    
   2221.1196 -17.31100774     988.68463267     936.52657553    
   2221.2720 -17.45213864     986.52441254     933.91002686    
   2221.4244 -17.28833997     978.50154116     931.31028238    
   2221.5768 -17.47049550     973.48398460     928.70998781    
   2221.7292 -17.47148721     966.02641930     926.10629169    
   2221.8816 -17.49478789     961.64187713     923.43442613    
   2222.0340 -17.26816609     958.50520836     922.29379048    
   2222.1864 -17.27459625     961.48884865     918.20458346    
   2222.3388 -17.27308475     964.22965196     914.05149579    
   2222.4912 -17.22849212     966.32011585     912.52954004    
   2222.6436 -17.08211628     965.63206746     912.58263593    
   2222.7960 -17.22770685     964.02991546     909.75398169    
   2222.9484 -17.27876582     963.99749292     906.38456965    
   2223.1008 -17.47193718     965.97010342     902.91850857    
   2223.2532 -17.47425680     967.98272097     899.94366677    
   2223.4056 -17.70282472     968.55616365     896.91568406    
   2223.5580 -17.68769655     965.20937521     896.12582286    
   2223.7104 -17.63561169     958.31255164     895.56235618    
   2223.8628 -17.45963946     949.82878426     892.52227169    
   2224.0152 -17.67935282     943.97814126     889.27703647    
   2224.1676 -17.73624464     941.18210668     886.13705147    
   2224.3200 -17.65932944     940.37548474     882.96933879    
   2224.4724 -17.75238170     940.77175071     882.06286263    
   2224.6248 -17.88539973     941.35372268     885.82270330    
   2224.7772 -18.04941902     941.46933227     887.81547534    
   2224.9296 -18.09443327     940.64483379     890.15407966    
   2225.0820 -18.08651107     940.00116261     892.65773701    
   2225.2344 -17.94714582     939.75253265     895.69457232    
   2225.3868 -17.66246780     941.23907283     900.39526590    
   2225.5392 -17.49570461     943.49126926     902.09451945    
   2225.6916 -17.67700313     949.43258591     905.73594072    
   2225.8440 -17.67229410     953.86050004     908.22552902    
   2225.9964 -17.63125296     956.08473129     911.70131510    
   2226.1488 -17.46865584     959.35719784     914.21739600    
   2226.3012 -17.46978473     959.94457314     916.77842377    
   2226.4536 -17.51467457     964.23387792     919.33168595    
   2226.6060 -17.67037473     969.56612290     922.09438940    
   2226.7584 -17.67933762     977.11924573     926.10563136    
   2226.9108 -17.67958744     986.66241595     927.00564390    
   2227.0632 -17.68839228     988.96956978     926.96679031    
   2227.2156 -17.85129656     988.94975431     926.94107421    
   2227.3680 -17.90980244     987.05698550     926.87194312    
   2227.5204 -17.90872728     974.49314693     929.59159217    
   2227.6728 -17.88603293     970.76720358     930.98061868    
   2227.8252 -18.14957461     968.58869071     930.75049422    
   2227.9776 -18.29158604     966.37441654     930.38887722    
   2228.1300 -18.31390019     970.46755547     930.00906706    
   2228.2824 -18.08547441     976.20221636     929.62662867    
   2228.4348 -18.13668946     979.88315672     929.25125932    
   2228.5872 -18.29124935     977.31165758     929.06398311    
   2228.7396 -18.24688233     974.89585711     930.71658565    
   2228.8920 -17.93858525     972.49099998     932.72532618    
   2229.0444 -17.87851675     970.11474701     931.47732269    
   2229.1968 -18.11185434     968.05733999     928.72384991    
   2229.3492 -18.11477718     968.02269765     926.00120023    
   2229.5016 -17.87609242     970.10973263     923.28293032    
   2229.6540 -17.86522559     972.62652743     920.34120401    
   2229.8064 -17.86699229     973.90427909     918.78673359    
   2229.9588 -17.64565271     975.97987562     916.44518478    
   2230.1112 -17.65757919     987.91979543     915.96629225    
   2230.2636 -17.66121587     995.06115008     915.27093839    
   2230.4160 -17.67343172     996.40450800     914.68310715    
   2230.5684 -17.68006613     997.00051009     916.23170869    
   2230.7208 -17.67994612     974.89071058     916.67975217    
   2230.8732 -17.68327017     989.49617257     916.64529207    
   2231.0256 -17.58869007     995.68437206     916.32555958    
   2231.1780 -17.70239721     992.67509208     914.99660391    
   2231.3304 -17.68651733     989.82244226     913.69364382    
   2231.4828 -17.64193171     987.08346044     912.39464956    
   2231.6352 -17.50432567     984.14733997     911.09225187    
   2231.7876 -17.25802866     988.60620833     909.78065700    
   2231.9400 -17.10419797     981.04708528     908.45088578    
   2232.0924 -16.88515476     982.50651684     908.37971384    
   2232.2448 -16.66137945     985.34828239     907.33326798    
   2232.3972 -16.82061710     988.40022906     905.36103203    
   2232.5496 -17.09918077     991.08787929     905.91858597    
   2232.7020 -17.23358261     982.01072850     906.40990364    
   2232.8544 -17.26094576     980.24575763     904.07785201    
   2233.0068 -17.13502997     998.60383734     903.06234419    
   2233.1592 -17.31402663     994.87130299     901.82192751    
   2233.3116 -17.61675615     991.23766706     900.53396106    
   2233.4640 -18.05745116     987.67825473     899.25336286    
   2233.6164 -18.09784582     984.10370324     897.97916833    
   2233.7688 -18.05111229     980.52122840     896.70153871    
   2233.9212 -17.88876313     976.98220816     896.06088372    
   2234.0736 -18.04721287     974.51492286     896.10061885    
   2234.2260 -18.09721180     972.34439634     895.16823815    
   2234.3784 -18.26567028     970.16754964     893.79619113    
   2234.5308 -18.46573918     967.98947822     894.84646795    
   2234.6832 -18.49844353     965.80984069     910.14030181    
   2234.8356 -18.33499821     963.65661325     907.23857148    
   2234.9880 -18.21409619     962.00443017     905.49996451    
   2235.1404 -17.89379826     962.87242693     903.65684034    
   2235.2928 -17.66738283     963.68490139     901.78496057    
   2235.4452 -17.83723694     964.49421772     900.13375411    
   2235.5976 -17.86537830     965.31410966     899.57716774    
