~Version Information Block
 VERS.                2.00:     CWLS LOG ASCII STANDARD - VERSION 2.000000
 WRAP.                  NO:     One Line Per Depth Step
#
~Well Information Block
#MNEM.UNIT                     Data                         Information
#----------   ------------------------------------------   ----------------
 STRT.M                                      1950.0000:     START DEPTH
 STOP.M                                      2299.9104:     STOP DEPTH
 STEP.M                                         0.1524:     STEP
 NULL.                                       -999.2500:     NULL VALUE
 COMP.                                        Alphabow:     COMPANY
 WELL.                   SOC PINE CK 4-15-56-19 #92507:     WELL
 FLD .                                                :     FIELD
 LOC .                                                :     LOCATION
 CNTY.                                                :     COUNTY
 STAT.                                                :     STATE
 CTRY.                                                :     COUNTRY
 SRVC.                                                :     SERVICE COMPANY
 DATE.                                      03/29/2025:     DATE
 API .                                100041505619W500:     API NUMBER
 UWI .                                100041505619W500:     UWI NUMBER
 TVD .                                              NO:     TVD flag
 WSTA.                                             LOC:     Well status
#
~Curve Information Block
#MNEM.UNIT       API CODE      Curve Description
#----------    -------------   -------------------
 DEPT.M                    :   Depth in Meters
 SP  .MV       01 010 01 01:   Spontaneous Potential
 SFLU.OHMM     10 220 01 01:   SFL Resistivity (Unaveraged)
 ILD .OHMM     05 120 46 01:   Deep Induction Standard Processed Resistivity
#
~Parameter Information Block
#MNEM.UNIT            Value               Description
#----------    --------------------    -------------------
 RUN .                         ONE:    Run Number
 PDAT.                         UNK:    Permanent Datum
 EPD .M                 -9999.5000:    Elevation Of Perm. Datum
 WSTA.                         LOC:    
 TD  .M                  2300.0000:    Total Depth
#
~Other Information Block
<DescLogPlotStart>   NEURALOG PLOT DEFINITION
PLOTDEFVERSION: 3
LASFILE: C:\Users\wadet\Desktop\Alphabow Evaluation\well_info\second_white_spec
DEPTHSCALE: 240.000000
RESOLUTION: 200
DEPTHLABELFREQ: 50.000000
HEAVYGRIDFREQ: 50.000000
MEDIUMGRIDFREQ: 25.000000
LIGHTGRIDFREQ: 5.000000
#
#   TRACK 1
#
STARTTRACK: 
 LEFTX: 0.500000 inch
 RIGHTX: 3.000000 inch
 SCALETYPE: Linear
 NUMCHARTDIVISIONS: 9
CURVE: SP    -80.000000 20.000000  (0,0,255)      Solid             2     N    
ENDTRACK: 
#
#   TRACK 2
#
STARTTRACK: 
 LEFTX: 3.500000 inch
 RIGHTX: 8.500000 inch
 SCALETYPE: Linear
 NUMCHARTDIVISIONS: 34
CURVE: SFLU  2.000000   2000.000000 (0,131,131)    Solid             2     N   
CURVE: ILD   2.000000   2000.000000 (255,0,255)    Dot               2     N   
ENDTRACK: 
<DescLogPlotEnd>
~A DEPTH     SP               SFLU             ILD             
# ...
   2159.5500 -19.88730064     939.47903199     905.96939583    
   2159.7024 -19.84472371     935.89569376     903.36714300    
   2159.8548 -19.80233206     929.16485942     900.78356028    
   2160.0072 -19.76482541     924.16052984     898.27549173    
   2160.1596 -19.85856349     922.48230311     898.35661835    
   2160.3120 -20.12918135     918.18529838     895.46453122    
   2160.4644 -20.06851919     916.71808265     890.81338093    
   2160.6168 -20.01224553     917.89307079     887.49668671    
   2160.7692 -19.95695839     924.80780092     884.88664854    
   2160.9216 -19.90132126     930.60780622     882.26744038    
   2161.0740 -19.84568446     929.47527969     879.67862835    
   2161.2264 -19.79004765     928.64418439     879.57262910    
   2161.3788 -19.73441085     929.28473437     879.58555080    
   2161.5312 -19.67877405     931.26364596     878.38406039    
   2161.6836 -19.62313725     930.69399267     876.44152162    
   2161.8360 -19.56750045     927.04986140     874.51306585    
   2161.9884 -19.51186365     924.55827154     872.56654480    
   2162.1408 -19.45622685     918.42821799     871.14604546    
   2162.2932 -19.40059005     910.51029435     874.91522929    
   2162.4456 -19.34495324     908.06475893     870.09091374    
   2162.5980 -19.28931644     908.85258515     865.36293212    
   2162.7504 -19.23367964     914.68658015     867.42701110    
   2162.9028 -19.17804284     918.94792385     867.27439522    
   2163.0552 -19.12240757     916.12382254     867.23563294    
   2163.2076 -19.06506796     909.76993245     867.19765381    
   2163.3600 -19.01099359     901.97839953     867.46241249    
   2163.5124 -18.98061984     896.31765914     875.61022810    
   2163.6648 -19.22483894     890.47686051     883.98586947    
   2163.8172 -18.96706971     884.63422402     889.67830779    
   2163.9696 -19.56718897     900.22114112     898.66835106    
   2164.1220 -19.53376341     930.20215987     905.02662584    
   2164.2744 -19.52677685     951.86619336     907.67381728    
   2164.4268 -19.51710831     965.97269447     908.16470285    
   2164.5792 -19.35545461     963.19495130     912.78564936    
   2164.7316 -19.33729448     956.04610124     911.06457805    
   2164.8840 -19.72496659     953.52912929     909.25630963    
   2165.0364 -19.73401286     956.11767138     910.88505873    
   2165.1888 -19.68577773     959.27228647     914.69626779    
   2165.3412 -19.37907375     955.77391645     912.53450267    
   2165.4936 -18.95285015     956.00754482     907.38441042    
   2165.6460 -18.84953943     959.91957998     902.29755746    
   2165.7984 -18.97134166     955.93613284     897.19426358    
   2165.9508 -19.36318748     949.10236306     892.06763163    
   2166.1032 -19.26558331     945.80745138     888.09512873    
   2166.2556 -18.95798057     942.93992807     884.96648525    
   2166.4080 -18.64898511     935.10469485     881.83149311    
   2166.5604 -18.44255382     926.71451646     878.72422812    
   2166.7128 -18.27569639     914.61396204     875.60793057    
   2166.8652 -18.12638407     908.77982806     872.83722578    
   2167.0176 -18.10677964     906.77530685     868.53931579    
   2167.1700 -17.88275026     906.56757517     860.69359265    
   2167.3224 -17.88891489     903.92025439     855.46398425    
   2167.4748 -17.88547212     898.54575264     850.09879376    
   2167.6272 -17.88459240     894.46793805     844.94919201    
   2167.7796 -17.88394670     889.50564337     838.46520341    
   2167.9320 -17.88776723     879.90143362     833.91260036    
   2168.0844 -17.90553722     876.17248340     829.45480207    
   2168.2368 -17.67775243     874.06950083     826.01777099    
   2168.3892 -17.68620842     870.84410831     826.13626267    
   2168.5416 -17.70101050     867.95441254     826.09464824    
   2168.6940 -17.47303157     865.12867887     828.36755683    
   2168.8464 -17.47651333     865.63580591     828.28737538    
   2168.9988 -17.48522729     872.02926139     828.66485348    
   2169.1512 -17.68651430     882.03834707     829.07432128    
   2169.3036 -17.67893927     891.01546934     829.49110436    
   2169.4560 -17.89614303     896.62486380     829.94317448    
   2169.6084 -17.72406277     888.40841192     831.70404819    
   2169.7608 -17.67840195     877.38363070     834.76615322    
   2169.9132 -17.64032073     871.08215217     840.80480269    
   2170.0656 -17.35577034     872.74952068     840.53464291    
   2170.2180 -17.29020150     877.40178670     841.25291951    
   2170.3704 -17.06244746     892.26923495     842.29473379    
   2170.5228 -17.07317554     905.67679955     843.34546720    
   2170.6752 -17.08739288     908.58720485     844.31281721    
   2170.8276 -17.11035430     899.94212151     847.32865166    
   2170.9800 -14.23382589     889.75235302     850.72394465    
   2171.1324 -17.37654039     883.95467613     852.79753569    
   2171.2848 -17.12910330     881.89363179     852.87005183    
   2171.4372 -16.95106070     879.59381728     849.85747917    
   2171.5896 -16.77733640     881.76366345     846.39704103    
   2171.7420 -16.60975262     884.72461459     843.36418056    
   2171.8944 -16.45252110     888.05184350     846.63548603    
   2172.0468 -16.48987905     898.32485932     852.48902277    
   2172.1992 -16.53207376     909.03872080     855.22658687    
   2172.3516 -16.57352244     917.14632791     856.41289605    
   2172.5040 -16.61474071     918.07238357     857.68110648    
   2172.6564 -16.65602167     912.30735889     859.37579403    
   2172.8088 -16.69730263     904.51674196     861.00519082    
   2172.9612 -16.73863487     899.98382206     859.81832160    
   2173.1136 -16.77965591     896.18881749     857.78887344    
   2173.2660 -16.82012878     895.95560126     855.73358541    
   2173.4184 -16.86486409     896.74244825     854.91464986    
   2173.5708 -17.01546747     893.32732037     854.86411175    
   2173.7232 -17.16070821     889.93231848     853.40056621    
   2173.8756 -17.30496238     887.89004254     848.67057164    
   2174.0280 -17.44896009     889.76803677     845.77904060    
   2174.1804 -17.59303474     893.47144847     843.74184306    
   2174.3328 -17.73710940     897.76805246     841.81311134    
   2174.4852 -17.88118405     898.16135053     839.96059765    
   2174.6376 -18.02525871     897.68869369     839.93996103    
   2174.7900 -18.16933336     896.57539872     844.04868907    
   2174.9424 -18.31340801     899.85174478     849.46122273    
   2175.0948 -18.45748267     905.30691365     854.50190607    
   2175.2472 -18.60155732     906.55384009     858.36048509    
   2175.3996 -18.74563198     904.26994199     863.30946607    
   2175.5520 -18.88970663     904.09336724     870.89930153    
   2175.7044 -19.03378128     906.15190695     875.63843886    
   2175.8568 -19.17785594     908.37362670     875.00217061    
   2176.0092 -19.32193059     908.34732603     872.72731109    
   2176.1616 -19.46598791     908.36128211     870.57613256    
   2176.3140 -19.60805168     908.77524270     869.27033653    
   2176.4664 -19.75073087     914.13139598     867.89133257    
   2176.6188 -19.92565260     918.17540356     864.71763379    
   2176.7712 -20.48116034     918.98070882     860.36663078    
   2176.9236 -20.92404862     916.06110916     855.40708653    
   2177.0760 -21.16078206     906.23037976     850.57736336    
   2177.2284 -21.33412114     901.19052879     846.56469782    
   2177.3808 -21.83505685     895.71139120     846.66704321    
   2177.5332 -21.80787053     894.13849159     846.53872817    
   2177.6856 -21.72654086     893.76933124     850.95828376    
   2177.8380 -21.43544949     895.83396538     856.14340131    
   2177.9904 -21.17852336     898.20742720     861.02223157    
   2178.1428 -21.16490919     902.21603644     864.81349437    
   2178.2952 -21.25215849     905.92780393     867.13951211    
   2178.4476 -20.96257597     908.41960620     865.61436044    
