~Version Information Block
 VERS.                2.00:     CWLS LOG ASCII STANDARD - VERSION 2.000000
 WRAP.                  NO:     One Line Per Depth Step
#
~Well Information Block
#MNEM.UNIT                     Data                         Information
#----------   ------------------------------------------   ----------------
 STRT.M                                      2015.0000:     START DEPTH
 STOP.M                                      2349.9752:     STOP DEPTH
 STEP.M                                         0.1524:     STEP
 NULL.                                       -999.2500:     NULL VALUE
 COMP.                                        Alphabow:     COMPANY
 WELL.                   SOC PINE CK 4-15-56-19 #92507:     WELL
 FLD .                                      Pine Creek:     FIELD
 LOC .                           100/04-15-056-19W5/00:     LOCATION
 CNTY.                                                :     COUNTY
 STAT.                                         Alberta:     STATE
 CTRY.                                          Canada:     COUNTRY
 SRVC.                                                :     SERVICE COMPANY
 DATE.                                      03/27/2025:     DATE
 API .                                100041505619W500:     API NUMBER
 UWI .                                100041505619W500:     UWI NUMBER
 TVD .                                              NO:     TVD flag
 WSTA.                                             LOC:     Well status
#
~Curve Information Block
#MNEM.UNIT       API CODE      Curve Description
#----------    -------------   -------------------
 DEPT.M                    :   Depth in Meters
 CALI.mm       70 280 01 01:   Caliper
 GR  .GAPI     35 310 01 01:   Gamma Ray
 RHOB.kg/m3     42 350 01 01:   Bulk Density
#
~Parameter Information Block
#MNEM.UNIT            Value               Description
#----------    --------------------    -------------------
 RUN .                         ONE:    Run Number
 PDAT.                         UNK:    Permanent Datum
 EPD .M                 -9999.5000:    Elevation Of Perm. Datum
 TD  .M                  2350.0000:    Total Depth
 WSTA.                         LOC:    
 LATB.M                     0.0000:    
 LONB.M                     0.0000:    
#
~Other Information Block
<DescLogPlotStart>   NEURALOG PLOT DEFINITION
PLOTDEFVERSION: 3
LASFILE: C:\Users\wadet\Desktop\Alphabow Evaluation\well_info\second_white_spec
DEPTHSCALE: 600.000000
RESOLUTION: 200
DEPTHLABELFREQ: 100.000000
HEAVYGRIDFREQ: 50.000000
MEDIUMGRIDFREQ: 25.000000
LIGHTGRIDFREQ: 25.000000
#
#   TRACK 1
#
STARTTRACK: 
 LEFTX: 0.500000 inch
 RIGHTX: 3.000000 inch
 SCALETYPE: Linear
 NUMCHARTDIVISIONS: 9
CURVE: CALI  125.000000 375.000000 (0,0,255)      Solid             2     N    
CURVE: GR    0.000000   150.000000 (0,131,131)    Dot               2     Y    
BACKUP: 150.000000 300.000000 (0,131,131)    Dot               2    
ENDTRACK: 
#
#   TRACK 2
#
STARTTRACK: 
 LEFTX: 3.500000 inch
 RIGHTX: 8.500000 inch
 SCALETYPE: Linear
 NUMCHARTDIVISIONS: 17
CURVE: RHOB  2000.000000 3000.000000 (255,0,255)    Solid             2     N  
ENDTRACK: 
<DescLogPlotEnd>
~A DEPTH     CALI             GR               RHOB            
# ...
   2243.6000 237.33517154     121.04856154     2632.27912464   
   2243.7524 237.40510214     121.32464496     2618.56060038   
   2243.9048 237.47662547     121.66804137     2608.57584559   
   2244.0572 237.54639666     121.94828861     2608.19058421   
   2244.2096 237.61804546     121.97816608     2615.82393657   
   2244.3620 237.68773159     121.64311657     2629.82510402   
   2244.5144 237.75942061     121.97553365     2624.01466995   
   2244.6668 237.82911351     121.95690447     2616.43668726   
   2244.8192 237.68295650     122.27926765     2620.87495958   
   2244.9716 237.39445152     122.55054227     2622.63771681   
   2245.1240 237.10765521     123.03610408     2624.46465198   
   2245.2764 236.81931887     123.51164242     2625.74922981   
   2245.4288 236.53233027     123.81237105     2622.85295882   
   2245.5812 236.24420034     125.49891593     2620.65536427   
   2245.7336 235.95700123     126.38249970     2620.80895306   
   2245.8860 235.66907599     127.31064990     2624.81306110   
   2246.0384 235.38168730     128.18343622     2630.05764295   
   2246.1908 235.09392837     128.77899391     2638.21856848   
   2246.3432 234.80661991     130.29047243     2640.34455032   
   2246.4956 234.51915450     131.25738738     2635.10470845   
   2246.6480 234.23183719     131.22435187     2627.98901840   
   2246.8004 233.94434545     129.70760440     2620.70929217   
   2246.9528 233.65708434     129.06620434     2618.70817257   
   2247.1052 233.36951360     126.91339681     2618.63533460   
   2247.2576 233.08197717     125.98428089     2615.59978563   
   2247.4100 232.79417314     125.66276649     2608.32851006   
   2247.5624 232.50663580     126.31049320     2599.11884258   
   2247.7148 232.21884877     127.50584012     2590.83495215   
   2247.8672 231.93127859     128.18341046     2585.71972401   
   2248.0196 231.64353906     128.42409809     2590.82804333   
   2248.1720 231.35590879     126.34047999     2594.98040118   
   2248.3244 231.06823914     125.01376385     2603.17252691   
   2248.4768 230.78053259     123.25407983     2611.45321427   
   2248.6292 230.63211743     124.08417320     2607.30862910   
   2248.7816 230.62898860     125.11312491     2606.30565092   
   2248.9340 230.62612503     127.79924710     2605.25090102   
   2249.0864 230.62293313     129.12617517     2610.40497161   
   2249.2388 230.62012049     129.34608768     2615.57696147   
   2249.3912 230.61689226     129.73111842     2607.30006585   
   2249.5436 230.61409971     129.66221654     2599.11490481   
   2249.6960 230.61086835     130.03207584     2588.71191458   
   2249.8484 230.60806223     130.77530633     2596.02184866   
   2250.0008 230.60485997     131.41497412     2608.13757565   
   2250.1532 230.60201121     131.98191389     2607.90161443   
   2250.3056 230.59886241     132.60181748     2607.32208933   
   2250.4580 230.59595262     133.18176054     2596.08028650   
   2250.6104 230.59286885     133.78241908     2580.39447272   
   2250.7628 230.58989370     134.37635913     2565.19655107   
   2250.9152 230.58687206     134.64353759     2565.96828487   
   2251.0676 230.58407695     134.96561114     2571.37790473   
   2251.2200 230.58128184     133.09165163     2571.11619871   
   2251.3724 230.57848673     130.33277170     2573.41493832   
   2251.5248 230.57569163     126.90318382     2583.48929939   
   2251.6772 230.57289652     123.83774027     2589.88992783   
   2251.8296 230.57010141     124.73574781     2590.74158865   
   2251.9820 230.56730630     126.00354665     2583.68559226   
   2252.1344 230.56451119     129.37858564     2572.23281190   
   2252.2868 230.56171608     132.80992045     2569.22233323   
   2252.4392 230.55892097     135.26089851     2576.39993248   
   2252.5916 230.55612587     136.82532211     2587.69230480   
   2252.7440 230.55333076     136.50378274     2592.93611991   
   2252.8964 230.55053565     135.88960330     2588.64092316   
   2253.0488 230.54774054     134.65683273     2590.60398954   
   2253.2012 230.54494543     133.10309855     2589.07936437   
   2253.3536 230.54215032     131.60053419     2588.27519278   
   2253.5060 230.53935522     130.32220971     2587.46096729   
   2253.6584 230.53656011     130.97149156     2575.65291475   
   2253.8108 230.53376500     132.13264430     2567.85558696   
   2253.9632 230.53096989     132.18752826     2568.52604388   
   2254.1156 230.52817478     132.11431426     2586.44619112   
   2254.2680 230.52537967     131.59101571     2600.51090348   
   2254.4204 230.52258457     131.49894421     2612.22148236   
   2254.5728 230.51978946     131.30249034     2605.62420513   
   2254.7252 230.51699435     130.27281299     2594.71952215   
   2254.8776 230.51419924     127.91063234     2576.67390966   
   2255.0300 230.51140413     126.86353396     2573.16136611   
   2255.1824 230.50860902     126.00432352     2573.46151671   
   2255.3348 230.50581391     126.57431367     2577.32061623   
   2255.4872 230.50301881     130.68167653     2581.59499694   
   2255.6396 230.50022370     149.48774685     2583.57252569   
   2255.7920 230.49742859     158.52224133     2591.84778126   
   2255.9444 230.49463348     148.20244656     2608.34228889   
   2256.0968 230.49183837     125.38760828     2629.95529735   
   2256.2492 230.48904326     102.53664955     2641.34686089   
   2256.4016 230.48624816     102.29209224     2687.66915497   
   2256.5540 230.48345305     110.02759374     2706.31912794   
   2256.7064 230.48065794     117.77458949     2711.37542690   
   2256.8588 230.47786283     125.51512899     2727.98862583   
   2257.0112 230.47506772     133.25912626     2693.83518979   
   2257.1636 230.47227261     140.22961168     2676.44437942   
   2257.3160 230.46947751     141.45618308     2660.81704468   
   2257.4684 230.46668240     142.56771863     2633.60999673   
   2257.6208 230.46388729     143.68880393     2607.96112466   
   2257.7732 230.46109218     144.79671986     2582.62963897   
   2257.9256 230.45829707     145.92629859     2589.65567509   
   2258.0780 230.45550196     147.03968947     2585.74043770   
   2258.2304 230.45270686     146.91902992     2586.58127099   
   2258.3828 230.44991175     145.14143631     2587.83746041   
   2258.5352 230.44711664     143.39111203     2591.75493118   
   2258.6876 230.44432153     141.61735679     2593.00423311   
   2258.8400 230.44152642     139.88747239     2585.61858106   
   2258.9924 230.43873131     138.12435523     2580.64221065   
   2259.1448 230.43593620     136.39363449     2578.42742689   
   2259.2972 230.43314110     134.63024982     2580.64203415   
   2259.4496 230.43034599     132.90085454     2582.52974285   
   2259.6020 230.42755088     131.13425363     2580.61756096   
   2259.7544 230.42475577     129.72124829     2567.06167116   
   2259.9068 230.42196066     130.61299811     2555.63081206   
   2260.0592 230.41916555     131.40130407     2547.41411637   
   2260.2116 230.41637045     132.15221341     2540.38988680   
   2260.3640 230.41357534     132.94012151     2550.53039783   
   2260.5164 230.41078023     133.69065499     2563.13338356   
   2260.6688 230.40798512     134.06670816     2575.20588394   
   2260.8212 230.40519001     134.58876024     2574.45323922   
   2260.9736 230.40239490     135.14464827     2572.14366441   
   2261.1260 230.39959980     135.65449769     2568.25254876   
   2261.2784 230.39680469     136.20697046     2568.05318146   
   2261.4308 230.39400958     136.71650465     2570.25482863   
   2261.5832 230.39121447     137.26601081     2572.21243708   
   2261.7356 230.38841936     137.77360291     2572.26665623   
   2261.8880 230.38562425     138.32639561     2574.34553512   
   2262.0404 230.38282914     138.89390156     2585.62656569   
   2262.1928 230.38003404     139.66314144     2598.09341682   
   2262.3452 230.37723893     140.36992424     2606.19000253   
   2262.4976 230.37444382     141.14549565     2606.34363990   
