~Version Information Block
 VERS.                2.00:     CWLS LOG ASCII STANDARD - VERSION 2.000000
 WRAP.                  NO:     One Line Per Depth Step
#
~Well Information Block
#MNEM.UNIT                     Data                         Information
#----------   ------------------------------------------   ----------------
 STRT.M                                      1950.0000:     START DEPTH
 STOP.M                                      2299.9104:     STOP DEPTH
 STEP.M                                         0.1524:     STEP
 NULL.                                       -999.2500:     NULL VALUE
 COMP.                                        Alphabow:     COMPANY
 WELL.                   SOC PINE CK 4-15-56-19 #92507:     WELL
 FLD .                                                :     FIELD
 LOC .                                                :     LOCATION
 CNTY.                                                :     COUNTY
 STAT.                                                :     STATE
 CTRY.                                                :     COUNTRY
 SRVC.                                                :     SERVICE COMPANY
 DATE.                                      03/29/2025:     DATE
 API .                                100041505619W500:     API NUMBER
 UWI .                                100041505619W500:     UWI NUMBER
 TVD .                                              NO:     TVD flag
 WSTA.                                             LOC:     Well status
#
~Curve Information Block
#MNEM.UNIT       API CODE      Curve Description
#----------    -------------   -------------------
 DEPT.M                    :   Depth in Meters
 SP  .MV       01 010 01 01:   Spontaneous Potential
 SFLU.OHMM     10 220 01 01:   SFL Resistivity (Unaveraged)
 ILD .OHMM     05 120 46 01:   Deep Induction Standard Processed Resistivity
#
~Parameter Information Block
#MNEM.UNIT            Value               Description
#----------    --------------------    -------------------
 RUN .                         ONE:    Run Number
 PDAT.                         UNK:    Permanent Datum
 EPD .M                 -9999.5000:    Elevation Of Perm. Datum
 WSTA.                         LOC:    
 TD  .M                  2300.0000:    Total Depth
#
~Other Information Block
<DescLogPlotStart>   NEURALOG PLOT DEFINITION
PLOTDEFVERSION: 3
LASFILE: C:\Users\wadet\Desktop\Alphabow Evaluation\well_info\second_white_spec
DEPTHSCALE: 240.000000
RESOLUTION: 200
DEPTHLABELFREQ: 50.000000
HEAVYGRIDFREQ: 50.000000
MEDIUMGRIDFREQ: 25.000000
LIGHTGRIDFREQ: 5.000000
#
#   TRACK 1
#
STARTTRACK: 
 LEFTX: 0.500000 inch
 RIGHTX: 3.000000 inch
 SCALETYPE: Linear
 NUMCHARTDIVISIONS: 9
CURVE: SP    -80.000000 20.000000  (0,0,255)      Solid             2     N    
ENDTRACK: 
#
#   TRACK 2
#
STARTTRACK: 
 LEFTX: 3.500000 inch
 RIGHTX: 8.500000 inch
 SCALETYPE: Linear
 NUMCHARTDIVISIONS: 34
CURVE: SFLU  2.000000   2000.000000 (0,131,131)    Solid             2     N   
CURVE: ILD   2.000000   2000.000000 (255,0,255)    Dot               2     N   
ENDTRACK: 
<DescLogPlotEnd>
~A DEPTH     SP               SFLU             ILD             
# ...
   2273.8500 -19.93920502     972.22168312     923.26349037    
   2274.0024 -19.72709762     970.50707063     926.83242483    
   2274.1548 -19.79949102     972.26649879     928.93970564    
   2274.3072 -19.85509584     975.89245059     929.54852532    
   2274.4596 -19.90994936     980.01971088     930.33397263    
   2274.6120 -19.94928900     990.21718764     930.79862944    
   2274.7644 -20.03342329     992.71121914     935.86707983    
   2274.9168 -19.99475635     994.91878744     938.76288918    
   2275.0692 -19.92760608     995.95969876     939.29866638    
   2275.2216 -19.90109076     995.12706088     939.29424170    
   2275.3740 -20.01748718     993.09874601     939.31670932    
   2275.5264 -20.12154246     992.76785355     939.33805897    
   2275.6788 -20.18880140     990.41968699     942.95334687    
   2275.8312 -20.35922105     983.23680527     945.30815707    
   2275.9836 -20.33436211     977.54593201     947.53578136    
   2276.1360 -20.16156273     974.15108788     948.72564738    
   2276.2884 -19.92875241     975.99627160     953.77096206    
   2276.4408 -19.55651144     977.66938621     962.88821023    
   2276.5932 -19.34803271     989.90413224     972.32784557    
   2276.7456 -19.09167138     1026.96222432    981.56627450    
   2276.8980 -18.66335690     1070.29202449    991.96892717    
   2277.0504 -18.98940715     1114.37290593    1003.09636421   
   2277.2028 -19.28690500     1133.53326015    997.00976411    
   2277.3552 -19.48877630     1095.60190698    990.18061790    
   2277.5076 -19.57479740     1067.88990442    975.64257126    
   2277.6600 -19.72593229     1043.90502216    959.25726249    
   2277.8124 -19.72481237     1015.02922653    951.90259667    
   2277.9648 -19.56296463     997.45732589     947.19909060    
   2278.1172 -19.37448512     994.78579536     942.41397766    
   2278.2696 -19.23379075     1004.42310426    938.91138398    
   2278.4220 -19.15755935     1015.85874929    935.41181562    
   2278.5744 -19.31164046     1017.29083961    931.95451374    
   2278.7268 -19.32578537     1018.55423513    928.87625276    
   2278.8792 -19.34424631     1018.59119936    929.00177281    
   2279.0316 -19.15876473     1016.75413572    929.03287871    
   2279.1840 -19.24365988     1010.42314880    928.48531672    
   2279.3364 -19.31807763     1007.01874570    925.38493378    
   2279.4888 -19.38564967     1006.33750313    924.14571430    
   2279.6412 -19.47654741     1017.17025349    922.89877697    
   2279.7936 -18.58236472     1023.30397530    931.03473233    
   2279.9460 -19.10498099     1027.31330896    933.47160721    
   2280.0984 -19.23080361     1026.14323601    938.60080474    
   2280.2508 -18.63784707     1023.30764627    944.38700893    
   2280.4032 -18.60731853     1018.09022238    945.45731130    
   2280.5556 -18.97387624     1007.26211113    944.43690746    
   2280.7080 -19.30648090     1005.30611936    943.25776899    
   2280.8604 -19.32407792     1004.88561878    942.06763174    
   2281.0128 -19.64300308     1013.27248258    940.88435915    
   2281.1652 -19.88207115     1017.19873625    939.70770554    
   2281.3176 -20.12795930     1019.00271966    938.43386047    
   2281.4700 -20.38311754     1018.11403146    936.97602461    
   2281.6224 -20.28254116     1008.94900123    940.08285353    
   2281.7748 -20.14491964     998.99486190     943.09964469    
   2281.9272 -19.71893029     992.41655080     941.87396279    
   2282.0796 -19.75822831     995.85389435     940.47467679    
   2282.2320 -19.79895617     1007.18252240    939.27794882    
   2282.3844 -19.83450921     1017.65060553    938.86000153    
   2282.5368 -19.86997841     1021.30364356    937.24368079    
   2282.6892 -19.90560064     1023.25779990    935.75247128    
   2282.8416 -19.93943632     1021.58378074    932.73535132    
   2282.9940 -19.97833956     1017.89233057    931.63051087    
   2283.1464 -20.13732207     1011.19967341    930.41846503    
   2283.2988 -20.18324575     1006.75510203    929.04735266    
   2283.4512 -20.31451131     1001.11947166    931.05619357    
   2283.6036 -20.53078821     996.44320055     931.01855239    
   2283.7560 -20.79773559     991.22396653     930.48828085    
   2283.9084 -20.94710096     980.63736334     929.82840027    
   2284.0608 -21.16271408     971.33311051     929.12494556    
   2284.2132 -21.43748501     965.30007270     929.39345486    
   2284.3656 -21.72130575     961.71020242     930.95798091    
   2284.5180 -21.68331844     967.20890498     931.00409007    
   2284.6704 -20.97149891     990.48390501     935.12586448    
   2284.8228 -21.09918542     1029.03337862    941.80023040    
   2284.9752 -21.05285997     1056.09712136    948.59964259    
   2285.1276 -21.59924524     1067.82771593    957.24655497    
   2285.2800 -21.69171800     1075.64427249    966.13150858    
   2285.4324 -21.08262328     1037.99294006    975.47612414    
   2285.5848 -20.97130007     1003.96081516    980.76711873    
   2285.7372 -20.84383252     990.55595438     973.11547327    
   2285.8896 -20.72414863     994.25764324     965.76862804    
   2286.0420 -20.75560464     1000.57686470    964.00966383    
   2286.1944 -20.75975901     1003.04827290    960.22429564    
   2286.3468 -20.75575043     1003.34159359    957.95355116    
   2286.4992 -20.79811125     1001.19230670    955.86430408    
   2286.6516 -20.96364756     1000.79832964    961.27491337    
   2286.8040 -21.01501111     1008.83768154    975.60363849    
   2286.9564 -19.10638262     1029.68708298    992.13462172    
   2287.1088 -21.19319703     1052.46029249    997.92226169    
   2287.2612 -20.81444719     1077.12446664    1002.62881663   
   2287.4136 -20.74319223     1083.71244018    1007.09292193   
   2287.5660 -20.75547632     1087.45369774    1013.32464742   
   2287.7184 -20.53386361     1081.63749210    1013.34803000   
   2287.8708 -20.55963437     1074.81210090    1015.68182628   
   2288.0232 -20.14934725     1065.12061083    1017.98089236   
   2288.1756 -19.76455960     1063.32129359    1020.22995938   
   2288.3280 -19.55490286     1075.15181680    1025.84468262   
   2288.4804 -19.41641948     1093.83380145    1028.12076541   
   2288.6328 -19.26632535     1117.15529420    1030.03327254   
   2288.7852 -18.92116220     1126.49490175    1032.15000494   
   2288.9376 -19.24069318     1130.79678207    1034.18877027   
   2289.0900 -19.36044582     1128.43184300    1036.23321638   
   2289.2424 -19.38780035     1122.26348051    1037.95147594   
   2289.3948 -19.41599806     1110.56345084    1031.59780527   
   2289.5472 -19.44836555     1097.08427404    1024.46344293   
   2289.6996 -19.47928056     1089.53396447    1019.41118899   
   2289.8520 -19.51173460     1085.24317878    1018.28095289   
   2290.0044 -19.34980442     1071.88060288    1015.91210474   
   2290.1568 -19.02679077     1050.45528982    1013.45826831   
   2290.3092 -18.79319732     1029.36646212    1013.34674653   
   2290.4616 -19.13212175     1013.45809849    1013.38152951   
   2290.6140 -19.35521193     1017.25316639    1012.95992477   
   2290.7664 -19.52503137     1024.17141923    1011.92173771   
   2290.9188 -19.48968453     1023.80303224    1014.56408880   
   2291.0712 -19.43429875     1032.63682503    1017.53809141   
   2291.2236 -19.52865260     1035.24047683    1021.10592751   
   2291.3760 -19.75971891     1028.60192029    1019.69854298   
   2291.5284 -19.74633969     1022.25131035    1009.63889652   
   2291.6808 -19.58678980     1031.84771899    1000.75064677   
   2291.8332 -19.52836580     1013.20843210    997.19118499    
   2291.9856 -19.48878906     1004.62904309    992.56137874    
   2292.1380 -19.31764239     996.56148662     987.71063634    
   2292.2904 -19.31894824     990.12115934     986.66513791    
   2292.4428 -19.30085077     980.15358369     981.15872232    
   2292.5952 -19.53138220     973.55732737     973.87439719    
   2292.7476 -19.54473321     969.99187052     971.09280875    
