~Version Information Block
 VERS.                2.00:     CWLS LOG ASCII STANDARD - VERSION 2.000000
 WRAP.                  NO:     One Line Per Depth Step
#
~Well Information Block
#MNEM.UNIT                     Data                         Information
#----------   ------------------------------------------   ----------------
 STRT.M                                      2015.0000:     START DEPTH
 STOP.M                                      2349.9752:     STOP DEPTH
 STEP.M                                         0.1524:     STEP
 NULL.                                       -999.2500:     NULL VALUE
 COMP.                                        Alphabow:     COMPANY
 WELL.                   SOC PINE CK 4-15-56-19 #92507:     WELL
 FLD .                                      Pine Creek:     FIELD
 LOC .                           100/04-15-056-19W5/00:     LOCATION
 CNTY.                                                :     COUNTY
 STAT.                                         Alberta:     STATE
 CTRY.                                          Canada:     COUNTRY
 SRVC.                                                :     SERVICE COMPANY
 DATE.                                      03/27/2025:     DATE
 API .                                100041505619W500:     API NUMBER
 UWI .                                100041505619W500:     UWI NUMBER
 TVD .                                              NO:     TVD flag
 WSTA.                                             LOC:     Well status
#
~Curve Information Block
#MNEM.UNIT       API CODE      Curve Description
#----------    -------------   -------------------
 DEPT.M                    :   Depth in Meters
 CALI.mm       70 280 01 01:   Caliper
 GR  .GAPI     35 310 01 01:   Gamma Ray
 RHOB.kg/m3     42 350 01 01:   Bulk Density
#
~Parameter Information Block
#MNEM.UNIT            Value               Description
#----------    --------------------    -------------------
 RUN .                         ONE:    Run Number
 PDAT.                         UNK:    Permanent Datum
 EPD .M                 -9999.5000:    Elevation Of Perm. Datum
 TD  .M                  2350.0000:    Total Depth
 WSTA.                         LOC:    
 LATB.M                     0.0000:    
 LONB.M                     0.0000:    
#
~Other Information Block
<DescLogPlotStart>   NEURALOG PLOT DEFINITION
PLOTDEFVERSION: 3
LASFILE: C:\Users\wadet\Desktop\Alphabow Evaluation\well_info\second_white_spec
DEPTHSCALE: 600.000000
RESOLUTION: 200
DEPTHLABELFREQ: 100.000000
HEAVYGRIDFREQ: 50.000000
MEDIUMGRIDFREQ: 25.000000
LIGHTGRIDFREQ: 25.000000
#
#   TRACK 1
#
STARTTRACK: 
 LEFTX: 0.500000 inch
 RIGHTX: 3.000000 inch
 SCALETYPE: Linear
 NUMCHARTDIVISIONS: 9
CURVE: CALI  125.000000 375.000000 (0,0,255)      Solid             2     N    
CURVE: GR    0.000000   150.000000 (0,131,131)    Dot               2     Y    
BACKUP: 150.000000 300.000000 (0,131,131)    Dot               2    
ENDTRACK: 
#
#   TRACK 2
#
STARTTRACK: 
 LEFTX: 3.500000 inch
 RIGHTX: 8.500000 inch
 SCALETYPE: Linear
 NUMCHARTDIVISIONS: 17
CURVE: RHOB  2000.000000 3000.000000 (255,0,255)    Solid             2     N  
ENDTRACK: 
<DescLogPlotEnd>
~A DEPTH     CALI             GR               RHOB            
# ...
   2148.3500 248.02091347     117.32191872     2600.68820365   
   2148.5024 251.18699363     116.02687131     2560.21313575   
   2148.6548 254.35365389     112.99177525     2485.06722314   
   2148.8072 257.52988093     111.69062789     2469.60775159   
   2148.9596 260.04252090     109.59419675     2331.23700982   
   2149.1120 259.00864193     107.35993600     2398.57633310   
   2149.2644 258.12180318     105.57537135     2699.33669983   
   2149.4168 257.26775455     103.95824916     2699.97766821   
   2149.5692 256.38076113     104.02949585     2677.39888545   
   2149.7216 255.52454705     107.05411710     2656.26105263   
   2149.8740 254.64183138     109.08898933     2634.15892673   
   2150.0264 253.77955348     109.90735037     2613.50884669   
   2150.1788 252.82709280     110.85137845     2591.87169499   
   2150.3312 252.90064652     111.67795880     2568.11145511   
   2150.4836 252.97737798     112.62237962     2562.95149639   
   2150.6360 253.05159525     113.55821593     2549.53560372   
   2150.7884 253.13288945     111.75455071     2540.24767802   
   2150.9408 253.20405899     109.22586036     2546.43962848   
   2151.0932 253.28682147     107.42067840     2553.66357069   
   2151.2456 253.35807498     107.98395622     2588.75128999   
   2151.3980 253.43822293     109.89648376     2589.78328173   
   2151.5504 253.50650247     111.38074461     2585.65531476   
   2151.7028 253.58440982     113.92300727     2580.49535604   
   2151.8552 253.65498060     115.70644598     2574.30340557   
   2152.0076 253.73091486     116.40550699     2574.30340557   
   2152.1600 253.80305180     115.39598532     2562.95149639   
   2152.3124 253.87277602     113.00796364     2556.75954592   
   2152.4648 253.94706630     110.75073562     2545.40763674   
   2152.6172 254.01415168     107.44193542     2538.18369453   
   2152.7696 254.09382505     108.27456648     2530.95975232   
   2152.9220 254.15564546     108.99123139     2531.99174407   
   2153.0744 254.24191244     110.13336497     2549.53560372   
   2153.2268 254.30376694     111.46148895     2563.98348813   
   2153.3792 254.40648815     112.29927360     2576.36738906   
   2153.5316 254.46129943     112.69348999     2577.39938080   
   2153.6840 254.56760547     112.61931072     2538.18369453   
   2153.8364 254.60555512     112.99974766     2514.44788442   
   2153.9888 254.71915960     114.18069342     2475.23219814   
   2154.1412 254.74870414     114.85505240     2458.72033024   
   2154.2936 254.87160627     115.74086701     2455.47026746   
   2154.4460 254.88006248     115.46514944     2448.62439889   
   2154.5984 251.74899556     114.50663348     2412.07189990   
   2154.7508 248.91143586     113.90469829     2364.97275645   
   2154.9032 246.20704681     113.57757552     2399.87783847   
   2155.0556 243.36075546     113.58145828     2432.21196353   
   2155.2080 240.66384072     113.58287882     2537.35230990   
   2155.3604 237.81166958     113.57662492     2533.34145536   
   2155.5128 240.06935557     113.58566329     2508.99111672   
   2155.6652 248.10988809     113.26773379     2472.46246279   
   2155.8176 256.31133479     114.82568461     2446.06595352   
   2155.9700 261.87904678     116.98491594     2435.27345218   
   2156.1224 261.21643982     117.60391016     2441.93800822   
   2156.2748 260.40672275     120.39266359     2449.64739245   
   2156.4272 259.73572687     122.23739197     2450.26299089   
   2156.5796 258.93581480     123.49707745     2440.14447884   
   2156.7320 258.25412067     122.53919148     2427.76057792   
   2156.8844 257.46567733     120.41512017     2409.18472652   
   2157.0368 256.76690532     119.43488255     2408.15273478   
   2157.1892 255.99200415     116.40114452     2411.24871001   
   2157.3416 255.28159720     114.78486875     2442.20846233   
   2157.4940 254.52123311     113.93313300     2469.04024768   
   2157.6464 253.79913607     112.92704626     2522.70381837   
   2157.7988 253.04911648     111.45911639     2542.31166151   
   2157.9512 252.32680394     111.69026853     2509.24689370   
   2158.1036 251.59106341     112.38211079     2451.28299278   
   2158.2560 250.86524831     113.24583429     2393.31909185   
   2158.4084 250.12688872     111.44517674     2335.35519092   
   2158.5608 249.39087479     109.54525506     2288.44169247   
   2158.7132 248.65269482     108.34720426     2405.05675955   
   2158.8656 247.91641925     108.01457092     2470.07223942   
   2159.0180 247.26743713     108.96179584     2523.73581011   
   2159.1704 246.65869588     110.49653005     2539.21568627   
   2159.3228 246.04828283     111.73794284     2540.24767802   
   2159.4752 245.43956764     111.73112972     2553.66357069   
   2159.6276 245.86190576     112.04226906     2572.23942208   
   2159.7800 247.46585647     112.64927414     2605.26315789   
   2159.9324 249.06741628     114.83445075     2603.11825373   
   2160.0848 250.67178071     114.61031872     2581.47952440   
   2160.2372 252.27286308     114.40910382     2554.69556244   
   2160.3896 253.87774392     114.17808733     2573.27141383   
   2160.5420 255.47829921     113.00240749     2523.73581011   
   2160.6944 256.83764151     112.00222223     2502.06398349   
   2160.8468 258.09202061     111.77423279     2475.23219814   
   2160.9992 259.35207177     115.08834002     2485.55211558   
   2161.1516 260.60617198     116.11186286     2498.96800826   
   2161.3040 261.19443883     118.79958346     2523.49630434   
   2161.4564 261.34823649     119.20832355     2545.65732350   
   2161.6088 261.50443005     117.87290076     2544.15152565   
   2161.7612 261.65965377     116.72821516     2515.71022456   
   2161.9136 261.81383520     114.47127547     2489.49655730   
   2162.0660 261.97402997     113.00610495     2490.93577160   
   2162.2184 262.12519848     113.54721089     2546.26922846   
   2162.3708 262.29088251     116.09188743     2581.69983231   
   2162.5232 262.43575202     118.81056755     2591.67327496   
   2162.6756 262.60817519     118.86940551     2572.40250229   
   2162.8280 262.74614973     118.19315696     2546.32947539   
   2162.9804 262.92532143     118.24567060     2530.08458120   
   2163.1328 263.05658097     120.04914746     2562.84838871   
   2163.2852 263.24114610     121.65405444     2578.53426093   
   2163.4376 263.37188701     122.53026276     2603.11223246   
   2163.5900 263.55928313     123.82871217     2609.45735943   
   2163.7424 263.65613028     123.46168384     2599.02655637   
   2163.8948 261.52583933     121.97759123     2587.68397769   
   2164.0472 259.71394168     120.36561873     2561.92698036   
   2164.1996 257.94596434     117.96099242     2543.25396294   
   2164.3520 256.14308864     116.64994659     2535.16917943   
   2164.5044 254.26268964     113.63441928     2544.19672592   
   2164.6568 252.30015406     110.76888193     2554.88786096   
   2164.8092 250.33733228     108.69032420     2567.82895194   
   2164.9616 248.38738108     107.19995045     2601.23514099   
   2165.1140 246.41254506     106.37377322     2664.04050462   
   2165.2664 244.47346682     105.36527745     2699.51782327   
   2165.4188 242.48940535     105.90807595     2698.63739941   
   2165.5712 240.48388357     108.29416915     2699.61425918   
   2165.7236 241.09550264     109.92919039     2698.58042430   
   2165.8760 241.79135083     112.94041897     2699.66958212   
   2166.0284 242.42821630     113.94787333     2697.93585145   
   2166.1808 243.12131413     115.42521916     2476.40961660   
   2166.3332 243.75921802     117.65394194     2470.00793163   
   2166.4856 244.44727654     120.69653308     2467.67245579   
   2166.6380 245.09174277     123.82983976     2461.08718597   
   2166.7904 245.77399661     126.27473735     2458.54721231   
   2166.9428 246.42492283     127.21300607     2452.26031371   
   2167.0952 247.10089491     126.58719510     2449.39700912   
   2167.2476 247.75680216     125.64352887     2443.48228805   
