~Version Information Block
 VERS.                2.00:     CWLS LOG ASCII STANDARD - VERSION 2.000000
 WRAP.                  NO:     One Line Per Depth Step
#
~Well Information Block
#MNEM.UNIT                     Data                         Information
#----------   ------------------------------------------   ----------------
 STRT.M                                      1950.0000:     START DEPTH
 STOP.M                                      2299.9104:     STOP DEPTH
 STEP.M                                         0.1524:     STEP
 NULL.                                       -999.2500:     NULL VALUE
 COMP.                                        Alphabow:     COMPANY
 WELL.                   SOC PINE CK 4-15-56-19 #92507:     WELL
 FLD .                                                :     FIELD
 LOC .                                                :     LOCATION
 CNTY.                                                :     COUNTY
 STAT.                                                :     STATE
 CTRY.                                                :     COUNTRY
 SRVC.                                                :     SERVICE COMPANY
 DATE.                                      03/29/2025:     DATE
 API .                                100041505619W500:     API NUMBER
 UWI .                                100041505619W500:     UWI NUMBER
 TVD .                                              NO:     TVD flag
 WSTA.                                             LOC:     Well status
#
~Curve Information Block
#MNEM.UNIT       API CODE      Curve Description
#----------    -------------   -------------------
 DEPT.M                    :   Depth in Meters
 SP  .MV       01 010 01 01:   Spontaneous Potential
 SFLU.OHMM     10 220 01 01:   SFL Resistivity (Unaveraged)
 ILD .OHMM     05 120 46 01:   Deep Induction Standard Processed Resistivity
#
~Parameter Information Block
#MNEM.UNIT            Value               Description
#----------    --------------------    -------------------
 RUN .                         ONE:    Run Number
 PDAT.                         UNK:    Permanent Datum
 EPD .M                 -9999.5000:    Elevation Of Perm. Datum
 WSTA.                         LOC:    
 TD  .M                  2300.0000:    Total Depth
#
~Other Information Block
<DescLogPlotStart>   NEURALOG PLOT DEFINITION
PLOTDEFVERSION: 3
LASFILE: C:\Users\wadet\Desktop\Alphabow Evaluation\well_info\second_white_spec
DEPTHSCALE: 240.000000
RESOLUTION: 200
DEPTHLABELFREQ: 50.000000
HEAVYGRIDFREQ: 50.000000
MEDIUMGRIDFREQ: 25.000000
LIGHTGRIDFREQ: 5.000000
#
#   TRACK 1
#
STARTTRACK: 
 LEFTX: 0.500000 inch
 RIGHTX: 3.000000 inch
 SCALETYPE: Linear
 NUMCHARTDIVISIONS: 9
CURVE: SP    -80.000000 20.000000  (0,0,255)      Solid             2     N    
ENDTRACK: 
#
#   TRACK 2
#
STARTTRACK: 
 LEFTX: 3.500000 inch
 RIGHTX: 8.500000 inch
 SCALETYPE: Linear
 NUMCHARTDIVISIONS: 34
CURVE: SFLU  2.000000   2000.000000 (0,131,131)    Solid             2     N   
CURVE: ILD   2.000000   2000.000000 (255,0,255)    Dot               2     N   
ENDTRACK: 
<DescLogPlotEnd>
~A DEPTH     SP               SFLU             ILD             
# ...
   2083.3500 -19.28654357     892.41838468     863.14863982    
   2083.5024 -19.19391370     887.13572460     863.09903036    
   2083.6548 -19.10127527     886.29047137     861.17979506    
   2083.8072 -19.00865363     889.66033018     854.33358908    
   2083.9596 -18.91603199     895.60658330     855.31990683    
   2084.1120 -18.82341035     898.45670434     857.23498346    
   2084.2644 -18.73078871     897.92121916     859.71065888    
   2084.4168 -18.63816707     895.62818237     862.09535679    
   2084.5692 -18.54554543     892.01425442     864.28867718    
   2084.7216 -18.45292379     892.09474537     867.91935840    
   2084.8740 -18.36029377     893.60810273     870.72414603    
   2085.0264 -18.26763967     895.69218794     873.48130450    
   2085.1788 -18.17515369     900.04031229     875.72467274    
   2085.3312 -18.09005540     906.58710092     875.06728516    
   2085.4836 -18.05675418     913.84614398     872.15148847    
   2085.6360 -18.02588402     916.14411153     866.62210490    
   2085.7884 -17.99495621     913.08614725     865.36784717    
   2085.9408 -17.96403251     902.30209308     861.43175333    
   2086.0932 -17.93311365     888.14981485     855.29930307    
   2086.2456 -17.90219479     875.21455493     856.51571375    
   2086.3980 -17.87127593     867.20365035     856.88642911    
   2086.5504 -17.84035707     869.48368842     860.76444577    
   2086.7028 -17.80943821     875.42900823     865.66208297    
   2086.8552 -17.77851935     887.16604539     871.17378004    
   2087.0076 -17.74760049     899.59582848     873.14190655    
   2087.1600 -17.71668163     911.28545091     876.56076015    
   2087.3124 -17.68576277     918.06320908     883.91952910    
   2087.4648 -17.65484391     924.84462029     885.73711575    
   2087.6172 -17.62392505     930.14365677     885.76448973    
   2087.7696 -17.59300618     929.30392739     888.42047538    
   2087.9220 -17.56208732     929.58096822     892.06832473    
   2088.0744 -17.53116846     928.85778703     892.13120651    
   2088.2268 -17.50024960     925.02070915     884.48580313    
   2088.3792 -17.46933074     924.75092647     875.71699835    
   2088.5316 -17.43841188     924.91678856     866.77290442    
   2088.6840 -17.40749302     922.76551518     865.63086104    
   2088.8364 -17.37657416     918.62342338     867.12752664    
   2088.9888 -17.34565530     916.18157194     866.61383807    
   2089.1412 -17.31473644     915.04446152     863.68467737    
   2089.2936 -17.28381758     918.18264515     863.06456348    
   2089.4460 -17.25289872     918.76655590     865.63965339    
   2089.5984 -17.22197986     918.92333135     869.20883269    
   2089.7508 -17.19106100     916.64407303     869.23337582    
   2089.9032 -17.16027345     916.68094871     865.64802950    
   2090.0556 -17.12740768     912.27081301     861.71653932    
   2090.2080 -17.09459292     906.78762698     865.54756055    
   2090.3604 -17.10807130     901.89247301     866.21057862    
   2090.5128 -17.24841010     921.11468406     876.11440389    
   2090.6652 -17.09894637     928.51252830     868.53632228    
   2090.8176 -17.10087232     933.37889900     874.00217566    
   2090.9700 -17.32018520     938.24741904     891.27785844    
   2091.1224 -17.65702388     941.90155442     894.84821449    
   2091.2748 -17.84879696     941.88346188     900.36606209    
   2091.4272 -18.11310064     940.86204638     904.26160990    
   2091.5796 -18.09746032     937.77623339     906.17659444    
   2091.7320 -17.86729830     936.99520426     905.54066706    
   2091.8844 -17.84252908     932.74681786     905.05230542    
   2092.0368 -17.69036335     928.83019225     904.66189900    
   2092.1892 -17.67018403     926.90843866     906.04752124    
   2092.3416 -17.51561375     926.96619915     910.31395474    
   2092.4940 -17.47444800     927.19538764     910.13491305    
   2092.6464 -17.43197053     924.60136184     904.76984337    
   2092.7988 -17.27661677     919.42932414     900.65184056    
   2092.9512 -17.28190417     916.51860621     898.05249652    
   2093.1036 -17.66881680     914.68793507     894.37751469    
   2093.2560 -17.68558187     912.38308318     888.09410744    
   2093.4084 -18.04405141     913.99454352     883.18900749    
   2093.5608 -18.50484320     918.07688493     881.77652252    
   2093.7132 -19.35125716     920.96289888     879.45604240    
   2093.8656 -19.63838638     924.64996293     877.12537791    
   2094.0180 -20.31387780     922.08922279     877.52053556    
   2094.1704 -20.54863620     913.89375434     882.10877382    
   2094.3228 -20.81198007     893.73104437     888.76275394    
   2094.4752 -20.96361958     903.47042181     893.76138602    
   2094.6276 -21.99330787     919.21853781     899.95811332    
   2094.7800 -22.76158917     962.07080133     910.56610602    
   2094.9324 -23.24945465     982.83675522     925.05913525    
   2095.0848 -23.82445350     984.31251296     943.57167065    
   2095.2372 -24.22621993     990.78108659     960.40112681    
   2095.3896 -24.30509801     1009.43162719    992.33480024    
   2095.5420 -24.06256288     1033.39642411    1019.13394805   
   2095.6944 -24.23255985     1052.16616046    1050.88469029   
   2095.8468 -24.25327717     1075.12863736    1074.95787890   
   2095.9992 -24.01599890     1089.96231609    1081.11123158   
   2096.1516 -23.86994045     1074.45076018    1074.36180181   
   2096.3040 -23.67631223     1065.74445927    1068.11889686   
   2096.4564 -23.26266955     1052.40953019    1062.33216547   
   2096.6088 -23.21125309     1052.54480666    1053.97575842   
   2096.7612 -23.58991570     1073.00122361    1049.99221125   
   2096.9136 -23.61212570     1087.72153388    1040.06336632   
   2097.0660 -23.13979097     1088.78501409    1036.55395517   
   2097.2184 -22.65069233     1054.77716339    1032.91722852   
   2097.3708 -22.37925133     1071.12013798    1029.21218886   
   2097.5232 -22.40232242     1109.83746659    1025.61234555   
   2097.6756 -22.42421774     1148.45686485    1022.14762218   
   2097.8280 -22.15408659     1126.81485353    1014.91231980   
   2097.9804 -21.47982426     1109.14537843    1008.49453224   
   2098.1328 -20.78117592     1099.82081340    1002.65141942   
   2098.2852 -20.51061446     1090.80622570    1005.21105358   
   2098.4376 -19.95242097     1081.81110091    1000.96308037   
   2098.5900 -19.50202314     1072.79308826    996.74402676    
   2098.7424 -19.53577050     1063.77756058    996.92076200    
   2098.8948 -19.67130280     1054.75169011    994.77459482    
   2099.0472 -20.18973544     1045.69436860    991.28363720    
   2099.1996 -20.54265820     1036.06518016    987.84846238    
   2099.3520 -20.34024032     1026.78431715    982.21719577    
   2099.5044 -20.50401567     995.42755526     982.14085013    
   2099.6568 -20.77972135     997.77745351     982.53310642    
   2099.8092 -21.01141631     997.25858848     982.47456177    
   2099.9616 -21.02796197     994.17373001     982.14782883    
   2100.1140 -21.57156434     987.76850523     990.53532108    
   2100.2664 -22.14422421     988.15272394     990.70628283    
   2100.4188 -22.56842997     996.07380025     990.72931047    
   2100.5712 -22.60063857     988.11644748     990.71994249    
   2100.7236 -22.44419714     990.77794207     990.42964608    
   2100.8760 -22.39457994     996.67123713     985.74134534    
   2101.0284 -22.50373542     999.94845212     984.14608750    
   2101.1808 -22.38567300     1021.34606665    983.69022438    
   2101.3332 -22.41988428     1026.27068614    983.22039695    
   2101.4856 -22.15425396     1026.16836450    982.68674761    
   2101.6380 -21.77960194     1023.43353646    982.15695683    
   2101.7904 -21.56160994     1022.40852742    981.63063787    
   2101.9428 -21.60775787     1023.43305080    981.09748574    
   2102.0952 -21.71831191     1019.82798231    980.50713405    
   2102.2476 -21.09523201     1015.98148041    982.33020176    
