~Version Information Block
 VERS.                2.00:     CWLS LOG ASCII STANDARD - VERSION 2.000000
 WRAP.                  NO:     One Line Per Depth Step
#
~Well Information Block
#MNEM.UNIT                     Data                         Information
#----------   ------------------------------------------   ----------------
 STRT.M                                      2015.0000:     START DEPTH
 STOP.M                                      2349.9752:     STOP DEPTH
 STEP.M                                         0.1524:     STEP
 NULL.                                       -999.2500:     NULL VALUE
 COMP.                                        Alphabow:     COMPANY
 WELL.                   SOC PINE CK 4-15-56-19 #92507:     WELL
 FLD .                                      Pine Creek:     FIELD
 LOC .                           100/04-15-056-19W5/00:     LOCATION
 CNTY.                                                :     COUNTY
 STAT.                                         Alberta:     STATE
 CTRY.                                          Canada:     COUNTRY
 SRVC.                                                :     SERVICE COMPANY
 DATE.                                      03/27/2025:     DATE
 API .                                100041505619W500:     API NUMBER
 UWI .                                100041505619W500:     UWI NUMBER
 TVD .                                              NO:     TVD flag
 WSTA.                                             LOC:     Well status
#
~Curve Information Block
#MNEM.UNIT       API CODE      Curve Description
#----------    -------------   -------------------
 DEPT.M                    :   Depth in Meters
 CALI.mm       70 280 01 01:   Caliper
 GR  .GAPI     35 310 01 01:   Gamma Ray
 RHOB.kg/m3     42 350 01 01:   Bulk Density
#
~Parameter Information Block
#MNEM.UNIT            Value               Description
#----------    --------------------    -------------------
 RUN .                         ONE:    Run Number
 PDAT.                         UNK:    Permanent Datum
 EPD .M                 -9999.5000:    Elevation Of Perm. Datum
 TD  .M                  2350.0000:    Total Depth
 WSTA.                         LOC:    
 LATB.M                     0.0000:    
 LONB.M                     0.0000:    
#
~Other Information Block
<DescLogPlotStart>   NEURALOG PLOT DEFINITION
PLOTDEFVERSION: 3
LASFILE: C:\Users\wadet\Desktop\Alphabow Evaluation\well_info\second_white_spec
DEPTHSCALE: 600.000000
RESOLUTION: 200
DEPTHLABELFREQ: 100.000000
HEAVYGRIDFREQ: 50.000000
MEDIUMGRIDFREQ: 25.000000
LIGHTGRIDFREQ: 25.000000
#
#   TRACK 1
#
STARTTRACK: 
 LEFTX: 0.500000 inch
 RIGHTX: 3.000000 inch
 SCALETYPE: Linear
 NUMCHARTDIVISIONS: 9
CURVE: CALI  125.000000 375.000000 (0,0,255)      Solid             2     N    
CURVE: GR    0.000000   150.000000 (0,131,131)    Dot               2     Y    
BACKUP: 150.000000 300.000000 (0,131,131)    Dot               2    
ENDTRACK: 
#
#   TRACK 2
#
STARTTRACK: 
 LEFTX: 3.500000 inch
 RIGHTX: 8.500000 inch
 SCALETYPE: Linear
 NUMCHARTDIVISIONS: 17
CURVE: RHOB  2000.000000 3000.000000 (255,0,255)    Solid             2     N  
ENDTRACK: 
<DescLogPlotEnd>
~A DEPTH     CALI             GR               RHOB            
# ...
   2281.7000 230.02226016     134.67973783     2579.83886878   
   2281.8524 230.01946505     134.63032330     2587.40533232   
   2282.0048 230.01666994     133.45126497     2592.12532121   
   2282.1572 230.01387484     132.15358721     2592.42870954   
   2282.3096 230.01107973     131.28999620     2588.13512958   
   2282.4620 230.00828462     132.77051752     2586.06722418   
   2282.6144 230.00548951     133.14697846     2583.13329633   
   2282.7668 230.00269440     133.69763310     2582.84590075   
   2282.9192 229.99989929     131.90442384     2578.12944150   
   2283.0716 229.99710418     131.22153082     2571.41124167   
   2283.2240 229.99430908     133.13912465     2565.85663104   
   2283.3764 229.99151397     134.93995115     2567.20709199   
   2283.5288 229.98871886     137.15613251     2578.24542160   
   2283.6812 229.98592375     137.72781420     2587.79548732   
   2283.8336 229.98312864     137.46026438     2592.76914531   
   2283.9860 229.98033353     136.80278133     2591.92427455   
   2284.1384 229.97753843     134.04875931     2592.77026745   
   2284.2908 229.97474332     132.78262650     2596.04991178   
   2284.4432 229.97194821     132.49793968     2595.86048330   
   2284.5956 229.96915310     132.17123712     2589.86341952   
   2284.7480 229.96635799     132.19111855     2579.37179131   
   2284.9004 229.96356288     132.18231482     2574.40001263   
   2285.0528 229.96076778     131.72265984     2582.53190164   
   2285.2052 229.95797267     130.94208586     2593.01766371   
   2285.3576 229.95517756     130.32654094     2604.10047655   
   2285.5100 229.95238245     130.63696600     2604.27871449   
   2285.6624 229.94958734     130.94360846     2593.79603928   
   2285.8148 229.94679223     130.63992573     2584.71288842   
   2285.9672 229.94399713     130.63563077     2581.44890875   
   2286.1196 229.94120202     130.32770160     2584.72521429   
   2286.2720 229.93840691     129.39676537     2586.61043793   
   2286.4244 229.93561180     126.92019783     2583.69241321   
   2286.5768 229.93281669     125.99351767     2579.41027282   
   2286.7292 229.93002158     127.53923847     2572.40864902   
   2286.8816 229.92722647     131.26092699     2572.20532382   
   2287.0340 229.92443137     136.20500962     2572.39105874   
   2287.1864 229.92163626     139.62045830     2572.15525985   
   2287.3388 229.91884115     142.08370460     2572.39704015   
   2287.4912 229.91604604     141.16565891     2575.21343849   
   2287.6436 229.91325093     138.98652179     2579.65443274   
   2287.7960 229.91045582     137.44674749     2582.39460543   
   2287.9484 229.90766072     135.58129072     2588.96002347   
   2288.1008 229.90486561     134.96590197     2593.67409886   
   2288.2532 229.90207050     134.03631469     2595.16555495   
   2288.4056 229.89927539     131.86791013     2593.64296579   
   2288.5580 229.89648028     130.63900783     2594.15341344   
   2288.7104 229.89368517     130.31881550     2595.69195269   
   2288.8628 229.89089007     131.87716151     2599.29363128   
   2289.0152 229.88809496     134.96011466     2633.82429664   
   2289.1676 229.88529985     138.06958234     2638.41956039   
   2289.3200 229.88250474     140.84730978     2626.66017553   
   2289.4724 229.87970963     142.40903213     2616.74559642   
   2289.6248 229.87691452     143.02339650     2607.13187922   
   2289.7772 229.87411941     141.48400636     2600.18216346   
   2289.9296 229.87132431     140.50626632     2592.75737283   
   2290.0820 229.86852920     138.16596721     2588.93407094   
   2290.2344 229.86573409     135.28659263     2582.52442021   
   2290.3868 229.86293898     134.04280989     2582.56466870   
   2290.5392 229.86014387     132.80548716     2584.65647523   
   2290.6916 229.85734876     133.73214167     2584.57984516   
   2290.8440 229.85455366     135.28021246     2581.58585945   
   2290.9964 229.85175855     137.76246084     2577.32437780   
   2291.1488 229.84896344     139.61170409     2574.38864043   
   2291.3012 229.84616833     139.94046899     2574.22167551   
   2291.4536 229.84337322     139.91541865     2578.58118898   
   2291.6060 229.84057811     140.57415793     2586.58389557   
   2291.7584 229.83778301     141.76612845     2594.03379156   
   2291.9108 229.83498790     143.68197595     2590.66251097   
   2292.0632 229.83219279     146.08638509     2578.57265337   
   2292.2156 229.82939768     147.70958444     2569.00177809   
   2292.3680 229.82660257     149.17060828     2561.05699244   
   2292.5204 229.82380746     146.47594524     2565.88880633   
   2292.6728 229.82101236     142.35832681     2574.43825061   
   2292.8252 229.81821725     138.74871946     2583.40746542   
   2292.9776 229.81542214     138.62785592     2580.61389623   
   2293.1300 229.81262703     141.21788099     2571.06807209   
   2293.2824 229.80983192     145.07388177     2562.06341269   
   2293.4348 229.80703681     147.74239312     2556.69397171   
   2293.5872 229.80424170     148.53443303     2554.83940143   
   2293.7396 229.80144660     148.34639470     2558.83525710   
   2293.8920 229.79865149     148.20529325     2563.07944832   
   2294.0444 229.79585638     148.69507289     2560.91347378   
   2294.1968 229.79306127     148.79309765     2553.77566516   
   2294.3492 229.79026616     147.19004527     2549.56148226   
   2294.5016 229.78747105     145.66099816     2551.67646040   
   2294.6540 229.78467595     145.37132168     2552.63985708   
   2294.8064 229.78188084     146.24326620     2546.51246245   
   2294.9588 229.77908573     149.20558445     2542.32389507   
   2295.1112 229.77629062     154.26290337     2541.42323255   
   2295.2636 229.77349551     145.72363089     2540.25741992   
   2295.4160 229.77070040     137.75966675     2548.60485363   
   2295.5684 229.76790530     107.02124749     2561.86022906   
   2295.7208 229.76511019     111.21998136     2584.66591324   
   2295.8732 229.76231508     110.10779636     2616.46069297   
   2296.0256 229.75951997     115.27078793     2646.49915278   
   2296.1780 229.75672486     124.63568277     2656.66283027   
   2296.3304 229.75392975     133.57728401     2641.33776511   
   2296.4828 229.75113464     137.60103506     2630.91117423   
   2296.6352 229.74833954     142.28805661     2609.37214790   
   2296.7876 229.74554443     145.60785443     2601.05672988   
   2296.9400 229.74274932     144.18582733     2600.09299584   
   2297.0924 229.73995421     142.16305003     2593.87722073   
   2297.2448 229.73715910     138.33731358     2591.82078445   
   2297.3972 229.73436399     134.70908269     2587.70591175   
   2297.5496 229.73156889     133.39443833     2590.77895582   
   2297.7020 229.72877378     134.98393061     2583.58153116   
   2297.8544 229.72597867     139.59637457     2576.35360043   
   2298.0068 229.72318356     144.57015288     2568.12603377   
   2298.1592 229.72038845     147.64673179     2562.99203413   
   2298.3116 229.71759334     150.14962120     2561.96876671   
   2298.4640 229.71479824     153.17996108     2559.97317307   
   2298.6164 229.71200313     153.72426454     2558.86618553   
   2298.7688 229.70920802     149.83143300     2557.91558578   
   2298.9212 229.70641291     147.67730296     2569.13456764   
   2299.0736 229.70361780     145.80303198     2579.56853742   
   2299.2260 229.70082269     144.87759793     2592.84756384   
   2299.3784 229.69802759     146.11362352     2601.25626529   
   2299.5308 229.69523248     146.11277736     2601.10423377   
   2299.6832 229.69243737     152.71495369     2602.27737295   
   2299.8356 229.68964226     135.42433574     2604.17321923   
   2299.9880 229.68684715     113.91912821     2598.07154934   
   2300.1404 229.68405204     128.96589258     2591.88479308   
   2300.2928 229.68125693     140.58137295     2586.72849357   
   2300.4452 229.67846183     134.92720599     2579.39011331   
   2300.5976 229.67566672     135.33377760     2582.57514883   
