~Version Information Block
 VERS.                2.00:     CWLS LOG ASCII STANDARD - VERSION 2.000000
 WRAP.                  NO:     One Line Per Depth Step
#
~Well Information Block
#MNEM.UNIT                     Data                         Information
#----------   ------------------------------------------   ----------------
 STRT.M                                      2015.0000:     START DEPTH
 STOP.M                                      2349.9752:     STOP DEPTH
 STEP.M                                         0.1524:     STEP
 NULL.                                       -999.2500:     NULL VALUE
 COMP.                                        Alphabow:     COMPANY
 WELL.                   SOC PINE CK 4-15-56-19 #92507:     WELL
 FLD .                                      Pine Creek:     FIELD
 LOC .                           100/04-15-056-19W5/00:     LOCATION
 CNTY.                                                :     COUNTY
 STAT.                                         Alberta:     STATE
 CTRY.                                          Canada:     COUNTRY
 SRVC.                                                :     SERVICE COMPANY
 DATE.                                      03/27/2025:     DATE
 API .                                100041505619W500:     API NUMBER
 UWI .                                100041505619W500:     UWI NUMBER
 TVD .                                              NO:     TVD flag
 WSTA.                                             LOC:     Well status
#
~Curve Information Block
#MNEM.UNIT       API CODE      Curve Description
#----------    -------------   -------------------
 DEPT.M                    :   Depth in Meters
 CALI.mm       70 280 01 01:   Caliper
 GR  .GAPI     35 310 01 01:   Gamma Ray
 RHOB.kg/m3     42 350 01 01:   Bulk Density
#
~Parameter Information Block
#MNEM.UNIT            Value               Description
#----------    --------------------    -------------------
 RUN .                         ONE:    Run Number
 PDAT.                         UNK:    Permanent Datum
 EPD .M                 -9999.5000:    Elevation Of Perm. Datum
 TD  .M                  2350.0000:    Total Depth
 WSTA.                         LOC:    
 LATB.M                     0.0000:    
 LONB.M                     0.0000:    
#
~Other Information Block
<DescLogPlotStart>   NEURALOG PLOT DEFINITION
PLOTDEFVERSION: 3
LASFILE: C:\Users\wadet\Desktop\Alphabow Evaluation\well_info\second_white_spec
DEPTHSCALE: 600.000000
RESOLUTION: 200
DEPTHLABELFREQ: 100.000000
HEAVYGRIDFREQ: 50.000000
MEDIUMGRIDFREQ: 25.000000
LIGHTGRIDFREQ: 25.000000
#
#   TRACK 1
#
STARTTRACK: 
 LEFTX: 0.500000 inch
 RIGHTX: 3.000000 inch
 SCALETYPE: Linear
 NUMCHARTDIVISIONS: 9
CURVE: CALI  125.000000 375.000000 (0,0,255)      Solid             2     N    
CURVE: GR    0.000000   150.000000 (0,131,131)    Dot               2     Y    
BACKUP: 150.000000 300.000000 (0,131,131)    Dot               2    
ENDTRACK: 
#
#   TRACK 2
#
STARTTRACK: 
 LEFTX: 3.500000 inch
 RIGHTX: 8.500000 inch
 SCALETYPE: Linear
 NUMCHARTDIVISIONS: 17
CURVE: RHOB  2000.000000 3000.000000 (255,0,255)    Solid             2     N  
ENDTRACK: 
<DescLogPlotEnd>
~A DEPTH     CALI             GR               RHOB            
# ...
   2205.5000 236.87491908     131.55340718     2539.39298815   
   2205.6524 236.84017269     131.26278639     2545.39681134   
   2205.8048 238.06040321     130.62461677     2544.50370324   
   2205.9572 239.32556248     130.32982959     2542.36029859   
   2206.1096 240.55814447     130.31681608     2537.22273113   
   2206.2620 241.82215666     130.01709969     2535.14079957   
   2206.4144 242.41403697     130.62691730     2534.08009119   
   2206.5668 242.24119082     132.49229311     2535.11452716   
   2206.7192 242.04351589     133.72355190     2536.09843425   
   2206.8716 241.86777511     135.27477453     2530.98060260   
   2207.0240 241.67312397     136.50771912     2528.93495692   
   2207.1764 241.49436854     136.50840907     2528.90272503   
   2207.3288 241.30259035     136.50980327     2545.48101868   
   2207.4812 241.12122326     135.57982887     2566.99047687   
   2207.6336 240.93169510     134.65469399     2591.91003498   
   2207.7860 240.74851573     133.41237361     2597.87863711   
   2207.9384 240.56031362     132.48876966     2588.84783423   
   2208.0908 240.37631279     132.48279957     2592.69512882   
   2208.2432 240.19061727     132.17571296     2596.05976838   
   2208.3956 240.00642670     133.41192759     2596.82509413   
   2208.5480 239.82124403     134.64887486     2571.30160551   
   2208.7004 239.63678255     134.96066627     2552.56879860   
   2208.8528 239.45066256     133.71870965     2537.23887358   
   2209.0052 239.26514052     131.56276645     2540.28278310   
   2209.1576 239.07881739     129.07647687     2548.47653893   
   2209.3100 238.89352042     126.92988557     2556.85024704   
   2209.4624 238.70694781     127.22131695     2567.94725090   
   2209.6148 238.52248029     128.17346311     2571.36911897   
   2209.7672 238.33550771     129.69591184     2579.23843034   
   2209.9196 238.15152045     130.34012986     2585.91308061   
   2210.0720 237.96391792     129.70952139     2599.52559999   
   2210.2244 237.78069355     129.24428107     2586.77506148   
   2210.3768 237.59222051     128.45718449     2578.20019389   
   2210.5292 237.40771360     127.24090728     2569.42624859   
   2210.6816 237.39121701     127.22285031     2572.00834785   
   2210.8340 237.46091677     126.92798426     2579.63178339   
   2210.9864 237.52385995     126.61071398     2591.64217868   
   2211.1388 237.59738415     126.61174448     2601.18158609   
   2211.2912 237.65994314     126.61114053     2600.96794133   
   2211.4436 237.73468988     127.21879461     2593.97361637   
   2211.5960 237.79514459     129.08494460     2584.53577735   
   2211.7484 237.86497594     131.23448883     2577.50695548   
   2211.9008 238.29201724     132.80436246     2574.25949457   
   2212.0532 238.69901544     134.02115584     2586.80469688   
   2212.2056 239.07526236     134.04765930     2600.00976320   
   2212.3580 239.48699000     134.02220351     2626.00032567   
   2212.5104 239.85790725     134.04431086     2640.18303223   
   2212.6628 240.27473977     134.64653284     2626.01157863   
   2212.8152 239.21029318     134.97626861     2605.08576941   
   2212.9676 237.04851473     134.94411071     2564.16697664   
   2213.1200 234.82958763     134.35545678     2529.79959830   
   2213.2724 232.71522399     134.32060012     2505.33502254   
   2213.4248 233.03346245     133.12687526     2514.37186910   
   2213.5772 233.40294617     130.90223003     2537.30233904   
   2213.7296 233.71626427     129.12574412     2571.09107874   
   2213.8820 234.08226808     126.85545430     2600.19563561   
   2214.0344 234.40023165     127.61120040     2625.75442590   
   2214.1868 234.76062234     128.68445459     2646.58354651   
   2214.3392 235.08552551     130.74090234     2649.48829127   
   2214.4916 235.16425174     131.74986831     2640.38534988   
   2214.6440 234.88530717     132.00819278     2628.89038861   
   2214.7964 234.62079406     131.10671945     2616.67478468   
   2214.9488 234.34838640     133.49114246     2610.35294805   
   2215.1012 234.07807673     139.45017280     2602.71690333   
   2215.2536 233.80805934     129.86910754     2594.12154728   
   2215.4060 233.53283197     129.55019575     2580.53105082   
   2215.5584 233.21580998     129.54899646     2570.09103371   
   2215.7108 233.25574052     129.25903522     2559.93350424   
   2215.8632 233.31677554     130.25325763     2549.41942891   
   2216.0156 233.36723487     130.40053091     2548.64054494   
   2216.1680 233.42751302     130.98992341     2553.58185738   
   2216.3204 233.47889641     131.20377468     2557.95009280   
   2216.4728 233.53812923     131.72745868     2564.94021789   
   2216.6252 233.59062828     132.01138924     2564.16081967   
   2216.7776 233.64872817     132.47090068     2561.86061357   
   2216.9300 233.70186003     132.81173503     2560.03502143   
   2217.0824 233.75850656     133.22336733     2562.88849796   
   2217.2348 233.81248195     133.60005931     2568.25227429   
   2217.3872 233.86840511     133.99281003     2570.09946474   
   2217.5396 233.92295780     134.38375311     2566.16336668   
   2217.6920 233.97846639     134.75318829     2562.91487407   
   2217.8444 234.03326412     134.35479395     2557.88971331   
   2217.9968 234.08861139     135.58062208     2561.91503766   
   2218.1492 234.14397421     136.82678971     2568.16457835   
   2218.3016 234.19933703     138.05888430     2573.30438254   
   2218.4540 234.25469985     138.05731281     2573.27152213   
   2218.6064 234.31006266     136.82246949     2566.17331815   
   2218.7588 234.36542548     136.81138329     2558.80115930   
   2218.9112 234.42078830     135.89823384     2557.99550706   
   2219.0636 234.47615112     135.26192911     2564.94297745   
   2219.2160 234.53151394     134.97610875     2572.47604074   
   2219.3684 234.58687676     135.26044999     2579.33986587   
   2219.5208 234.64223958     136.83640454     2575.58824373   
   2219.6732 234.69760240     137.42399960     2571.09412474   
   2219.8256 234.75296522     137.45807698     2570.41357171   
   2219.9780 234.80832804     138.35257859     2585.49670310   
   2220.1304 234.86369085     138.05176632     2598.30975361   
   2220.2828 234.91905367     137.73390139     2609.29296461   
   2220.4352 234.97440187     137.76871109     2619.71423110   
   2220.5876 235.02952106     136.19013448     2629.91480418   
   2220.7400 235.08492816     133.74449341     2638.21317927   
   2220.8924 235.13994789     131.54881848     2649.57362964   
   2221.0448 235.19552387     128.47755830     2652.59826169   
   2221.1972 235.25030804     128.14523363     2652.73250912   
   2221.3496 235.30617946     129.09050312     2660.81993605   
   2221.5020 235.36061888     130.00462850     2669.26519201   
   2221.6544 235.41687052     131.25440134     2676.25581176   
   2221.8068 235.47091069     130.93760760     2669.27220488   
   2221.9592 235.52756248     130.63698829     2671.10391003   
   2222.1116 235.58122685     130.94006425     2656.90123804   
   2222.2640 235.63823288     131.25427436     2630.93438732   
   2222.4164 235.69160603     131.55730076     2609.44382472   
   2222.5688 235.74883612     131.56503719     2595.94418944   
   2222.7212 235.79267375     131.24657406     2584.66790170   
   2222.8736 235.68259473     131.26009273     2575.38915816   
   2223.0260 235.58475742     130.31407510     2576.38214457   
   2223.1784 235.49083839     129.09538861     2589.86753164   
   2223.3308 235.39319797     127.83335999     2608.32702927   
   2223.4832 235.29901086     126.00079310     2624.95049358   
   2223.6356 235.20169627     125.35710981     2643.37152067   
   2223.7880 235.10714172     125.38573872     2640.42454302   
   2223.9404 235.01021832     126.59814419     2633.07737699   
   2224.0928 234.91526738     127.24473364     2624.93828494   
   2224.2452 234.81872737     128.14826538     2625.86727558   
   2224.3976 234.72754711     128.48018713     2630.05658214   
