~Version Information Block
 VERS.                2.00:     CWLS LOG ASCII STANDARD - VERSION 2.000000
 WRAP.                  NO:     One Line Per Depth Step
#
~Well Information Block
#MNEM.UNIT                     Data                         Information
#----------   ------------------------------------------   ----------------
 STRT.M                                      2015.0000:     START DEPTH
 STOP.M                                      2349.9752:     STOP DEPTH
 STEP.M                                         0.1524:     STEP
 NULL.                                       -999.2500:     NULL VALUE
 COMP.                                        Alphabow:     COMPANY
 WELL.                   SOC PINE CK 4-15-56-19 #92507:     WELL
 FLD .                                      Pine Creek:     FIELD
 LOC .                           100/04-15-056-19W5/00:     LOCATION
 CNTY.                                                :     COUNTY
 STAT.                                         Alberta:     STATE
 CTRY.                                          Canada:     COUNTRY
 SRVC.                                                :     SERVICE COMPANY
 DATE.                                      03/27/2025:     DATE
 API .                                100041505619W500:     API NUMBER
 UWI .                                100041505619W500:     UWI NUMBER
 TVD .                                              NO:     TVD flag
 WSTA.                                             LOC:     Well status
#
~Curve Information Block
#MNEM.UNIT       API CODE      Curve Description
#----------    -------------   -------------------
 DEPT.M                    :   Depth in Meters
 CALI.mm       70 280 01 01:   Caliper
 GR  .GAPI     35 310 01 01:   Gamma Ray
 RHOB.kg/m3     42 350 01 01:   Bulk Density
#
~Parameter Information Block
#MNEM.UNIT            Value               Description
#----------    --------------------    -------------------
 RUN .                         ONE:    Run Number
 PDAT.                         UNK:    Permanent Datum
 EPD .M                 -9999.5000:    Elevation Of Perm. Datum
 TD  .M                  2350.0000:    Total Depth
 WSTA.                         LOC:    
 LATB.M                     0.0000:    
 LONB.M                     0.0000:    
#
~Other Information Block
<DescLogPlotStart>   NEURALOG PLOT DEFINITION
PLOTDEFVERSION: 3
LASFILE: C:\Users\wadet\Desktop\Alphabow Evaluation\well_info\second_white_spec
DEPTHSCALE: 600.000000
RESOLUTION: 200
DEPTHLABELFREQ: 100.000000
HEAVYGRIDFREQ: 50.000000
MEDIUMGRIDFREQ: 25.000000
LIGHTGRIDFREQ: 25.000000
#
#   TRACK 1
#
STARTTRACK: 
 LEFTX: 0.500000 inch
 RIGHTX: 3.000000 inch
 SCALETYPE: Linear
 NUMCHARTDIVISIONS: 9
CURVE: CALI  125.000000 375.000000 (0,0,255)      Solid             2     N    
CURVE: GR    0.000000   150.000000 (0,131,131)    Dot               2     Y    
BACKUP: 150.000000 300.000000 (0,131,131)    Dot               2    
ENDTRACK: 
#
#   TRACK 2
#
STARTTRACK: 
 LEFTX: 3.500000 inch
 RIGHTX: 8.500000 inch
 SCALETYPE: Linear
 NUMCHARTDIVISIONS: 17
CURVE: RHOB  2000.000000 3000.000000 (255,0,255)    Solid             2     N  
ENDTRACK: 
<DescLogPlotEnd>
~A DEPTH     CALI             GR               RHOB            
# ...
   2129.3000 241.27812214     113.56234180     2546.36781088   
   2129.4524 241.83416369     113.59790680     2537.20166769   
   2129.6048 242.41289070     114.80204476     2536.07557075   
   2129.7572 242.97164583     115.44320266     2550.56810077   
   2129.9096 243.54871595     116.35230630     2557.76015094   
   2130.0620 244.10801510     115.37371943     2556.03646995   
   2130.2144 244.68563850     114.52271989     2554.73683018   
   2130.3668 245.24337228     112.02471135     2545.42327643   
   2130.5192 245.82293978     107.70390806     2526.89835444   
   2130.6716 246.38108639     103.97475940     2534.09709231   
   2130.8240 246.96586567     100.28205634     2561.00154731   
   2130.9764 247.52291161     101.80373414     2580.45667355   
   2131.1288 248.11008720     104.30686104     2581.61928063   
   2131.2812 248.69432963     107.99136486     2561.84608311   
   2131.4336 248.14997372     112.35196919     2533.12053324   
   2131.5860 247.53918869     112.94205638     2513.29082277   
   2131.7384 246.96525853     112.65860505     2503.18798017   
   2131.8908 246.34767926     112.02069534     2492.64045193   
   2132.0432 245.77491893     110.80222534     2481.54809265   
   2132.1956 245.15503980     110.17232953     2471.00163428   
   2132.3480 244.58546835     109.56361017     2482.58148876   
   2132.5004 243.96461689     109.86597402     2531.86138270   
   2132.6528 243.39999923     110.17802247     2557.84307088   
   2132.8052 242.77443254     110.48394233     2605.11457859   
   2132.9576 242.21404233     109.86229596     2645.51083591   
   2133.1100 243.28089501     107.99993113     2663.05469556   
   2133.2624 245.25222505     106.76120654     2648.60681115   
   2133.4148 247.15108059     104.90507818     2612.48710010   
   2133.5672 249.12241738     103.67306233     2574.30340557   
   2133.7196 251.02270486     102.74559117     2516.51186791   
   2133.8720 252.98928407     100.90045038     2454.59236326   
   2134.0244 254.88197319     100.57881452     2412.28070175   
   2134.1768 252.88282557     102.75566688     2412.28070175   
   2134.3292 250.84824423     104.59476624     2415.37667699   
   2134.4816 248.85359597     106.15540705     2431.88854489   
   2134.6340 246.63705217     107.99645145     2430.85655315   
   2134.7864 246.75968462     108.01302438     2440.14447884   
   2134.9388 246.87994427     108.22308561     2450.18897833   
   2135.0912 247.00694086     108.84247022     2466.29399381   
   2135.2436 247.13366336     109.55635735     2482.39900929   
   2135.3960 247.25554403     108.01568155     2497.88312282   
   2135.5484 247.38872926     106.15571837     2503.26118717   
   2135.7008 247.50923561     105.83902611     2505.12089274   
   2135.8532 247.64366725     105.84306792     2505.26717646   
   2136.0056 247.76433488     107.99501660     2498.92072881   
   2136.1580 247.89729536     110.48735207     2492.82172970   
   2136.3104 248.02057451     110.77393477     2483.39041517   
   2136.4628 248.14999109     108.63760443     2477.30921151   
   2136.6152 248.27075392     106.13391512     2474.07748856   
   2136.7676 248.39755883     103.69591281     2478.30651181   
   2136.9200 248.51990492     103.34716727     2479.25723497   
   2137.0724 248.64583678     104.94010519     2465.93539155   
   2137.2248 248.77178719     106.75156300     2450.41459492   
   2137.3772 248.89771863     110.82270363     2442.20728285   
   2137.5296 249.02367937     113.56350106     2463.88114622   
   2137.6820 249.14958524     115.46168759     2484.45720735   
   2137.8344 249.27556499     117.27616509     2508.30590749   
   2137.9868 249.40144068     113.59544778     2510.17736044   
   2138.1392 249.52746118     111.08777514     2501.16433618   
   2138.2916 249.65328678     108.32647160     2501.83645361   
   2138.4440 249.77936486     108.00389258     2480.59847973   
   2138.5964 249.90512774     109.56394028     2450.18761428   
   2138.7488 250.03127095     110.17863996     2436.31892984   
   2138.9012 250.15696926     113.27062368     2396.51833797   
   2139.0536 250.28317344     113.88963575     2338.40613585   
   2139.2060 250.40881733     113.88118319     2366.59141564   
   2139.3584 250.53506669     114.50522163     2369.32722295   
   2139.5108 250.66067688     115.74109151     2388.23659901   
   2139.6632 250.77492134     117.59556785     2395.04968053   
   2139.8156 250.89303000     118.84710983     2409.89910452   
   2139.9680 251.00154095     118.08281181     2422.00496621   
   2140.1204 251.10914436     116.79382145     2432.95177709   
   2140.2728 251.21773164     115.41338601     2444.27244582   
   2140.4252 251.32524817     112.37949799     2439.11248710   
   2140.5776 251.43392999     110.76158699     2425.69659443   
   2140.7300 251.54134798     111.46508507     2404.02476780   
   2140.8824 251.65012809     112.92209206     2390.60887513   
   2141.0348 251.75745261     114.57027350     2398.86480908   
   2141.1872 251.86631671     115.70677106     2412.28070175   
   2141.3396 251.97357121     113.95185985     2433.95252838   
   2141.4920 252.08248734     112.61495593     2430.85655315   
   2141.6444 252.18971114     110.22893445     2398.86480908   
   2141.7968 252.29868078     109.83856916     2388.54489164   
   2141.9492 252.50425693     108.05122027     2361.71310630   
   2142.1016 252.74833603     106.75841135     2320.43343653   
   2142.2540 252.98780927     105.55880842     2419.50464396   
   2142.4064 253.23313484     106.15173713     2498.32560777   
   2142.5588 253.47090075     109.25522412     2636.78480437   
   2142.7112 253.71832721     111.73566641     2590.10517166   
   2142.8636 253.95286089     116.97407289     2547.08429539   
   2143.0160 254.20274043     121.02910121     2500.29127020   
   2143.1684 254.43423689     123.15225940     2455.32155169   
   2143.3208 254.68726593     125.36696906     2465.12378871   
   2143.4732 254.91564181     125.62349092     2468.79505114   
   2143.6256 255.17161742     123.51331907     2493.92645216   
   2143.7780 255.39865751     122.21921755     2494.65550174   
   2143.9304 255.65806116     120.10705713     2490.77677213   
   2144.0828 255.91368356     119.12659611     2490.59844474   
   2144.2352 254.90240811     117.93937997     2499.02893359   
   2144.3876 253.71240921     116.34336284     2501.90893093   
   2144.5400 252.55619976     114.22119262     2478.40557765   
   2144.6924 251.36739258     112.32015842     2465.80462609   
   2144.8448 250.20944678     113.29135333     2458.87390288   
   2144.9972 249.02282830     113.79068270     2459.56679030   
   2145.1496 247.33931407     114.54963364     2457.90877634   
   2145.3020 245.43024615     115.11894212     2462.55456318   
   2145.4544 243.54175834     113.29954692     2428.06119296   
   2145.6068 241.64068237     111.41087869     2390.25159834   
   2145.7592 239.74867105     109.28163787     2352.84641909   
   2145.9116 237.85217236     109.55805688     2312.92336674   
   2146.0640 236.78674854     110.51424408     2303.36881227   
   2146.2164 236.65993570     111.72205491     2320.13844553   
   2146.3688 236.51805923     113.28915768     2403.71859890   
   2146.5212 236.39914700     114.81598126     2510.03752246   
   2146.6736 236.24594987     115.75555475     2382.45464721   
   2146.8260 236.13008421     115.43417703     2436.99575317   
   2146.9784 235.96900715     115.12453232     2422.65746722   
   2147.1308 235.85959264     114.19788355     2362.95863757   
   2147.2832 235.69421344     113.57204277     2312.02541679   
   2147.4356 235.58664326     114.20957493     2296.12740242   
   2147.5880 235.42116862     114.49862332     2312.83799260   
   2147.7404 235.31209053     113.90801749     2288.14741117   
   2147.8928 238.50427120     114.18227123     2327.58749601   
   2148.0452 241.69093801     116.38717420     2351.05610187   
   2148.1976 244.84472677     117.57953151     2612.78818712   
