~Version Information Block
 VERS.                2.00:     CWLS LOG ASCII STANDARD - VERSION 2.000000
 WRAP.                  NO:     One Line Per Depth Step
#
~Well Information Block
#MNEM.UNIT                     Data                         Information
#----------   ------------------------------------------   ----------------
 STRT.M                                      2015.0000:     START DEPTH
 STOP.M                                      2349.9752:     STOP DEPTH
 STEP.M                                         0.1524:     STEP
 NULL.                                       -999.2500:     NULL VALUE
 COMP.                                        Alphabow:     COMPANY
 WELL.                   SOC PINE CK 4-15-56-19 #92507:     WELL
 FLD .                                      Pine Creek:     FIELD
 LOC .                           100/04-15-056-19W5/00:     LOCATION
 CNTY.                                                :     COUNTY
 STAT.                                         Alberta:     STATE
 CTRY.                                          Canada:     COUNTRY
 SRVC.                                                :     SERVICE COMPANY
 DATE.                                      03/27/2025:     DATE
 API .                                100041505619W500:     API NUMBER
 UWI .                                100041505619W500:     UWI NUMBER
 TVD .                                              NO:     TVD flag
 WSTA.                                             LOC:     Well status
#
~Curve Information Block
#MNEM.UNIT       API CODE      Curve Description
#----------    -------------   -------------------
 DEPT.M                    :   Depth in Meters
 CALI.mm       70 280 01 01:   Caliper
 GR  .GAPI     35 310 01 01:   Gamma Ray
 RHOB.kg/m3     42 350 01 01:   Bulk Density
#
~Parameter Information Block
#MNEM.UNIT            Value               Description
#----------    --------------------    -------------------
 RUN .                         ONE:    Run Number
 PDAT.                         UNK:    Permanent Datum
 EPD .M                 -9999.5000:    Elevation Of Perm. Datum
 TD  .M                  2350.0000:    Total Depth
 WSTA.                         LOC:    
 LATB.M                     0.0000:    
 LONB.M                     0.0000:    
#
~Other Information Block
<DescLogPlotStart>   NEURALOG PLOT DEFINITION
PLOTDEFVERSION: 3
LASFILE: C:\Users\wadet\Desktop\Alphabow Evaluation\well_info\second_white_spec
DEPTHSCALE: 600.000000
RESOLUTION: 200
DEPTHLABELFREQ: 100.000000
HEAVYGRIDFREQ: 50.000000
MEDIUMGRIDFREQ: 25.000000
LIGHTGRIDFREQ: 25.000000
#
#   TRACK 1
#
STARTTRACK: 
 LEFTX: 0.500000 inch
 RIGHTX: 3.000000 inch
 SCALETYPE: Linear
 NUMCHARTDIVISIONS: 9
CURVE: CALI  125.000000 375.000000 (0,0,255)      Solid             2     N    
CURVE: GR    0.000000   150.000000 (0,131,131)    Dot               2     Y    
BACKUP: 150.000000 300.000000 (0,131,131)    Dot               2    
ENDTRACK: 
#
#   TRACK 2
#
STARTTRACK: 
 LEFTX: 3.500000 inch
 RIGHTX: 8.500000 inch
 SCALETYPE: Linear
 NUMCHARTDIVISIONS: 17
CURVE: RHOB  2000.000000 3000.000000 (255,0,255)    Solid             2     N  
ENDTRACK: 
<DescLogPlotEnd>
~A DEPTH     CALI             GR               RHOB            
   2015.0000 286.41528926     110.17561983     2405.05675955   
   2015.1524 281.10382231     110.17561983     2405.05675955   
   2015.3048 273.50206612     109.83176258     2405.05675955   
   2015.4572 272.75060434     108.83904433     2405.05675955   
   2015.6096 271.88075930     107.84632607     2403.76305470   
   2015.7620 271.01091426     106.85360781     2401.74992776   
   2015.9144 270.14106921     105.86088956     2399.89680083   
   2016.0668 269.27122417     104.90702479     2434.23220640   
   2016.2192 268.40137913     109.86570248     2466.03961197   
   2016.3716 267.53153409     105.09320248     2497.84701754   
   2016.5240 266.78719008     100.65030165     2529.65442312   
   2016.6764 271.07483471     96.20740083      2561.46182869   
   2016.8288 274.82185950     91.76450000      2593.26923426   
   2016.9812 278.56888430     87.32159917      2625.07663983   
   2017.1336 278.10655783     87.23280123      2620.91073074   
   2017.2860 282.27669304     86.29836468      2635.40531133   
   2017.4384 285.61459140     93.84080186      2612.54687021   
   2017.5908 289.55968516     101.32372042     2589.73483359   
   2017.7432 290.48125189     108.83703317     2566.90698736   
   2017.8956 291.11045333     116.34415750     2544.05783861   
   2018.0480 290.98161787     120.69653680     2521.23935301   
   2018.2004 291.23082284     120.71163660     2498.37073387   
   2018.3528 291.17711862     121.00164054     2475.56042846   
   2018.5052 291.45926026     121.63533348     2452.72249329   
   2018.6576 291.37761258     121.93121228     2429.93654951   
   2018.8100 291.66157751     122.25262426     2410.24891787   
   2018.9624 301.72470748     122.23860848     2403.63607074   
   2019.1148 302.99901242     122.54510419     2397.80662704   
   2019.2672 300.59715822     122.54287298     2391.98960382   
   2019.4196 298.57961920     122.53458466     2386.20645708   
   2019.5720 296.20062616     122.54097706     2380.28895769   
   2019.7244 294.14266513     122.53168852     2392.21069143   
   2019.8768 291.81563799     121.96831441     2404.00186348   
   2020.0292 289.55559956     121.29320263     2415.79303553   
   2020.1816 290.24577464     120.65130804     2414.09205366   
   2020.3340 291.09103342     119.97700152     2393.96078431   
   2020.4864 291.90255733     119.32879043     2373.82951496   
   2020.6388 292.68200209     118.39597975     2350.36119711   
   2020.7912 293.55326678     116.84789419     2371.35397317   
   2020.9436 294.11005963     115.27988267     2396.51805986   
   2021.0960 291.44012545     113.72819881     2421.68214654   
   2021.2484 290.35474677     112.35253246     2446.84623323   
   2021.4008 290.31065329     108.36353093     2427.76057792   
   2021.5532 289.94894607     104.92969598     2443.24045408   
   2021.7056 289.91496531     105.20864337     2487.61609907   
   2021.8580 289.54597782     105.48336528     2478.32817337   
   2022.0104 284.43937166     105.75285450     2586.56848710   
   2022.1628 285.93406907     106.02685297     2540.66919298   
   2022.3152 287.89766200     106.29057499     2497.93601651   
   2022.4676 289.57522473     106.69627330     2533.02373581   
   2022.6200 291.51562298     107.39548968     2496.90402477   
   2022.7724 293.22389005     108.09493212     2469.04024768   
   2022.9248 295.13252604     108.80159892     2456.65634675   
   2023.0772 294.86660769     109.49260028     2470.07223942   
   2023.2296 293.71944562     110.20766700     2496.90402477   
   2023.3820 292.45966114     111.97448361     2512.38390093   
   2023.5344 291.28392779     114.57190663     2491.74406605   
   2023.6868 290.04684855     117.11692665     2445.30443756   
   2023.8392 288.85621292     119.24164933     2399.89680083   
   2023.9916 287.63075178     120.73738758     2382.35294118   
   2024.1440 286.43317995     122.30004941     2407.12074303   
   2024.2964 285.21003762     124.08539203     2422.60061920   
   2024.4488 284.42973591     123.20097838     2424.66460268   
   2024.6012 284.68189164     122.03168167     2446.55938670   
   2024.7536 284.94291012     120.92642781     2464.38993955   
   2024.9060 285.19534263     119.76108426     2482.22049241   
   2025.0584 285.45484555     118.65169831     2497.93601651   
   2025.2108 285.71061481     117.85027765     2497.93601651   
   2025.3632 285.96507847     117.29761082     2497.93601651   
   2025.5156 286.22462098     116.70185070     2497.93601651   
   2025.6680 286.47254581     116.14399294     2507.22394221   
   2025.8204 286.74007497     115.55210106     2523.73581011   
   2025.9728 286.98073902     114.99535065     2547.47162023   
   2026.1252 287.25536357     114.50822722     2547.47162023   
   2026.2776 287.48964499     115.38080921     2547.47162023   
   2026.4300 287.76962273     116.08948268     2365.84107327   
   2026.5824 287.99984517     116.69654011     2547.47162023   
   2026.7348 288.28239024     118.84272317     2548.32332969   
   2026.8872 288.45996125     119.79326997     2546.62413788   
   2027.0396 286.40438968     120.07803638     2548.19057433   
   2027.1920 284.65079105     120.10429688     2546.77290192   
   2027.3444 282.94518804     120.07420465     2548.01773930   
   2027.4968 281.19601765     120.72013943     2546.96887102   
   2027.6492 279.48512727     120.68983642     2547.82199965   
   2027.8016 278.15539190     119.17038417     2547.16517630   
   2027.9540 278.16731862     116.66601462     2547.63894988   
   2028.1064 278.49891449     113.59733346     2547.33466594   
   2028.2588 278.96864746     112.02655414     2547.50790382   
   2028.4112 279.41944668     112.35520018     2547.45105191   
   2028.5636 279.88901563     113.88872420     2547.43804011   
   2028.7160 280.33662801     113.90346963     2507.24143929   
   2028.8684 280.81641107     113.27935988     2530.86040318   
   2029.0208 281.25531792     113.59197138     2553.91700177   
   2029.1732 281.74733752     114.52910782     2539.94626109   
   2029.3256 282.17087851     115.44488991     2498.15213030   
   2029.4780 282.67667795     116.39039385     2465.82033614   
   2029.6304 283.08273152     116.05621616     2460.24671391   
   2029.7828 283.60639405     114.29651069     2455.63656257   
   2029.9352 283.99555731     113.49007549     2461.64386005   
   2030.0876 284.53436729     112.37640159     2464.12706975   
   2030.2400 284.80521517     111.70706438     2466.25081360   
   2030.3924 281.47295865     111.44662543     2468.91252942   
   2030.5448 278.60154849     111.69583637     2470.89806863   
   2030.6972 275.92525201     111.75874246     2473.65475152   
   2030.8496 273.05232945     112.92967495     2475.12298498   
   2031.0020 269.96749212     116.09717554     2450.81985685   
   2031.1544 269.82166108     118.18587409     2446.26053558   
   2031.3068 269.88583349     119.50410958     2462.15830420   
   2031.4592 269.72534675     121.89970469     2476.21647873   
   2031.6116 269.80245654     121.98455236     2468.17981300   
   2031.7640 269.62578704     120.97472895     2439.05903129   
   2031.9164 269.72517815     119.81700001     2414.47944847   
   2032.0688 269.53204917     119.43020769     2413.30089224   
   2032.2212 269.65376363     118.26040573     2421.66038575   
   2032.3736 269.43891534     117.27454090     2441.18429176   
   2032.5260 269.58049286     115.15504423     2469.05642743   
   2032.6784 269.34868203     113.57523662     2489.65332368   
   2032.8308 269.48970254     112.35386286     2518.51594607   
   2032.9832 277.44308822     112.66432794     2542.24413142   
   2033.1356 285.56874965     112.64342030     2551.48402832   
   2033.2880 295.10786983     112.37265881     2571.06576258   
   2033.4404 295.19119983     112.32559589     2585.46748424   
   2033.5928 291.69325460     112.39328854     2586.46844580   
   2033.7452 288.88772179     114.48459051     2573.22315928   
   2033.8976 286.22667462     115.50241606     2531.93682737   
