~Version Information Block
 VERS.                2.00:     CWLS LOG ASCII STANDARD - VERSION 2.000000
 WRAP.                  NO:     One Line Per Depth Step
#
~Well Information Block
#MNEM.UNIT                     Data                         Information
#----------   ------------------------------------------   ----------------
 STRT.M                                      1950.0000:     START DEPTH
 STOP.M                                      2299.9104:     STOP DEPTH
 STEP.M                                         0.1524:     STEP
 NULL.                                       -999.2500:     NULL VALUE
 COMP.                                        Alphabow:     COMPANY
 WELL.                   SOC PINE CK 4-15-56-19 #92507:     WELL
 FLD .                                                :     FIELD
 LOC .                                                :     LOCATION
 CNTY.                                                :     COUNTY
 STAT.                                                :     STATE
 CTRY.                                                :     COUNTRY
 SRVC.                                                :     SERVICE COMPANY
 DATE.                                      03/29/2025:     DATE
 API .                                100041505619W500:     API NUMBER
 UWI .                                100041505619W500:     UWI NUMBER
 TVD .                                              NO:     TVD flag
 WSTA.                                             LOC:     Well status
#
~Curve Information Block
#MNEM.UNIT       API CODE      Curve Description
#----------    -------------   -------------------
 DEPT.M                    :   Depth in Meters
 SP  .MV       01 010 01 01:   Spontaneous Potential
 SFLU.OHMM     10 220 01 01:   SFL Resistivity (Unaveraged)
 ILD .OHMM     05 120 46 01:   Deep Induction Standard Processed Resistivity
#
~Parameter Information Block
#MNEM.UNIT            Value               Description
#----------    --------------------    -------------------
 RUN .                         ONE:    Run Number
 PDAT.                         UNK:    Permanent Datum
 EPD .M                 -9999.5000:    Elevation Of Perm. Datum
 WSTA.                         LOC:    
 TD  .M                  2300.0000:    Total Depth
#
~Other Information Block
<DescLogPlotStart>   NEURALOG PLOT DEFINITION
PLOTDEFVERSION: 3
LASFILE: C:\Users\wadet\Desktop\Alphabow Evaluation\well_info\second_white_spec
DEPTHSCALE: 240.000000
RESOLUTION: 200
DEPTHLABELFREQ: 50.000000
HEAVYGRIDFREQ: 50.000000
MEDIUMGRIDFREQ: 25.000000
LIGHTGRIDFREQ: 5.000000
#
#   TRACK 1
#
STARTTRACK: 
 LEFTX: 0.500000 inch
 RIGHTX: 3.000000 inch
 SCALETYPE: Linear
 NUMCHARTDIVISIONS: 9
CURVE: SP    -80.000000 20.000000  (0,0,255)      Solid             2     N    
ENDTRACK: 
#
#   TRACK 2
#
STARTTRACK: 
 LEFTX: 3.500000 inch
 RIGHTX: 8.500000 inch
 SCALETYPE: Linear
 NUMCHARTDIVISIONS: 34
CURVE: SFLU  2.000000   2000.000000 (0,131,131)    Solid             2     N   
CURVE: ILD   2.000000   2000.000000 (255,0,255)    Dot               2     N   
ENDTRACK: 
<DescLogPlotEnd>
~A DEPTH     SP               SFLU             ILD             
# ...
   2121.4500 -17.27835830     911.58750703     937.11862886    
   2121.6024 -17.44751210     916.54250180     950.65873577    
   2121.7548 -17.64272776     920.17884698     964.19884268    
   2121.9072 -17.90751395     919.34198395     977.73894960    
   2122.0596 -18.03929313     917.26833539     991.27905651    
   2122.2120 -18.09892931     910.51476329     1004.81916342   
   2122.3644 -18.27252063     897.44342669     1018.35927034   
   2122.5168 -18.09460718     909.73475569     1031.89937725   
   2122.6692 -17.86962796     943.34187021     1045.43990107   
   2122.8216 -17.88458073     983.11532519     1059.01943265   
   2122.9740 -17.94238747     1045.14919293    1072.58331717   
   2123.1264 -18.09285971     1084.33911012    1085.51769516   
   2123.2788 -18.09994545     1095.06502070    1093.20290689   
   2123.4312 -18.26915048     1078.20948785    1024.18637003   
   2123.5836 -18.46453867     1058.09783985    992.93057971    
   2123.7360 -18.72503729     1034.37819078    993.00565837    
   2123.8884 -19.01848180     1008.37765002    992.78015157    
   2124.0408 -19.41846278     1020.69654773    992.75692813    
   2124.1932 -19.50453654     1029.61165024    992.76913349    
   2124.3456 -19.79461258     1035.26727834    992.76559300    
   2124.4980 -19.71900773     1040.38155732    992.76533113    
   2124.6504 -19.74662141     1040.28692297    992.29936279    
   2124.8028 -19.89670031     1036.16466285    991.48821522    
   2124.9552 -20.16831093     1031.47350980    990.67474057    
   2125.1076 -20.51747782     1030.21678321    989.85760788    
   2125.2600 -20.85483155     1032.08398213    989.04024702    
   2125.4124 -20.94756002     1031.85220079    988.22310485    
   2125.5648 -20.11433185     1030.22256455    987.40596269    
   2125.7172 -20.09182250     1031.65639003    986.58882052    
   2125.8696 -21.26299953     1030.11100386    985.77167835    
   2126.0220 -21.14974703     1027.34114309    984.95467055    
   2126.1744 -21.06264234     1025.71065103    984.13711444    
   2126.3268 -20.99416023     1026.10771821    983.31790906    
   2126.4792 -20.96537027     1025.30304350    982.49430658    
   2126.6316 -20.96706998     1023.67861494    981.87322378    
   2126.7840 -20.96936973     1019.20803852    981.24664682    
   2126.9364 -20.92473246     1015.64243987    980.55014044    
   2127.0888 -20.78189231     1012.62110535    982.70198019    
   2127.2412 -20.79069828     1011.28926336    985.93920376    
   2127.3936 -20.80890301     1012.14368314    989.22484480    
   2127.5460 -20.82809250     1019.07090372    992.62074187    
   2127.6984 -20.84663777     1023.37479580    993.41602281    
   2127.8508 -20.86518214     1018.11843017    994.10053027    
   2128.0032 -20.88372652     1008.78944844    994.76612816    
   2128.1556 -20.90227164     1004.57013220    992.73979683    
   2128.3080 -20.92080312     1001.62040575    990.45414400    
   2128.4604 -20.93932496     998.66182375     988.17938225    
   2128.6128 -20.95801982     993.57559634     985.91742906    
   2128.7652 -20.96498851     990.44912503     984.11078697    
   2128.9176 -20.96506810     986.28642331     983.01634222    
   2129.0700 -20.96507221     991.13940738     981.91885642    
   2129.2224 -20.96507042     993.25187127     980.82943381    
   2129.3748 -20.96543809     995.56107519     979.78039466    
   2129.5272 -20.96616196     997.84885707     978.75244976    
   2129.6796 -21.04472969     999.04097003     977.72470656    
   2129.8320 -21.24046092     995.22671836     976.69704761    
   2129.9844 -21.43471771     995.57472382     975.66929230    
   2130.1368 -21.62918649     999.79466851     974.64358723    
   2130.2892 -21.82347953     1004.01673588    973.61901446    
   2130.4416 -22.01721934     1008.21467526    972.57061297    
   2130.5940 -22.21510156     1012.41166592    973.27939982    
   2130.7464 -22.42038842     1016.59920701    974.95240350    
   2130.8988 -22.21980122     1020.83086342    975.48336517    
   2131.0512 -21.74238100     1025.23371508    971.36209721    
   2131.2036 -21.63725678     1019.69553243    967.32599055    
   2131.3560 -21.56115990     1012.77384860    963.18947854    
   2131.5084 -21.59646401     1005.72366211    959.23512757    
   2131.6608 -21.57925624     997.24476149     955.06738180    
   2131.8132 -21.54231057     993.12389005     950.76865302    
   2131.9656 -20.94377258     992.71697808     950.07818256    
   2132.1180 -21.11745998     992.74083116     950.73476790    
   2132.2704 -21.50846874     992.76930999     951.42830349    
   2132.4228 -21.86340015     992.77889477     952.61027420    
   2132.5752 -22.14864729     992.79925006     953.92473486    
   2132.7276 -22.47372498     992.65815077     955.22777687    
   2132.8800 -22.74901508     995.06207647     958.95814622    
   2133.0324 -23.13765399     982.34065171     964.28299400    
   2133.1848 -23.36664554     970.39008891     969.14613812    
   2133.3372 -23.64036512     971.50087730     972.93455739    
   2133.4896 -23.63127630     978.10791654     976.72078897    
   2133.6420 -23.43663780     976.20970246     980.27412420    
   2133.7944 -22.84203378     987.11524482     978.85852857    
   2133.9468 -23.19689030     986.88746450     977.25674249    
   2134.0992 -24.03317068     1005.23005353    975.66983006    
   2134.2516 -24.61501393     1012.87426293    974.09702908    
   2134.4040 -24.66503993     1008.72588826    972.57610165    
   2134.5564 -24.43527126     1005.55087158    969.72694263    
   2134.7088 -24.43926616     1003.43172898    966.65314144    
   2134.8612 -24.33134966     1003.14684388    963.55897612    
   2135.0136 -24.44622885     998.98170621     960.46666449    
   2135.1660 -24.46611129     994.93495048     957.37263626    
   2135.3184 -24.07521949     992.81162974     954.28857125    
   2135.4708 -23.87856094     994.30272827     952.57003628    
   2135.6232 -23.84324466     998.65409153     951.18383512    
   2135.7756 -24.01215504     997.00763544     949.79703970    
   2135.9280 -24.21987325     991.22639542     949.55975640    
   2136.0804 -24.44487303     985.66474730     949.55823238    
   2136.2328 -24.81769606     982.69681278     949.59776989    
   2136.3852 -25.46295104     982.27314909     948.39345849    
   2136.5376 -25.48306675     984.44176352     947.02793996    
   2136.6900 -25.05211076     993.11509478     945.64391697    
   2136.8424 -24.39706068     998.42463710     943.82019058    
   2136.9948 -24.04507769     995.24790883     941.92434927    
   2137.1472 -23.87985520     987.31662648     940.02666614    
   2137.2996 -23.85868920     968.91222849     938.12936680    
   2137.4520 -23.65639153     957.64638406     936.23215160    
   2137.6044 -23.43135180     938.49416076     934.33493640    
   2137.7568 -23.66032323     922.79546550     932.43772119    
   2137.9092 -23.63754825     929.50657421     930.54050599    
   2138.0616 -23.62306445     967.85216782     928.64363349    
   2138.2140 -23.47135811     989.32849183     926.74515919    
   2138.3664 -23.13865930     995.11897170     924.84219716    
   2138.5188 -23.22913691     990.88816260     922.85352089    
   2138.6712 -23.20798060     977.16926938     920.32449101    
   2138.8236 -23.05928838     960.47434208     917.65428509    
   2138.9760 -22.83096722     945.25789172     914.97774815    
   2139.1284 -23.03835899     916.68938293     912.30041035    
   2139.2808 -23.57249678     909.03055970     909.61509242    
   2139.4332 -23.98783176     907.59954454     907.67212619    
   2139.5856 -24.27870815     904.26846893     906.33332395    
   2139.7380 -24.06594668     905.39834320     904.99236498    
   2139.8904 -23.81049427     906.08451329     904.29681658    
   2140.0428 -23.34071898     907.38814022     904.29685824    
   2140.1952 -22.95875480     906.43447381     904.28085506    
   2140.3476 -23.02841510     906.55971683     903.88021527    
