~Version Information Block
 VERS.                2.00:     CWLS LOG ASCII STANDARD - VERSION 2.000000
 WRAP.                  NO:     One Line Per Depth Step
#
~Well Information Block
#MNEM.UNIT                     Data                         Information
#----------   ------------------------------------------   ----------------
 STRT.M                                      1950.0000:     START DEPTH
 STOP.M                                      2299.9104:     STOP DEPTH
 STEP.M                                         0.1524:     STEP
 NULL.                                       -999.2500:     NULL VALUE
 COMP.                                        Alphabow:     COMPANY
 WELL.                   SOC PINE CK 4-15-56-19 #92507:     WELL
 FLD .                                                :     FIELD
 LOC .                                                :     LOCATION
 CNTY.                                                :     COUNTY
 STAT.                                                :     STATE
 CTRY.                                                :     COUNTRY
 SRVC.                                                :     SERVICE COMPANY
 DATE.                                      03/29/2025:     DATE
 API .                                100041505619W500:     API NUMBER
 UWI .                                100041505619W500:     UWI NUMBER
 TVD .                                              NO:     TVD flag
 WSTA.                                             LOC:     Well status
#
~Curve Information Block
#MNEM.UNIT       API CODE      Curve Description
#----------    -------------   -------------------
 DEPT.M                    :   Depth in Meters
 SP  .MV       01 010 01 01:   Spontaneous Potential
 SFLU.OHMM     10 220 01 01:   SFL Resistivity (Unaveraged)
 ILD .OHMM     05 120 46 01:   Deep Induction Standard Processed Resistivity
#
~Parameter Information Block
#MNEM.UNIT            Value               Description
#----------    --------------------    -------------------
 RUN .                         ONE:    Run Number
 PDAT.                         UNK:    Permanent Datum
 EPD .M                 -9999.5000:    Elevation Of Perm. Datum
 WSTA.                         LOC:    
 TD  .M                  2300.0000:    Total Depth
#
~Other Information Block
<DescLogPlotStart>   NEURALOG PLOT DEFINITION
PLOTDEFVERSION: 3
LASFILE: C:\Users\wadet\Desktop\Alphabow Evaluation\well_info\second_white_spec
DEPTHSCALE: 240.000000
RESOLUTION: 200
DEPTHLABELFREQ: 50.000000
HEAVYGRIDFREQ: 50.000000
MEDIUMGRIDFREQ: 25.000000
LIGHTGRIDFREQ: 5.000000
#
#   TRACK 1
#
STARTTRACK: 
 LEFTX: 0.500000 inch
 RIGHTX: 3.000000 inch
 SCALETYPE: Linear
 NUMCHARTDIVISIONS: 9
CURVE: SP    -80.000000 20.000000  (0,0,255)      Solid             2     N    
ENDTRACK: 
#
#   TRACK 2
#
STARTTRACK: 
 LEFTX: 3.500000 inch
 RIGHTX: 8.500000 inch
 SCALETYPE: Linear
 NUMCHARTDIVISIONS: 34
CURVE: SFLU  2.000000   2000.000000 (0,131,131)    Solid             2     N   
CURVE: ILD   2.000000   2000.000000 (255,0,255)    Dot               2     N   
ENDTRACK: 
<DescLogPlotEnd>
~A DEPTH     SP               SFLU             ILD             
# ...
   1988.1000 -20.12689613     848.19775409     832.44722971    
   1988.2524 -20.22375205     842.38176768     831.12859860    
   1988.4048 -20.32111429     846.75946698     828.97385798    
   1988.5572 -20.42104002     844.94422711     828.00166173    
   1988.7096 -20.51340535     842.11327423     832.11047706    
   1988.8620 -20.77964363     834.52769707     842.29772847    
   1989.0144 -20.71505491     825.76676397     851.97695727    
   1989.1668 -20.63416182     837.20705739     844.11542868    
   1989.3192 -20.55732796     846.67157135     836.56584640    
   1989.4716 -20.47955111     851.43181267     834.64395807    
   1989.6240 -20.40150441     836.24543398     831.18268896    
   1989.7764 -20.32348143     822.78228448     827.99828466    
   1989.9288 -20.24545844     823.81191352     830.20994034    
   1990.0812 -20.16743951     830.35869432     829.96991985    
   1990.2336 -20.08935102     841.49905983     834.72419922    
   1990.3860 -20.01127108     832.65584422     830.52342858    
   1990.5384 -19.93929024     820.82348407     830.39310850    
   1990.6908 -19.92887623     815.60509005     823.88439573    
   1990.8432 -19.92035882     818.05008872     819.02414226    
   1990.9956 -19.91165853     815.67319137     814.43786669    
   1991.1480 -19.90291260     814.31136859     813.25585511    
   1991.3004 -19.89418193     819.56776556     816.56436137    
   1991.4528 -19.88545125     818.82185524     820.02975961    
   1991.6052 -19.87672058     823.26342152     825.59614539    
   1991.7576 -19.86798990     825.36711940     828.42647915    
   1991.9100 -19.85925923     859.33132454     833.30330733    
   1992.0624 -19.85052855     876.02213245     844.36418782    
   1992.2148 -19.84179788     887.13764697     845.90814319    
   1992.3672 -19.83306720     883.54139862     844.48782018    
   1992.5196 -19.82433653     862.86613474     843.13008113    
   1992.6720 -19.81560586     834.79981803     842.49071395    
   1992.8244 -19.80687518     819.94997444     838.72347106    
   1992.9768 -19.79814451     811.08447137     830.41871030    
   1993.1292 -19.78941383     818.83969617     818.74212913    
   1993.2816 -19.78068316     837.04169034     811.55116776    
   1993.4340 -19.77195248     852.45495467     813.93755738    
   1993.5864 -19.76322362     865.33784035     817.57898940    
   1993.7388 -19.75449149     866.55270876     822.97782258    
   1993.8912 -19.74572849     867.14671481     827.91448079    
   1994.0436 -19.73696865     875.40206256     834.82294154    
   1994.1960 -19.72570562     881.79701376     840.23836624    
   1994.3484 -19.71242304     879.75944797     844.85094966    
   1994.5008 -19.69912113     873.58316377     849.01934820    
   1994.6532 -19.68578641     869.79906035     849.73035391    
   1994.8056 -19.67244974     872.09785605     850.67345350    
   1994.9580 -19.65911500     867.07922319     848.51927570    
   1995.1104 -19.64578025     853.29620175     850.88099435    
   1995.2628 -19.63244551     846.87925832     850.46209671    
   1995.4152 -19.61911076     845.54183465     845.59211287    
   1995.5676 -19.60577602     833.55932518     842.49856263    
   1995.7200 -19.59244127     843.12688241     842.13492023    
   1995.8724 -19.57910653     863.52839193     837.27938689    
   1996.0248 -19.56577178     865.23963105     832.73367078    
   1996.1772 -19.55243704     854.52446800     828.28139514    
   1996.3296 -19.53910230     852.10404612     828.58099738    
   1996.4820 -19.52576755     850.80585128     830.07754633    
   1996.6344 -19.51243281     856.32136338     832.29332293    
   1996.7868 -19.49909806     859.28919106     834.40520996    
   1996.9392 -19.48576332     850.92911234     833.87061223    
   1997.0916 -19.47242857     847.73735043     830.57528535    
   1997.2440 -19.45909383     850.82994691     826.83952323    
   1997.3964 -19.44575908     857.20253812     829.88329265    
   1997.5488 -19.43242434     863.44193674     832.36012073    
   1997.7012 -19.41908959     861.43920099     835.99761716    
   1997.8536 -19.40575485     859.37890664     833.95052966    
   1998.0060 -19.39242010     860.22499560     834.32985955    
   1998.1584 -19.37908536     865.34099293     836.74800174    
   1998.3108 -19.36575062     870.91135010     838.37961488    
   1998.4632 -19.35241587     875.72224257     838.40919653    
   1998.6156 -19.33908113     875.37772404     836.79758566    
   1998.7680 -19.32574638     871.89371182     835.14574345    
   1998.9204 -19.31241164     865.82970034     833.39566102    
   1999.0728 -19.29907689     852.02878265     838.30014489    
   1999.2252 -19.28574215     855.95807462     842.48018110    
   1999.3776 -19.27240740     862.80790429     847.35339933    
   1999.5300 -19.25907266     879.09429805     851.81252238    
   1999.6824 -19.24573791     900.82806800     856.87563237    
   1999.8348 -19.23240317     926.47864791     872.15266088    
   1999.9872 -19.21906843     939.34575766     893.67631989    
   2000.1396 -19.20573368     945.81501898     908.97083340    
   2000.2920 -19.19239894     951.76485775     926.64461882    
   2000.4444 -19.17906419     959.35078268     944.98022963    
   2000.5968 -19.16572945     972.19365246     948.81633881    
   2000.7492 -19.15239470     983.60553499     953.02487567    
   2000.9016 -19.13905996     987.50290309     956.88941576    
   2001.0540 -19.12572521     990.18185862     960.24243897    
   2001.2064 -19.11239047     987.65383104     961.80179338    
   2001.3588 -19.09905572     985.86396780     960.71814375    
   2001.5112 -19.08572098     965.51566016     958.94343951    
   2001.6636 -19.07238623     977.35607005     964.14692256    
   2001.8160 -19.05905149     976.77593036     962.44191770    
   2001.9684 -19.04571675     974.41928805     954.39241187    
   2002.1208 -19.03238200     970.12777328     950.52624004    
   2002.2732 -19.01904726     970.50959530     947.03058158    
   2002.4256 -19.00571251     982.20039351     943.52876559    
   2002.5780 -18.99237777     985.45093625     943.36361402    
   2002.7304 -18.97904302     979.20170183     943.38891650    
   2002.8828 -18.96570828     966.87002137     943.34520636    
   2003.0352 -18.95213023     963.81294543     941.59966006    
   2003.1876 -18.94203360     955.99882274     939.71433652    
   2003.3400 -18.93304446     949.86850615     939.69524537    
   2003.4924 -18.84016538     933.74310971     941.57129102    
   2003.6448 -18.69765745     932.08044461     941.72142864    
   2003.7972 -18.89287183     914.30733114     937.43743289    
   2003.9496 -19.46096618     918.23428794     933.34210809    
   2004.1020 -19.36653694     913.25889833     927.75393468    
   2004.2544 -19.38739029     919.61771339     920.09969919    
   2004.4068 -19.28441101     915.16881969     914.47896972    
   2004.5592 -19.17017079     911.65087904     914.55775540    
   2004.7116 -18.68670946     912.18153457     913.22891823    
   2004.8640 -18.67171248     908.45067549     911.91763519    
   2005.0164 -18.58618091     907.00567835     913.71939818    
   2005.1688 -18.70875980     915.38254022     916.97125988    
   2005.3212 -18.71031350     921.16090003     917.85757371    
   2005.4736 -18.72715795     910.59964861     920.03064934    
   2005.6260 -18.49812330     906.41585560     921.20412152    
   2005.7784 -18.50030733     904.69457829     920.68226687    
   2005.9308 -18.54549491     910.64091783     920.71736486    
   2006.0832 -18.52570410     906.44153954     920.82155701    
   2006.2356 -18.23227142     906.74308443     916.35028218    
   2006.3880 -18.09845731     911.90410176     909.66666499    
   2006.5404 -17.86286670     898.01950877     903.00064401    
   2006.6928 -17.87736886     907.23588326     898.39474721    
   2006.8452 -17.93049759     917.11531249     900.05013233    
   2006.9976 -18.18044277     904.69868784     900.37000936    
