~Version Information Block
 VERS.                2.00:     CWLS LOG ASCII STANDARD - VERSION 2.000000
 WRAP.                  NO:     One Line Per Depth Step
#
~Well Information Block
#MNEM.UNIT                     Data                         Information
#----------   ------------------------------------------   ----------------
 STRT.M                                      1950.0000:     START DEPTH
 STOP.M                                      2299.9104:     STOP DEPTH
 STEP.M                                         0.1524:     STEP
 NULL.                                       -999.2500:     NULL VALUE
 COMP.                                        Alphabow:     COMPANY
 WELL.                   SOC PINE CK 4-15-56-19 #92507:     WELL
 FLD .                                                :     FIELD
 LOC .                                                :     LOCATION
 CNTY.                                                :     COUNTY
 STAT.                                                :     STATE
 CTRY.                                                :     COUNTRY
 SRVC.                                                :     SERVICE COMPANY
 DATE.                                      03/29/2025:     DATE
 API .                                100041505619W500:     API NUMBER
 UWI .                                100041505619W500:     UWI NUMBER
 TVD .                                              NO:     TVD flag
 WSTA.                                             LOC:     Well status
#
~Curve Information Block
#MNEM.UNIT       API CODE      Curve Description
#----------    -------------   -------------------
 DEPT.M                    :   Depth in Meters
 SP  .MV       01 010 01 01:   Spontaneous Potential
 SFLU.OHMM     10 220 01 01:   SFL Resistivity (Unaveraged)
 ILD .OHMM     05 120 46 01:   Deep Induction Standard Processed Resistivity
#
~Parameter Information Block
#MNEM.UNIT            Value               Description
#----------    --------------------    -------------------
 RUN .                         ONE:    Run Number
 PDAT.                         UNK:    Permanent Datum
 EPD .M                 -9999.5000:    Elevation Of Perm. Datum
 WSTA.                         LOC:    
 TD  .M                  2300.0000:    Total Depth
#
~Other Information Block
<DescLogPlotStart>   NEURALOG PLOT DEFINITION
PLOTDEFVERSION: 3
LASFILE: C:\Users\wadet\Desktop\Alphabow Evaluation\well_info\second_white_spec
DEPTHSCALE: 240.000000
RESOLUTION: 200
DEPTHLABELFREQ: 50.000000
HEAVYGRIDFREQ: 50.000000
MEDIUMGRIDFREQ: 25.000000
LIGHTGRIDFREQ: 5.000000
#
#   TRACK 1
#
STARTTRACK: 
 LEFTX: 0.500000 inch
 RIGHTX: 3.000000 inch
 SCALETYPE: Linear
 NUMCHARTDIVISIONS: 9
CURVE: SP    -80.000000 20.000000  (0,0,255)      Solid             2     N    
ENDTRACK: 
#
#   TRACK 2
#
STARTTRACK: 
 LEFTX: 3.500000 inch
 RIGHTX: 8.500000 inch
 SCALETYPE: Linear
 NUMCHARTDIVISIONS: 34
CURVE: SFLU  2.000000   2000.000000 (0,131,131)    Solid             2     N   
CURVE: ILD   2.000000   2000.000000 (255,0,255)    Dot               2     N   
ENDTRACK: 
<DescLogPlotEnd>
~A DEPTH     SP               SFLU             ILD             
# ...
   2064.3000 -18.70688655     865.04605869     818.13701005    
   2064.4524 -18.69666977     859.54374550     815.77236369    
   2064.6048 -18.54315214     851.71163121     811.46816045    
   2064.7572 -18.50116782     845.99705980     810.36529132    
   2064.9096 -18.45374368     840.97468572     811.46120784    
   2065.0620 -18.42775126     813.47975235     813.04958181    
   2065.2144 -18.53995389     808.30465926     818.54849991    
   2065.3668 -18.68821339     812.17989449     824.66446778    
   2065.5192 -18.54675601     817.23642808     830.84509922    
   2065.6716 -18.46087616     841.09854425     834.23996442    
   2065.8240 -18.29357675     877.74723150     840.19612739    
   2065.9764 -18.40574978     890.97593405     844.86127488    
   2066.1288 -18.68899156     897.74023784     852.61181504    
   2066.2812 -18.70649735     896.47073012     857.24888789    
   2066.4336 -18.70014704     896.02498976     860.07465273    
   2066.5860 -18.68661471     896.48929765     863.14139309    
   2066.7384 -18.68981600     900.30269998     867.89381872    
   2066.8908 -18.70809385     901.99762626     871.91417565    
   2067.0432 -19.01911955     897.74111879     873.38354962    
   2067.1956 -19.16261548     889.40817745     880.42439090    
   2067.3480 -19.17671594     878.57852881     876.69712118    
   2067.5004 -18.66542645     849.53593575     874.17962122    
   2067.6528 -18.53218860     840.79081410     871.58775041    
   2067.8052 -18.48869026     841.04180614     873.43874112    
   2067.9576 -18.33161496     853.85989021     873.38245150    
   2068.1100 -18.28615191     876.78731552     873.43321364    
   2068.2624 -18.34631386     885.27139167     873.40771656    
   2068.4148 -18.67197307     887.86227481     869.37557905    
   2068.5672 -19.26570327     885.73883723     867.29012983    
   2068.7196 -19.39718721     879.54753515     867.21582263    
   2068.8720 -19.32011173     873.81766759     865.36543649    
   2069.0244 -19.21807908     873.36107120     856.93115561    
   2069.1768 -19.35609953     873.38011323     851.05783420    
   2069.3292 -19.49535393     871.14955523     846.46404170    
   2069.4816 -19.49155442     869.00512148     841.93060048    
   2069.6340 -19.33385777     869.64986052     838.48650133    
   2069.7864 -19.31296388     871.77690917     840.10174202    
   2069.9388 -19.11891360     874.91538200     842.35363077    
   2070.0912 -18.77959775     874.05392685     838.44402477    
   2070.2436 -18.70566166     873.15386989     842.74267834    
   2070.3960 -18.71127529     873.06764523     842.51486536    
   2070.5484 -18.73140746     875.16149322     841.77717082    
   2070.7008 -18.45068400     871.95394435     838.99908500    
   2070.8532 -18.14376378     863.88843673     836.26821044    
   2071.0056 -18.13968931     854.24330342     833.53801196    
   2071.1580 -18.33685886     850.84942697     833.10275815    
   2071.3104 -18.47634681     850.76863375     835.85799601    
   2071.4628 -18.46181748     850.81282773     831.89212603    
   2071.6152 -18.43869778     850.36678936     825.46451498    
   2071.7676 -18.41440733     849.10250954     819.09959967    
   2071.9200 -18.39074473     847.52585088     812.86200677    
   2072.0724 -18.36708369     816.91624590     807.48945501    
   2072.2248 -18.34342265     811.75523361     806.75959789    
   2072.3772 -18.31976161     802.75090597     803.66253544    
   2072.5296 -18.29610057     810.72976034     802.60645566    
   2072.6820 -18.27243953     810.33252533     802.68842555    
   2072.8344 -18.24877848     801.49179739     809.31967416    
   2072.9868 -18.22511744     803.47296265     811.12545918    
   2073.1392 -18.20145640     803.91773470     814.79688166    
   2073.2916 -18.17779441     802.65030714     822.14427250    
   2073.4440 -18.15415549     824.19470697     824.14044198    
   2073.5964 -18.13052710     838.67523060     828.66310071    
   2073.7488 -18.10656121     827.60643450     836.10850929    
   2073.9012 -18.07759647     820.03076971     840.73136070    
   2074.0536 -18.03114778     828.61569348     850.93107794    
   2074.2060 -17.98575784     839.57499983     848.98343216    
   2074.3584 -17.94044669     842.84929691     842.72294592    
   2074.5108 -17.89508368     829.82248069     846.24336126    
   2074.6632 -17.84971752     820.20768273     846.69238406    
   2074.8156 -17.80435136     817.86906965     846.74351426    
   2074.9680 -17.75898520     817.79352446     842.99375070    
   2075.1204 -17.71361904     818.69262870     837.08744153    
   2075.2728 -17.66825287     830.93281120     829.93193218    
   2075.4252 -17.62227294     849.37561685     836.71076187    
   2075.5776 -17.57540987     857.23047935     841.04857272    
   2075.7300 -17.53962673     847.87554930     847.67067010    
   2075.8824 -17.53200362     872.37321982     870.76466527    
   2076.0348 -17.28942882     878.40755619     890.72639443    
   2076.1872 -17.70572426     889.11325443     898.71157575    
   2076.3396 -17.74304167     892.13333763     901.33957598    
   2076.4920 -17.66764510     900.23146608     902.88838242    
   2076.6444 -17.68661125     899.77501335     904.44119622    
   2076.7968 -17.69224289     892.91069884     905.95420212    
   2076.9492 -17.30808437     884.49087115     909.40701338    
   2077.1016 -17.26850515     895.86099534     914.90375384    
   2077.2540 -17.26763329     892.31627313     920.48303573    
   2077.4064 -17.26960576     900.07288684     920.82954774    
   2077.5588 -17.26929964     899.72031298     920.87692007    
   2077.7112 -17.25967131     905.01065218     924.29702973    
   2077.8636 -17.10362875     914.88366222     926.05149660    
   2078.0160 -17.06120874     916.22209468     923.52985586    
   2078.1684 -17.06622594     902.40998435     920.95553202    
   2078.3208 -17.02212444     909.76411170     922.47855898    
   2078.4732 -16.86430901     900.45604166     920.67020750    
   2078.6256 -16.89717420     899.98406893     918.97528156    
   2078.7780 -17.03716907     897.51126532     918.69144814    
   2078.9304 -17.23005677     896.09305894     918.06302824    
   2079.0828 -17.06919756     894.37242885     915.02459849    
   2079.2352 -17.06231606     889.06351736     912.85125527    
   2079.3876 -17.07158053     896.09894700     910.78185800    
   2079.5400 -17.23018788     898.95195540     906.03736475    
   2079.6924 -17.29040545     900.41652851     901.14633738    
   2079.8448 -17.09899960     898.09605095     900.18259209    
   2079.9972 -17.46327670     897.60347178     898.38814117    
   2080.1496 -17.70805560     896.48701140     894.94705578    
   2080.3020 -18.08124832     896.19636688     892.33669592    
   2080.4544 -18.31197606     898.77464769     894.38886494    
   2080.6068 -18.30099787     891.42707265     897.58817429    
   2080.7592 -18.30804692     893.66981362     898.16124988    
   2080.9116 -18.40387509     890.16643949     895.46911582    
   2081.0640 -18.90476508     890.22527716     894.14340093    
   2081.2164 -18.99547963     889.47114567     892.57956033    
   2081.3688 -19.26878906     888.97173823     896.91981318    
   2081.5212 -19.32515462     883.44535027     898.25491808    
   2081.6736 -19.32111988     880.33072097     894.98902149    
   2081.8260 -19.32326016     876.66611246     891.50343459    
   2081.9784 -19.10639598     878.04882988     888.06679761    
   2082.1308 -19.18714522     892.81025129     885.74832339    
   2082.2832 -19.25369997     911.61185833     885.95525636    
   2082.4356 -19.31547003     914.33383033     881.93582563    
   2082.5880 -19.37767699     916.93543970     877.79224831    
   2082.7404 -19.44005196     916.70892012     877.14905334    
   2082.8928 -19.50378690     913.95764040     875.19281415    
   2083.0452 -19.47089764     907.66952554     870.93091015    
   2083.1976 -19.37891336     899.52913964     866.69781143    
