~Version Information Block
 VERS.                2.00:     CWLS LOG ASCII STANDARD - VERSION 2.000000
 WRAP.                  NO:     One Line Per Depth Step
#
~Well Information Block
#MNEM.UNIT                     Data                         Information
#----------   ------------------------------------------   ----------------
 STRT.M                                      2015.0000:     START DEPTH
 STOP.M                                      2349.9752:     STOP DEPTH
 STEP.M                                         0.1524:     STEP
 NULL.                                       -999.2500:     NULL VALUE
 COMP.                                        Alphabow:     COMPANY
 WELL.                   SOC PINE CK 4-15-56-19 #92507:     WELL
 FLD .                                      Pine Creek:     FIELD
 LOC .                           100/04-15-056-19W5/00:     LOCATION
 CNTY.                                                :     COUNTY
 STAT.                                         Alberta:     STATE
 CTRY.                                          Canada:     COUNTRY
 SRVC.                                                :     SERVICE COMPANY
 DATE.                                      03/27/2025:     DATE
 API .                                100041505619W500:     API NUMBER
 UWI .                                100041505619W500:     UWI NUMBER
 TVD .                                              NO:     TVD flag
 WSTA.                                             LOC:     Well status
#
~Curve Information Block
#MNEM.UNIT       API CODE      Curve Description
#----------    -------------   -------------------
 DEPT.M                    :   Depth in Meters
 CALI.mm       70 280 01 01:   Caliper
 GR  .GAPI     35 310 01 01:   Gamma Ray
 RHOB.kg/m3     42 350 01 01:   Bulk Density
#
~Parameter Information Block
#MNEM.UNIT            Value               Description
#----------    --------------------    -------------------
 RUN .                         ONE:    Run Number
 PDAT.                         UNK:    Permanent Datum
 EPD .M                 -9999.5000:    Elevation Of Perm. Datum
 TD  .M                  2350.0000:    Total Depth
 WSTA.                         LOC:    
 LATB.M                     0.0000:    
 LONB.M                     0.0000:    
#
~Other Information Block
<DescLogPlotStart>   NEURALOG PLOT DEFINITION
PLOTDEFVERSION: 3
LASFILE: C:\Users\wadet\Desktop\Alphabow Evaluation\well_info\second_white_spec
DEPTHSCALE: 600.000000
RESOLUTION: 200
DEPTHLABELFREQ: 100.000000
HEAVYGRIDFREQ: 50.000000
MEDIUMGRIDFREQ: 25.000000
LIGHTGRIDFREQ: 25.000000
#
#   TRACK 1
#
STARTTRACK: 
 LEFTX: 0.500000 inch
 RIGHTX: 3.000000 inch
 SCALETYPE: Linear
 NUMCHARTDIVISIONS: 9
CURVE: CALI  125.000000 375.000000 (0,0,255)      Solid             2     N    
CURVE: GR    0.000000   150.000000 (0,131,131)    Dot               2     Y    
BACKUP: 150.000000 300.000000 (0,131,131)    Dot               2    
ENDTRACK: 
#
#   TRACK 2
#
STARTTRACK: 
 LEFTX: 3.500000 inch
 RIGHTX: 8.500000 inch
 SCALETYPE: Linear
 NUMCHARTDIVISIONS: 17
CURVE: RHOB  2000.000000 3000.000000 (255,0,255)    Solid             2     N  
ENDTRACK: 
<DescLogPlotEnd>
~A DEPTH     CALI             GR               RHOB            
# ...
   2167.4000 248.42632867     124.73616555     2454.21259690   
   2167.5524 249.08581717     124.69922351     2471.76153344   
   2167.7048 249.75261319     125.36350329     2478.81280018   
   2167.8572 250.41402723     125.62285193     2496.68035649   
   2168.0096 251.07954198     124.75496981     2495.17607097   
   2168.1620 251.74598629     124.07691518     2491.63542433   
   2168.3144 252.40892473     123.83375921     2493.04638713   
   2168.4668 253.07621071     125.93717754     2492.62740190   
   2168.6192 253.73693358     127.85707151     2482.66153161   
   2168.7716 254.40673747     130.58364574     2465.86993348   
   2168.9240 255.25735981     131.25899447     2452.76179702   
   2169.0764 256.67074547     130.28147692     2447.31393030   
   2169.2288 258.06751866     128.16273818     2449.59690277   
   2169.3812 259.48301234     124.10240396     2458.61815429   
   2169.5336 260.56823579     120.42183319     2474.29291204   
   2169.6860 260.38981360     117.29931913     2488.48833692   
   2169.8384 260.22292701     115.15693935     2501.11256072   
   2169.9908 260.07932206     115.44623350     2513.48343044   
   2170.1432 259.91253130     116.72517610     2518.54398325   
   2170.2956 259.76831664     117.61472554     2523.08640243   
   2170.4480 259.60261293     118.86436952     2528.17886329   
   2170.6004 258.55843686     119.77885066     2532.70727608   
   2170.7528 256.91570248     120.72024042     2537.78495033   
   2170.9052 255.28903347     121.02048602     2552.52204879   
   2171.0576 253.64851333     119.48941610     2565.08649926   
   2171.2100 252.96714644     118.24056719     2580.32898284   
   2171.3624 253.19994755     116.39838554     2563.03651191   
   2171.5148 253.44073415     116.38053616     2524.60302173   
   2171.6672 253.67513817     118.56016242     2498.44736489   
   2171.8196 253.91475970     119.15520860     2477.13570755   
   2171.9720 254.14935013     120.10206888     2470.31810559   
   2172.1244 254.38667464     121.00572515     2472.96756199   
   2172.2768 254.62156269     120.71906100     2469.32062909   
   2172.4292 254.85868994     120.38680764     2458.47717664   
   2172.5816 255.09372704     120.10024017     2451.82815761   
   2172.7340 255.33075201     120.07876517     2470.82802772   
   2172.8864 255.56584861     118.86275107     2494.13833890   
   2173.0388 255.80132920     118.53489396     2547.12858682   
   2173.1912 256.03586477     119.48129565     2562.36012055   
   2173.3436 256.27097350     121.32692337     2575.84884065   
   2173.4960 256.50588715     122.87817115     2567.51368864   
   2173.6484 256.74223855     123.49592132     2565.59523365   
   2173.8008 256.97858994     123.17623211     2557.13965235   
   2173.9532 257.21494133     121.64404675     2552.22077397   
   2174.1056 257.45129273     119.76695091     2556.01343455   
   2174.2580 257.68764412     119.17746332     2555.37220196   
   2174.4104 257.92399551     119.14428601     2543.56287742   
   2174.5628 258.16034690     119.18481618     2516.28220596   
   2174.7152 258.39669830     119.44797430     2487.82483074   
   2174.8676 258.63304969     117.94803363     2486.44110855   
   2175.0200 258.86940108     117.71541088     2490.72431197   
   2175.1724 259.10575859     117.56613684     2494.86885865   
   2175.3248 259.34120214     117.27971811     2499.46135570   
   2175.4772 259.57770010     118.25769574     2503.66867191   
   2175.6296 259.81275164     120.07223474     2508.21084856   
   2175.7820 260.04988554     120.11161623     2512.44803532   
   2175.9344 260.28406933     119.46075087     2516.91463832   
   2176.0868 260.52227654     118.24477789     2521.22075674   
   2176.2392 260.75522081     116.37615951     2525.65326065   
   2176.3916 260.99478316     115.75498846     2530.00521912   
   2176.5440 261.22631584     116.38892442     2534.39818972   
   2176.6964 261.46728169     116.97841680     2538.77985409   
   2176.8488 261.69748533     117.64207381     2543.13844421   
   2177.0012 261.93964137     116.65566776     2547.49174390   
   2177.1536 262.16885235     115.79981994     2549.44765391   
   2177.3060 262.41178749     114.47670797     2546.35377477   
   2177.4584 262.64447921     114.26240760     2539.20617358   
   2177.6108 262.30913562     116.94514192     2529.84741913   
   2177.7632 261.95380386     117.67048290     2510.40066548   
   2177.9156 261.61221079     120.03960835     2487.52595780   
   2178.0680 261.25761061     119.21883243     2479.55001262   
   2178.2204 260.91504246     118.18589030     2465.79005750   
   2178.3728 260.56161202     116.73325696     2468.30012407   
   2178.5252 260.21773721     116.33465582     2484.26735845   
   2178.6776 259.86568707     117.02644574     2494.15351424   
   2178.8300 259.52042346     117.89320383     2502.73807507   
   2178.9824 259.16970728     118.87097424     2504.52451315   
   2179.1348 258.82322258     119.14894409     2520.17865926   
   2179.2872 258.47356509     119.78720477     2511.68858699   
   2179.4396 258.12622260     120.40128923     2497.51231152   
   2179.5920 257.79875644     121.01077112     2487.07742919   
   2179.7444 257.48394045     121.33883153     2512.92385967   
   2179.8968 257.16799681     121.61612363     2525.21224095   
   2180.0492 256.85225669     121.65995060     2518.12705281   
   2180.2016 256.53632635     121.60591016     2513.38231648   
   2180.3540 256.22056142     121.67005461     2503.66855066   
   2180.5064 255.90465717     120.66882949     2489.01240729   
   2180.6588 255.58886612     119.19971650     2488.25380873   
   2180.8112 255.27298680     118.18427674     2491.00417258   
   2180.9636 254.95717310     116.42126002     2492.46225630   
   2181.1160 254.64131323     116.32435436     2483.70269774   
   2181.2684 254.32548399     116.73616656     2478.11649469   
   2181.4208 254.00963528     118.48878421     2456.81220583   
   2181.5732 253.69379948     119.52552984     2443.18522095   
   2181.7256 253.37795281     120.65699437     2439.20216765   
   2181.8780 253.06211916     121.07342400     2447.40869108   
   2182.0304 252.74630319     120.34915440     2457.69508724   
   2182.1828 252.43048723     118.59436543     2466.11284665   
   2182.3352 252.11467127     117.56320415     2476.22145407   
   2182.4876 251.79907700     115.49737212     2473.39142988   
   2182.6400 251.48372172     114.77977557     2473.07962331   
   2182.7924 251.16814218     114.87780818     2463.10428627   
   2182.9448 250.85289626     114.46783312     2465.84383414   
   2183.0972 250.53678609     114.56998400     2461.04379612   
   2183.2496 250.22180544     115.08336369     2453.51648150   
   2183.4020 249.90521398     115.81113621     2439.37713334   
   2183.5544 249.59088694     115.69742511     2427.78349465   
   2183.7068 249.27348942     115.50649856     2422.81791516   
   2183.8592 248.96009133     117.24192398     2419.54957019   
   2184.0116 248.64167983     117.98784407     2432.00900932   
   2184.1640 248.32933653     118.47867715     2453.60691011   
   2184.3164 248.00987758     117.68036528     2483.53758796   
   2184.4688 247.69852498     116.61970354     2513.49529897   
   2184.6212 247.37817995     113.96141724     2536.14158895   
   2184.7736 247.20993286     113.83524478     2546.55259501   
   2184.9260 247.35030160     113.91526150     2546.43962848   
   2185.0784 247.50129365     113.68190482     2550.37160957   
   2185.2308 247.67444623     113.62915011     2556.75954592   
   2185.3832 247.60962848     114.77874808     2560.88751290   
   2185.5356 247.51425966     115.78303200     2574.30340557   
   2185.6880 247.42857950     116.95907856     2579.46336429   
   2185.8404 247.33395866     117.00930553     2578.43137255   
   2185.9928 247.24738524     116.35500279     2572.23942208   
   2186.1452 247.15375898     116.07065482     2558.82352941   
   2186.2976 247.06613769     116.06135897     2551.59958720   
