~Version Information Block
 VERS.                2.00:     CWLS LOG ASCII STANDARD - VERSION 2.000000
 WRAP.                  NO:     One Line Per Depth Step
#
~Well Information Block
#MNEM.UNIT                     Data                         Information
#----------   ------------------------------------------   ----------------
 STRT.M                                      2015.0000:     START DEPTH
 STOP.M                                      2349.9752:     STOP DEPTH
 STEP.M                                         0.1524:     STEP
 NULL.                                       -999.2500:     NULL VALUE
 COMP.                                        Alphabow:     COMPANY
 WELL.                   SOC PINE CK 4-15-56-19 #92507:     WELL
 FLD .                                      Pine Creek:     FIELD
 LOC .                           100/04-15-056-19W5/00:     LOCATION
 CNTY.                                                :     COUNTY
 STAT.                                         Alberta:     STATE
 CTRY.                                          Canada:     COUNTRY
 SRVC.                                                :     SERVICE COMPANY
 DATE.                                      03/27/2025:     DATE
 API .                                100041505619W500:     API NUMBER
 UWI .                                100041505619W500:     UWI NUMBER
 TVD .                                              NO:     TVD flag
 WSTA.                                             LOC:     Well status
#
~Curve Information Block
#MNEM.UNIT       API CODE      Curve Description
#----------    -------------   -------------------
 DEPT.M                    :   Depth in Meters
 CALI.mm       70 280 01 01:   Caliper
 GR  .GAPI     35 310 01 01:   Gamma Ray
 RHOB.kg/m3     42 350 01 01:   Bulk Density
#
~Parameter Information Block
#MNEM.UNIT            Value               Description
#----------    --------------------    -------------------
 RUN .                         ONE:    Run Number
 PDAT.                         UNK:    Permanent Datum
 EPD .M                 -9999.5000:    Elevation Of Perm. Datum
 TD  .M                  2350.0000:    Total Depth
 WSTA.                         LOC:    
 LATB.M                     0.0000:    
 LONB.M                     0.0000:    
#
~Other Information Block
<DescLogPlotStart>   NEURALOG PLOT DEFINITION
PLOTDEFVERSION: 3
LASFILE: C:\Users\wadet\Desktop\Alphabow Evaluation\well_info\second_white_spec
DEPTHSCALE: 600.000000
RESOLUTION: 200
DEPTHLABELFREQ: 100.000000
HEAVYGRIDFREQ: 50.000000
MEDIUMGRIDFREQ: 25.000000
LIGHTGRIDFREQ: 25.000000
#
#   TRACK 1
#
STARTTRACK: 
 LEFTX: 0.500000 inch
 RIGHTX: 3.000000 inch
 SCALETYPE: Linear
 NUMCHARTDIVISIONS: 9
CURVE: CALI  125.000000 375.000000 (0,0,255)      Solid             2     N    
CURVE: GR    0.000000   150.000000 (0,131,131)    Dot               2     Y    
BACKUP: 150.000000 300.000000 (0,131,131)    Dot               2    
ENDTRACK: 
#
#   TRACK 2
#
STARTTRACK: 
 LEFTX: 3.500000 inch
 RIGHTX: 8.500000 inch
 SCALETYPE: Linear
 NUMCHARTDIVISIONS: 17
CURVE: RHOB  2000.000000 3000.000000 (255,0,255)    Solid             2     N  
ENDTRACK: 
<DescLogPlotEnd>
~A DEPTH     CALI             GR               RHOB            
# ...
   2110.2500 255.12395414     114.08155469     2396.80082559   
   2110.4024 255.17318559     113.02349476     2422.60061920   
   2110.5548 255.22205075     113.10784600     2434.98452012   
   2110.7072 255.27126405     114.34591104     2456.65634675   
   2110.8596 255.32015641     114.26315737     2482.45614035   
   2111.0120 255.36933501     114.77288466     2510.31991744   
   2111.1644 255.41826768     113.83495386     2537.15170279   
   2111.3168 255.46740252     114.58936362     2568.11145511   
   2111.4692 255.51638009     113.70318194     2590.81527348   
   2111.6216 255.56547117     112.54348290     2589.78328173   
   2111.7740 255.61448923     113.82726192     2584.62332301   
   2111.9264 255.66354496     107.44760116     2569.14344685   
   2112.0788 255.71247934     103.25832216     2531.99174407   
   2112.2312 255.76141372     100.97764539     2501.03199174   
   2112.3836 255.81034809     99.21722606      2485.55211558   
   2112.5360 255.85928247     55.77492249      2479.36016512   
   2112.6884 255.90821685     60.05174978      2543.23665635   
   2112.8408 255.95715122     66.02145354      2603.75628483   
   2112.9932 256.00608560     70.49827585      2651.70278638   
   2113.1456 256.05501998     76.35389465      2606.29514964   
   2113.2980 256.10395435     81.72230417      2553.66357069   
   2113.4504 256.15288873     84.49805179      2480.39215686   
   2113.6028 256.20182311     86.73555486      2404.02476780   
   2113.7552 256.25075748     88.32218968      2299.79360165   
   2113.9076 256.29969186     85.88142134      2402.99277606   
   2114.0600 256.34862624     83.83863267      2406.86948325   
   2114.2124 256.39756062     81.57671479      2452.78382865   
   2114.3648 256.44649499     79.83268256      2450.28215836   
   2114.5172 256.49542937     78.17032756      2448.57600230   
   2114.6696 256.54436375     76.75664095      2469.97999613   
   2114.8220 256.59329812     75.38999095      2440.22609524   
   2114.9744 256.64223250     73.92970497      2425.72727559   
   2115.1268 256.69116688     72.72490492      2423.65025122   
   2115.2792 256.74010125     82.81056407      2425.83128546   
   2115.4316 256.78967254     88.30884764      2437.00455898   
   2115.5840 256.83880051     91.01431015      2451.65276978   
   2115.7364 256.88859709     93.84038155      2620.58391707   
   2115.8888 256.93740716     96.55453085      2547.56610071   
   2116.0412 256.98760509     99.36780655      2547.33637403   
   2116.1936 257.03594480     102.09483364     2301.95657237   
   2116.3460 257.08666306     104.89112345     2300.90843488   
   2116.4984 257.13445513     107.61617586     2371.98599090   
   2116.6508 257.18572328     110.41687183     2421.76655644   
   2116.8032 257.23298926     113.15669089     2469.80318151   
   2116.9556 257.28473411     115.93004088     2505.51679517   
   2117.1080 257.33184698     118.69229542     2529.44227061   
   2117.2604 257.38082429     120.98636151     2544.92144006   
   2117.4128 257.42774871     121.29698676     2544.72199711   
   2117.5652 257.47542429     121.54716098     2532.72394732   
   2117.7176 257.93351939     121.83034456     2522.93309168   
   2117.8700 258.57782026     122.07520676     2522.53188210   
   2118.0224 259.23012994     122.35182607     2532.14783863   
   2118.1748 259.87021783     122.59958746     2540.18504652   
   2118.3272 260.52711997     122.87297819     2541.37765846   
   2118.4796 261.16437137     123.12413416     2540.17025993   
   2118.6320 261.82697997     123.39413114     2534.05762451   
   2118.7844 262.46040511     123.64851941     2530.87534803   
   2118.9368 263.12617808     123.91559078     2514.48499750   
   2119.0892 263.75726517     124.17247611     2500.97885013   
   2119.2416 264.42442833     124.43757109     2489.74281278   
   2119.3940 265.21605479     124.69585420     2502.02133658   
   2119.5464 264.09291892     124.96056164     2534.10574878   
   2119.6988 262.55779105     125.21913442     2543.28823253   
   2119.8512 261.05224935     125.48102966     2564.08045630   
   2120.0036 259.52048230     125.64071340     2623.33446352   
   2120.1560 258.01110907     125.53963291     2629.41434507   
   2120.3084 256.48497625     125.43564230     2634.06566485   
   2120.4608 254.96956249     125.32618884     2655.82523701   
   2120.6132 253.44998098     125.21862041     2634.01193480   
   2120.7656 253.17005448     125.10575683     2600.15084579   
   2120.9180 253.73146699     125.00230584     2570.05093729   
   2121.0704 254.28270435     124.88345256     2552.83041233   
   2121.2228 254.84746049     124.79603336     2550.56759546   
   2121.3752 255.39702781     124.68202259     2549.53560372   
   2121.5276 255.96169622     124.60314430     2547.47162023   
   2121.6800 256.51309294     124.48098909     2531.99174407   
   2121.8324 257.07457804     124.66514387     2529.92776058   
   2121.9848 256.84620541     125.39496808     2513.41589267   
   2122.1372 254.45170357     126.17712851     2518.57585139   
   2122.2896 252.05955757     126.90844006     2523.73581011   
   2122.4420 249.65960513     127.68573338     2566.04747162   
   2122.5944 247.27275025     128.42443892     2572.23942208   
   2122.7468 244.86791580     124.21387809     2489.88631579   
   2122.8992 242.52259635     116.35243894     2368.93704850   
   2123.0516 242.23962210     108.49170657     2418.84826419   
   2123.2040 241.99092197     100.64578860     2467.99372549   
   2123.3564 241.71252534     91.91268705      2737.35810114   
   2123.5088 241.46574018     90.17110955      2691.95046440   
   2123.6612 241.18787461     96.25727562      2697.11042312   
   2123.8136 240.93959924     102.39894359     2684.72652219   
   2123.9660 240.66407072     108.48090240     2672.34262126   
   2124.1184 240.41276851     109.72658844     2638.28689370   
   2124.2708 240.14076518     109.04468767     2622.80701754   
   2124.4232 239.88432983     108.42862516     2605.26315789   
   2124.5756 239.61153448     107.75052178     2582.55933953   
   2124.7280 239.34955684     107.12550429     2563.98348813   
   2124.8804 239.07905633     106.45280250     2552.63157895   
   2125.0328 238.81534805     105.81796995     2541.17850532   
   2125.1852 238.54602512     105.14804883     2529.68376848   
   2125.3376 238.28171021     104.50123567     2517.54385965   
   2125.4900 238.01614157     103.83979904     2511.35190918   
   2125.6424 238.38567616     103.18865641     2527.86377709   
   2125.7948 239.59816672     102.52982418     2548.50361197   
   2125.9472 240.81197755     101.88823231     2570.18281916   
   2126.0996 242.02569480     100.26094925     2591.91703688   
   2126.2520 243.23924687     100.89316139     2601.08797248   
   2126.4044 244.45238564     103.05425999     2599.16411929   
   2126.5568 245.66739431     105.23141079     2592.78928998   
   2126.7092 246.87820915     108.00445100     2582.68430462   
   2126.8616 247.22067648     109.87301192     2580.35486992   
   2127.0140 245.95211023     110.48031714     2576.51576971   
   2127.1664 244.69902908     108.32319089     2551.42326363   
   2127.3188 243.42578288     106.46082841     2529.09061911   
   2127.4712 242.17749247     104.60658916     2530.76438023   
   2127.6236 240.89958055     103.37089631     2592.03764689   
   2127.7760 239.65559546     103.67093307     2712.30461539   
   2127.9284 238.37395969     104.30260827     2695.41609692   
   2128.0808 236.84756327     105.51639410     2673.12083867   
   2128.2332 237.26758093     106.77755948     2651.66886811   
   2128.3856 237.86048978     108.59704522     2629.41455344   
   2128.5380 238.40990678     109.25145307     2602.33742170   
   2128.6904 239.00150423     110.45184006     2605.10101681   
   2128.8428 239.55332839     112.04647282     2607.45616241   
   2128.9952 240.14160600     112.62632730     2593.78593693   
   2129.1476 240.69575023     113.29332398     2567.16541799   
