~Version Information Block
 VERS.                2.00:     CWLS LOG ASCII STANDARD - VERSION 2.000000
 WRAP.                  NO:     One Line Per Depth Step
#
~Well Information Block
#MNEM.UNIT                     Data                         Information
#----------   ------------------------------------------   ----------------
 STRT.M                                      1950.0000:     START DEPTH
 STOP.M                                      2299.9104:     STOP DEPTH
 STEP.M                                         0.1524:     STEP
 NULL.                                       -999.2500:     NULL VALUE
 COMP.                                        Alphabow:     COMPANY
 WELL.                   SOC PINE CK 4-15-56-19 #92507:     WELL
 FLD .                                                :     FIELD
 LOC .                                                :     LOCATION
 CNTY.                                                :     COUNTY
 STAT.                                                :     STATE
 CTRY.                                                :     COUNTRY
 SRVC.                                                :     SERVICE COMPANY
 DATE.                                      03/29/2025:     DATE
 API .                                100041505619W500:     API NUMBER
 UWI .                                100041505619W500:     UWI NUMBER
 TVD .                                              NO:     TVD flag
 WSTA.                                             LOC:     Well status
#
~Curve Information Block
#MNEM.UNIT       API CODE      Curve Description
#----------    -------------   -------------------
 DEPT.M                    :   Depth in Meters
 SP  .MV       01 010 01 01:   Spontaneous Potential
 SFLU.OHMM     10 220 01 01:   SFL Resistivity (Unaveraged)
 ILD .OHMM     05 120 46 01:   Deep Induction Standard Processed Resistivity
#
~Parameter Information Block
#MNEM.UNIT            Value               Description
#----------    --------------------    -------------------
 RUN .                         ONE:    Run Number
 PDAT.                         UNK:    Permanent Datum
 EPD .M                 -9999.5000:    Elevation Of Perm. Datum
 WSTA.                         LOC:    
 TD  .M                  2300.0000:    Total Depth
#
~Other Information Block
<DescLogPlotStart>   NEURALOG PLOT DEFINITION
PLOTDEFVERSION: 3
LASFILE: C:\Users\wadet\Desktop\Alphabow Evaluation\well_info\second_white_spec
DEPTHSCALE: 240.000000
RESOLUTION: 200
DEPTHLABELFREQ: 50.000000
HEAVYGRIDFREQ: 50.000000
MEDIUMGRIDFREQ: 25.000000
LIGHTGRIDFREQ: 5.000000
#
#   TRACK 1
#
STARTTRACK: 
 LEFTX: 0.500000 inch
 RIGHTX: 3.000000 inch
 SCALETYPE: Linear
 NUMCHARTDIVISIONS: 9
CURVE: SP    -80.000000 20.000000  (0,0,255)      Solid             2     N    
ENDTRACK: 
#
#   TRACK 2
#
STARTTRACK: 
 LEFTX: 3.500000 inch
 RIGHTX: 8.500000 inch
 SCALETYPE: Linear
 NUMCHARTDIVISIONS: 34
CURVE: SFLU  2.000000   2000.000000 (0,131,131)    Solid             2     N   
CURVE: ILD   2.000000   2000.000000 (255,0,255)    Dot               2     N   
ENDTRACK: 
<DescLogPlotEnd>
~A DEPTH     SP               SFLU             ILD             
# ...
   2254.8000 -22.77014398     999.10603664     937.11981670    
   2254.9524 -22.83629464     992.72757966     933.34725066    
   2255.1048 -23.47846246     984.53116735     929.55543067    
   2255.2572 -23.83572029     972.36824895     925.77115504    
   2255.4096 -23.83260565     970.05652761     923.00035694    
   2255.5620 -23.86841797     980.56753120     927.42557482    
   2255.7144 -23.87519701     994.87519559     921.39041248    
   2255.8668 -23.87323734     1019.75210676    952.19050076    
   2256.0192 -23.16947340     1034.86186427    983.99522801    
   2256.1716 -22.37825989     1047.54772434    997.29729513    
   2256.3240 -21.85492111     1086.98416575    1012.11303056   
   2256.4764 -21.59579897     1147.08997895    1036.06537320   
   2256.6288 -21.44679788     1220.28973135    1045.24785182   
   2256.7812 -21.62221074     1204.25170555    1046.08656463   
   2256.9336 -21.58077016     1156.83976541    1042.89337212   
   2257.0860 -21.57518020     1087.35775412    1032.47540671   
   2257.2384 -21.58243940     1054.82340580    1019.45631619   
   2257.3908 -21.35018712     1037.81781841    1010.72970840   
   2257.5432 -21.25668255     1029.92305305    996.51910399    
   2257.6956 -21.15096783     1029.90633438    982.03452328    
   2257.8480 -21.04153930     1031.45684323    978.13354655    
   2258.0004 -20.95051351     1033.50222193    970.32416953    
   2258.1528 -20.90292262     1028.17994781    966.62728814    
   2258.3052 -20.85512090     1016.02592292    964.10024673    
   2258.4576 -20.80728084     1007.73063163    959.85685069    
   2258.6100 -20.75946840     1010.38543621    957.95373135    
   2258.7624 -20.71165868     1021.28073085    953.91903751    
   2258.9148 -20.66384896     1032.01197204    957.74399440    
   2259.0672 -20.61603924     1041.80244775    961.16572774    
   2259.2196 -20.56822952     1042.42949708    962.02433895    
   2259.3720 -20.52041980     1037.55334317    960.99679138    
   2259.5244 -20.47261008     1027.92032057    959.72907622    
   2259.6768 -20.42480037     1021.75683894    958.48883252    
   2259.8292 -20.37699065     1015.77648695    957.24640838    
   2259.9816 -20.32918093     1005.73684284    956.00459554    
   2260.1340 -20.28137121     1002.00638390    954.76278196    
   2260.2864 -20.23356149     1002.91577713    953.52118388    
   2260.4388 -20.18575177     1006.82277752    952.27867812    
   2260.5912 -20.13794205     1020.18681380    951.04313812    
   2260.7436 -20.09040666     1026.34117594    949.83328092    
   2260.8960 -20.04368473     1027.68089624    949.52481064    
   2261.0484 -19.99301026     1027.79077203    951.62168055    
   2261.2008 -19.92423028     1031.16816787    953.76713567    
   2261.3532 -20.12300066     1038.55807641    953.62705715    
   2261.5056 -20.32103235     1042.27602185    955.60338621    
   2261.6580 -20.51663267     1039.84370005    963.56511450    
   2261.8104 -20.63022275     1033.73468114    966.80848739    
   2261.9628 -20.73948652     1032.35414332    969.69543552    
   2262.1152 -20.77250017     1033.83534737    972.20453185    
   2262.2676 -21.13418888     1034.29355655    972.20361310    
   2262.4200 -21.37490025     1037.96978857    972.18671019    
   2262.5724 -21.62613121     1044.44546483    974.95294873    
   2262.7248 -21.40384661     1055.90679264    977.79344995    
   2262.8772 -21.16841371     1068.76779901    980.77439116    
   2263.0296 -20.81916140     1077.16058591    983.79468042    
   2263.1820 -21.25523313     1082.70277378    986.87334118    
   2263.3344 -21.37062693     1085.82183288    990.01643374    
   2263.4868 -21.60307578     1091.42992476    999.06101819    
   2263.6392 -21.47400613     1102.34820715    1013.10192312   
   2263.7916 -20.78121970     1115.68568586    1025.12308297   
   2263.9440 -20.36915375     1122.07141689    1030.40833268   
   2264.0964 -19.93725806     1113.96304332    1029.77040497   
   2264.2488 -19.74193453     1094.82548194    1029.62564423   
   2264.4012 -19.72518361     1069.99683991    1026.84419538   
   2264.5536 -19.57146768     1048.61496644    1020.21137727   
   2264.7060 -19.48436065     1038.22679544    1011.76034972   
   2264.8584 -19.33015615     1028.12039872    1005.43163469   
   2265.0108 -19.40669546     1022.64984601    998.87932473    
   2265.1632 -19.53917572     1017.65744702    990.93454539    
   2265.3156 -19.32736188     1022.30599579    980.52194198    
   2265.4680 -19.03721245     1028.28628247    970.47061388    
   2265.6204 -18.27498992     1034.47900881    962.72453515    
   2265.7728 -17.72638442     1035.33706332    959.00684120    
   2265.9252 -17.24884543     1030.45853938    955.44636455    
   2266.0776 -16.90074224     1031.56339865    957.79813135    
   2266.2300 -17.17568367     1035.47087678    957.75762328    
   2266.3824 -18.67414197     1039.60375371    957.78505993    
   2266.5348 -20.10846485     1038.11140207    957.79419905    
   2266.6872 -20.78234520     1026.29111209    957.81417855    
   2266.8396 -20.94849685     1007.29711424    957.77331124    
   2266.9920 -20.77367682     1000.67801938    957.37497463    
   2267.1444 -20.72092967     1000.55948222    964.12420826    
   2267.2968 -20.58362463     1006.96297776    961.68968192    
   2267.4492 -20.34791168     1012.23652184    959.48228971    
   2267.6016 -20.35217220     1015.27716895    957.74452814    
   2267.7540 -20.34951239     1023.75061107    957.79522129    
   2267.9064 -20.34952941     1032.27347008    957.75669310    
   2268.0588 -20.32127387     1031.61949447    957.63601464    
   2268.2112 -20.28231744     1028.85605003    961.52806280    
   2268.3636 -20.24339243     1022.99229597    967.46843961    
   2268.5160 -20.20576250     1023.38598434    973.27954618    
   2268.6684 -20.16240495     1034.86352097    979.01743518    
   2268.8208 -20.11381438     1047.20243403    984.76522936    
   2268.9732 -20.20954554     1053.21992800    987.70948906    
   2269.1256 -20.36507359     1047.76585563    984.33326127    
   2269.2780 -20.57855456     1037.97290254    981.04882738    
   2269.4304 -20.77455291     1030.05587606    977.74735058    
   2269.5828 -20.76727151     1027.62106122    972.52729166    
   2269.7352 -20.90923081     1027.71429553    968.53405138    
   2269.8876 -21.62833106     1027.81057064    964.24696278    
   2270.0400 -21.26302257     1019.53812155    960.00895718    
   2270.1924 -20.92846405     999.15029868     957.08132108    
   2270.3448 -20.75593018     976.01516303     951.83684261    
   2270.4972 -20.56544912     971.17978733     949.16007765    
   2270.6496 -20.29374485     1001.22380491    946.59739167    
   2270.8020 -19.98322629     1039.00196052    943.98940493    
   2270.9544 -19.54956559     1064.62130994    941.38938565    
   2271.1068 -19.71531870     1079.61394875    939.28294692    
   2271.2592 -19.73295045     1076.58050820    941.08354710    
   2271.4116 -19.74484835     1062.63255399    944.72782744    
   2271.5640 -19.90250709     1042.56629053    947.67897613    
   2271.7164 -19.90269333     1027.03990704    951.85521343    
   2271.8688 -19.74211656     1015.32056551    961.00854425    
   2272.0212 -19.72729688     1015.12725276    966.03566233    
   2272.1736 -19.77527521     1017.43481749    962.81766620    
   2272.3260 -19.94922866     1017.12113624    957.83810609    
   2272.4784 -19.73155635     1007.10324646    952.71989904    
   2272.6308 -19.74648968     1003.31652546    950.33774954    
   2272.7832 -19.90818692     1002.60527617    943.35093215    
   2272.9356 -20.10752752     1001.05065381    936.22535773    
   2273.0880 -20.11724050     993.91639228     930.93631653    
   2273.2404 -20.07606478     984.59472962     930.68724763    
   2273.3928 -20.03752787     973.05225670     926.42839830    
   2273.5452 -20.00018704     972.17462959     924.34793188    
   2273.6976 -19.96023969     972.10702639     923.45427703    
