~Version Information Block
 VERS.                2.00:     CWLS LOG ASCII STANDARD - VERSION 2.000000
 WRAP.                  NO:     One Line Per Depth Step
#
~Well Information Block
#MNEM.UNIT                     Data                         Information
#----------   ------------------------------------------   ----------------
 STRT.M                                      2015.0000:     START DEPTH
 STOP.M                                      2349.9752:     STOP DEPTH
 STEP.M                                         0.1524:     STEP
 NULL.                                       -999.2500:     NULL VALUE
 COMP.                                        Alphabow:     COMPANY
 WELL.                   SOC PINE CK 4-15-56-19 #92507:     WELL
 FLD .                                      Pine Creek:     FIELD
 LOC .                           100/04-15-056-19W5/00:     LOCATION
 CNTY.                                                :     COUNTY
 STAT.                                         Alberta:     STATE
 CTRY.                                          Canada:     COUNTRY
 SRVC.                                                :     SERVICE COMPANY
 DATE.                                      03/27/2025:     DATE
 API .                                100041505619W500:     API NUMBER
 UWI .                                100041505619W500:     UWI NUMBER
 TVD .                                              NO:     TVD flag
 WSTA.                                             LOC:     Well status
#
~Curve Information Block
#MNEM.UNIT       API CODE      Curve Description
#----------    -------------   -------------------
 DEPT.M                    :   Depth in Meters
 CALI.mm       70 280 01 01:   Caliper
 GR  .GAPI     35 310 01 01:   Gamma Ray
 RHOB.kg/m3     42 350 01 01:   Bulk Density
#
~Parameter Information Block
#MNEM.UNIT            Value               Description
#----------    --------------------    -------------------
 RUN .                         ONE:    Run Number
 PDAT.                         UNK:    Permanent Datum
 EPD .M                 -9999.5000:    Elevation Of Perm. Datum
 TD  .M                  2350.0000:    Total Depth
 WSTA.                         LOC:    
 LATB.M                     0.0000:    
 LONB.M                     0.0000:    
#
~Other Information Block
<DescLogPlotStart>   NEURALOG PLOT DEFINITION
PLOTDEFVERSION: 3
LASFILE: C:\Users\wadet\Desktop\Alphabow Evaluation\well_info\second_white_spec
DEPTHSCALE: 600.000000
RESOLUTION: 200
DEPTHLABELFREQ: 100.000000
HEAVYGRIDFREQ: 50.000000
MEDIUMGRIDFREQ: 25.000000
LIGHTGRIDFREQ: 25.000000
#
#   TRACK 1
#
STARTTRACK: 
 LEFTX: 0.500000 inch
 RIGHTX: 3.000000 inch
 SCALETYPE: Linear
 NUMCHARTDIVISIONS: 9
CURVE: CALI  125.000000 375.000000 (0,0,255)      Solid             2     N    
CURVE: GR    0.000000   150.000000 (0,131,131)    Dot               2     Y    
BACKUP: 150.000000 300.000000 (0,131,131)    Dot               2    
ENDTRACK: 
#
#   TRACK 2
#
STARTTRACK: 
 LEFTX: 3.500000 inch
 RIGHTX: 8.500000 inch
 SCALETYPE: Linear
 NUMCHARTDIVISIONS: 17
CURVE: RHOB  2000.000000 3000.000000 (255,0,255)    Solid             2     N  
ENDTRACK: 
<DescLogPlotEnd>
~A DEPTH     CALI             GR               RHOB            
# ...
   2034.0500 283.27305452     116.95281637     2504.12624239   
   2034.2024 282.96342611     116.11915596     2477.24258049   
   2034.3548 285.15060028     115.70957061     2463.90610163   
   2034.5072 288.11436027     115.48833736     2471.03995949   
   2034.6596 290.14343422     117.25597247     2475.27522866   
   2034.8120 293.24807930     118.89180478     2485.48576263   
   2034.9644 295.15617731     119.42225457     2468.08021638   
   2035.1168 293.45217180     119.50263612     2468.46036937   
   2035.2692 290.69887456     119.42274071     2469.12849594   
   2035.4216 260.97328226     117.95343717     2448.34611994   
   2035.5740 266.76230628     116.63816842     2416.53120311   
   2035.7264 274.28441856     119.19176091     2391.62306622   
   2035.8788 278.54006532     120.96713562     2361.87079010   
   2036.0312 280.91195791     122.59762328     2355.52736259   
   2036.1836 282.09422772     124.36955086     2383.64927194   
   2036.3360 284.45572816     122.91310276     2407.05575302   
   2036.4884 285.73338520     120.96569557     2419.68024553   
   2036.6408 287.92845881     118.27760602     2439.00499318   
   2036.7932 289.37719310     117.56449050     2439.23587624   
   2036.9456 289.90509698     115.49482824     2454.48847850   
   2037.0980 289.39303417     114.47455633     2474.27995820   
   2037.2504 289.21487624     113.63650113     2485.44581046   
   2037.4028 288.79419922     112.62059144     2481.46883721   
   2037.5552 288.54573301     112.08281586     2473.08663325   
   2037.7076 288.16172461     111.69749710     2470.12573812   
   2037.8600 287.85559144     111.76553250     2482.37578254   
   2038.0124 287.53285163     111.70489792     2507.22553764   
   2038.1648 287.22410302     111.14459421     2528.77234965   
   2038.3172 286.90042644     110.16821991     2545.35302525   
   2038.4696 286.58586269     109.59511334     2535.97692024   
   2038.6220 285.99153472     110.17505216     2509.27353283   
   2038.7744 285.06268643     110.82769194     2481.32730822   
   2038.9268 284.12532788     114.19793755     2457.72536617   
   2039.0792 283.19698346     117.31604948     2447.29584271   
   2039.2316 282.25885174     118.53233838     2436.07981451   
   2039.3840 281.32891428     119.16889215     2431.84951353   
   2039.5364 280.38943312     117.91933247     2429.92181894   
   2039.6888 279.64480930     116.68883524     2427.74129086   
   2039.8412 279.40413625     115.76146380     2426.81256578   
   2039.9936 279.17306672     115.13793404     2447.68196471   
   2040.1460 278.93278820     116.34395938     2463.84953969   
   2040.2984 278.70114202     117.30338252     2474.15541862   
   2040.4508 278.46185215     118.25741059     2483.48312784   
   2040.6032 278.22953430     119.14553802     2478.32382703   
   2040.7556 277.99124243     119.49584796     2464.90735726   
   2040.9080 277.75788316     119.44068448     2450.51643910   
   2041.0604 277.52016859     119.80804580     2441.12861603   
   2041.2128 277.28537258     120.05338925     2434.03539812   
   2041.3652 277.04850935     117.65494704     2424.58982641   
   2041.5176 276.81295068     118.19801948     2426.83549816   
   2041.6700 276.57673026     120.14129688     2448.26422158   
   2041.8224 276.34067221     121.90803786     2463.95565089   
   2041.9748 276.10479292     123.54672835     2472.99254100   
   2042.1272 275.86887093     125.61399454     2463.94271123   
   2042.2796 275.63379095     128.49478187     2447.21021308   
   2042.4320 275.39789306     131.80054468     2423.70883539   
   2042.5844 275.16276667     134.68355634     2407.00976072   
   2042.7368 275.09322034     135.20976785     2400.98583704   
   2042.8892 275.16350422     132.51460459     2401.86720887   
   2043.0416 275.23326170     129.64887977     2404.05036956   
   2043.1940 275.30344246     124.77359190     2402.96191282   
   2043.3464 275.37330549     122.23098845     2402.98261704   
   2043.4988 275.44338345     121.35940550     2413.31715515   
   2043.6512 275.51334160     122.54821104     2420.50795811   
   2043.8036 275.58333648     124.43813102     2424.70330188   
   2043.9560 275.65336213     126.26927446     2419.49197697   
   2044.1084 275.72330766     127.21679003     2418.54275603   
   2044.2608 275.79336307     126.27824291     2418.45579414   
   2044.4132 275.86329871     125.04856514     2403.06008382   
   2044.5656 275.93334500     122.57200839     2393.69136514   
   2044.7180 276.00330683     121.95822083     2350.43235392   
   2044.8704 276.07331270     121.64779510     2324.61666206   
   2045.0228 276.14332564     122.09270081     2297.32267061   
   2045.1752 276.21355534     122.55772203     2265.87867283   
   2045.3276 276.28378504     123.20956101     2287.48157722   
   2045.4800 276.35401475     125.03341421     2304.07286149   
   2045.6324 276.42424445     124.76132867     2320.43540110   
   2045.7848 276.49447415     123.78448345     2352.49652543   
   2045.9372 276.56470386     122.60669834     2383.34018962   
   2046.0896 276.63493356     120.68722225     2423.68903753   
   2046.2420 276.70516326     119.21065145     2460.69053393   
   2046.3944 276.77539297     118.82408302     2459.79532861   
   2046.5468 276.84562267     117.97191206     2443.14098175   
   2046.6992 276.91585237     118.81376421     2417.50398141   
   2046.8516 276.98608208     118.89322462     2396.72357334   
   2047.0040 277.05631178     119.42803082     2383.46249160   
   2047.1564 277.12654148     119.81981402     2400.84329151   
   2047.3088 277.19677119     120.04616639     2419.56051187   
   2047.4612 277.26700089     120.74541278     2446.23009125   
   2047.6136 277.33723059     120.97462137     2455.65244961   
   2047.7660 277.40746030     121.36836889     2455.52059683   
   2047.9184 277.47769000     122.83771428     2450.49295173   
   2048.0708 277.54791971     124.15680460     2430.58086449   
   2048.2232 277.61814282     126.86158079     2413.37546202   
   2048.3756 277.68730088     128.79733389     2395.92592454   
   2048.5280 277.75775011     127.78109304     2378.72306576   
   2048.6804 277.82644346     124.77084527     2361.28076180   
   2048.8328 277.89766000     121.27847030     2342.18973648   
   2048.9852 277.96529720     116.41838608     2352.38484595   
   2049.1376 278.03782741     112.92563013     2371.05419587   
   2049.2900 278.10394109     112.09018864     2396.72824896   
   2049.4424 278.17814289     112.30744199     2408.19275047   
   2049.5948 278.24250960     111.16154436     2425.62610036   
   2049.7472 278.31845410     109.83189207     2439.16143269   
   2049.8996 278.38116458     108.68684675     2435.95259622   
   2050.0520 278.45859874     111.21107957     2426.66381487   
   2050.2044 278.52005951     113.63629277     2412.60391138   
   2050.3568 278.59844106     115.71470349     2398.87284588   
   2050.5092 278.65507139     118.28516090     2382.22721903   
   2050.6616 278.04055655     117.57735122     2368.05255140   
   2050.8140 277.44394827     114.88558594     2371.92203475   
   2050.9664 276.86434391     112.62680294     2381.48844146   
   2051.1188 276.26864673     111.47693367     2385.34588500   
   2051.2712 275.68770455     112.93079947     2361.87704861   
   2051.4236 275.09688142     114.25267150     2339.98852037   
   2051.5760 274.51404801     116.33003443     2321.63131057   
   2051.7284 273.92644223     116.41541170     2335.90001292   
   2051.8808 273.33952692     115.71592908     2358.72936641   
   2052.0332 272.75721697     115.48278082     2385.44944030   
   2052.1856 272.16157356     115.41085858     2395.82690716   
   2052.3380 271.58571854     115.16651061     2396.82965025   
   2052.4904 270.98247531     115.42000065     2386.48844163   
   2052.6428 270.41510360     116.08872722     2373.11535500   
   2052.7952 269.80279360     117.90594526     2377.15319879   
   2052.9476 269.24472023     118.86656531     2359.70263791   
