~Version Information Block
 VERS.                2.00:     CWLS LOG ASCII STANDARD - VERSION 2.000000
 WRAP.                  NO:     One Line Per Depth Step
#
~Well Information Block
#MNEM.UNIT                     Data                         Information
#----------   ------------------------------------------   ----------------
 STRT.M                                      1950.0000:     START DEPTH
 STOP.M                                      2299.9104:     STOP DEPTH
 STEP.M                                         0.1524:     STEP
 NULL.                                       -999.2500:     NULL VALUE
 COMP.                                        Alphabow:     COMPANY
 WELL.                   SOC PINE CK 4-15-56-19 #92507:     WELL
 FLD .                                                :     FIELD
 LOC .                                                :     LOCATION
 CNTY.                                                :     COUNTY
 STAT.                                                :     STATE
 CTRY.                                                :     COUNTRY
 SRVC.                                                :     SERVICE COMPANY
 DATE.                                      03/29/2025:     DATE
 API .                                100041505619W500:     API NUMBER
 UWI .                                100041505619W500:     UWI NUMBER
 TVD .                                              NO:     TVD flag
 WSTA.                                             LOC:     Well status
#
~Curve Information Block
#MNEM.UNIT       API CODE      Curve Description
#----------    -------------   -------------------
 DEPT.M                    :   Depth in Meters
 SP  .MV       01 010 01 01:   Spontaneous Potential
 SFLU.OHMM     10 220 01 01:   SFL Resistivity (Unaveraged)
 ILD .OHMM     05 120 46 01:   Deep Induction Standard Processed Resistivity
#
~Parameter Information Block
#MNEM.UNIT            Value               Description
#----------    --------------------    -------------------
 RUN .                         ONE:    Run Number
 PDAT.                         UNK:    Permanent Datum
 EPD .M                 -9999.5000:    Elevation Of Perm. Datum
 WSTA.                         LOC:    
 TD  .M                  2300.0000:    Total Depth
#
~Other Information Block
<DescLogPlotStart>   NEURALOG PLOT DEFINITION
PLOTDEFVERSION: 3
LASFILE: C:\Users\wadet\Desktop\Alphabow Evaluation\well_info\second_white_spec
DEPTHSCALE: 240.000000
RESOLUTION: 200
DEPTHLABELFREQ: 50.000000
HEAVYGRIDFREQ: 50.000000
MEDIUMGRIDFREQ: 25.000000
LIGHTGRIDFREQ: 5.000000
#
#   TRACK 1
#
STARTTRACK: 
 LEFTX: 0.500000 inch
 RIGHTX: 3.000000 inch
 SCALETYPE: Linear
 NUMCHARTDIVISIONS: 9
CURVE: SP    -80.000000 20.000000  (0,0,255)      Solid             2     N    
ENDTRACK: 
#
#   TRACK 2
#
STARTTRACK: 
 LEFTX: 3.500000 inch
 RIGHTX: 8.500000 inch
 SCALETYPE: Linear
 NUMCHARTDIVISIONS: 34
CURVE: SFLU  2.000000   2000.000000 (0,131,131)    Solid             2     N   
CURVE: ILD   2.000000   2000.000000 (255,0,255)    Dot               2     N   
ENDTRACK: 
<DescLogPlotEnd>
~A DEPTH     SP               SFLU             ILD             
# ...
   2045.2500 -14.93209639     908.68899397     863.15147211    
   2045.4024 -14.84135597     907.74870958     861.37887824    
   2045.5548 -14.59441990     911.04038943     858.54519554    
   2045.7072 -14.63955716     914.00997180     855.63558732    
   2045.8596 -14.84359947     913.14290674     854.93742052    
   2046.0120 -15.14443049     907.34401602     854.82343807    
   2046.1644 -15.62144894     896.89888066     852.60662972    
   2046.3168 -15.67558603     883.74316046     844.67842159    
   2046.4692 -15.78118046     877.46963941     837.06546368    
   2046.6216 -15.60988339     871.03958691     831.60642578    
   2046.7740 -15.65685001     872.39387320     830.01133794    
   2046.9264 -15.58017017     875.10156016     828.35433182    
   2047.0788 -15.45953710     874.45211565     826.69867935    
   2047.2312 -15.42432831     871.62117851     825.04763271    
   2047.3836 -15.42407969     869.64306007     823.39660967    
   2047.5360 -15.41851820     868.92768910     821.75184450    
   2047.6884 -15.64605280     869.43097655     820.10202628    
   2047.8408 -15.65110614     869.51985433     818.34351634    
   2047.9932 -15.19377291     863.41154128     820.09240165    
   2048.1456 -15.20769438     818.74594120     823.41468080    
   2048.2980 -15.18868361     818.89877144     826.77001189    
   2048.4504 -15.23231609     836.19165012     830.12306240    
   2048.6028 -15.17950344     847.96919023     833.53287849    
   2048.7552 -14.99707216     884.28843736     835.37834357    
   2048.9076 -15.17304911     902.40430488     839.65495981    
   2049.0600 -15.21720037     909.36555880     845.92718174    
   2049.2124 -15.25912110     908.05723474     854.52677904    
   2049.3648 -15.40977880     901.72372842     856.14493365    
   2049.5172 -15.39772187     899.88359185     857.00975123    
   2049.6696 -15.60745797     898.31848563     856.14982781    
   2049.8220 -15.82908943     899.77526730     854.85327177    
   2049.9744 -15.89097300     901.52965671     850.24378978    
   2050.1268 -16.00927169     903.78694605     844.82204037    
   2050.2792 -16.03164144     896.97627502     840.45669034    
   2050.4316 -16.04017505     882.19185668     836.79807463    
   2050.5840 -15.82796713     867.32488937     833.82902513    
   2050.7364 -15.62423810     843.21717476     829.48669569    
   2050.8888 -15.40581493     852.41367845     826.04073795    
   2051.0412 -15.54358499     837.49098557     826.10968420    
   2051.1936 -15.62988288     820.35591780     826.03942841    
   2051.3460 -15.85122680     818.63837056     824.58478457    
   2051.4984 -16.06235504     819.69589987     820.23526218    
   2051.6508 -16.04254907     813.97267677     825.39767713    
   2051.8032 -15.99457468     813.47024315     828.11614737    
   2051.9556 -15.84872919     815.73760397     827.72212978    
   2052.1080 -16.03375575     813.90857837     832.28364937    
   2052.2604 -16.48180790     815.29063708     832.19735071    
   2052.4128 -16.81534696     818.55951783     832.26149801    
   2052.5652 -17.08951925     813.63705861     832.27235030    
   2052.7176 -17.06864334     811.61206614     832.26283452    
   2052.8700 -17.06711115     808.45380440     829.96153710    
   2053.0224 -16.97109343     807.57437718     825.53252697    
   2053.1748 -17.06380417     813.45608598     821.37052194    
   2053.3272 -17.27215283     811.92236506     817.25069337    
   2053.4796 -17.26506134     806.74051464     812.96378923    
   2053.6320 -17.29332864     806.60847444     811.73114927    
   2053.7844 -17.09928584     807.29785642     811.59983095    
   2053.9368 -16.98247335     801.07941136     811.84156885    
   2054.0892 -16.51114449     802.93454389     816.12644743    
   2054.2416 -16.28980720     799.75473811     817.73894970    
   2054.3940 -16.23307342     800.63942316     817.87264379    
   2054.5464 -16.44578635     815.11357648     817.87515759    
   2054.6988 -16.65704030     802.09512661     817.79158613    
   2054.8512 -16.64918249     807.39324510     817.15781546    
   2055.0036 -16.72327358     804.36239900     816.51402136    
   2055.1560 -16.84379621     811.32372201     815.88129890    
   2055.3084 -17.12479534     799.27760702     815.80946747    
   2055.4608 -17.48589942     804.62594037     815.82905732    
   2055.6132 -17.45554374     793.07707303     815.81790333    
   2055.7656 -17.67983747     806.10705018     815.32088375    
   2055.9180 -17.67562593     795.75218556     809.91119548    
   2056.0704 -17.67936194     807.91135703     808.79990738    
   2056.2228 -17.67962747     802.06696291     806.71224750    
   2056.3752 -17.67695502     806.64775822     804.63955187    
   2056.5276 -17.67776996     797.86514842     802.46418997    
   2056.6800 -17.43274770     799.73981334     803.67229097    
   2056.8324 -17.67713032     795.80149961     803.43884993    
   2056.9848 -17.67649689     792.75483349     803.52132815    
   2057.1372 -17.68925952     791.48977809     798.56187735    
   2057.2896 -17.84884427     788.81228998     797.09275180    
   2057.4420 -17.88879760     795.30123089     791.99927349    
   2057.5944 -18.11247171     781.73576190     787.10484882    
   2057.7468 -18.08747941     778.20732297     782.89905269    
   2057.8992 -17.94220517     781.02321643     782.39463412    
   2058.0516 -17.65166690     780.95129175     777.00134451    
   2058.2040 -17.88355464     775.74730432     774.35886607    
   2058.3564 -17.92191507     782.50349940     771.75410268    
   2058.5088 -18.08047858     775.54589683     769.05435412    
   2058.6612 -18.09073777     771.46246009     768.49153352    
   2058.8136 -18.09102428     775.49199946     768.56193141    
   2058.9660 -18.09515319     782.82904105     770.18307833    
   2059.1184 -18.26283983     797.73733999     770.82302368    
   2059.2708 -18.53844021     772.62454984     768.07908715    
   2059.4232 -18.73406439     772.74829019     765.06220558    
   2059.5756 -18.90433779     771.12143396     762.27403737    
   2059.7280 -18.90802453     774.21570042     759.99910758    
   2059.8804 -18.87183232     772.64113419     763.34509079    
   2060.0328 -19.41636776     773.83020944     769.92830111    
   2060.1852 -19.51263166     775.63418728     774.19060801    
   2060.3376 -19.51670080     774.80067984     781.06219779    
   2060.4900 -18.96663428     780.65229383     787.01754813    
   2060.6424 -18.89576574     787.33385791     795.24638941    
   2060.7948 -18.70713948     794.90481936     800.67568072    
   2060.9472 -18.39571538     797.25898990     803.42663728    
   2061.0996 -18.09027804     804.86948394     806.12366981    
   2061.2520 -18.13885363     807.53476562     809.46457554    
   2061.4044 -18.45208665     811.16628252     812.92007636    
   2061.5568 -18.50760595     817.46720835     816.33754176    
   2061.7092 -18.50042593     815.98450237     819.82589167    
   2061.8616 -18.60730998     819.76956381     823.67392823    
   2062.0140 -18.22950722     826.53580434     824.07204297    
   2062.1664 -18.31099967     845.42203120     824.05289381    
   2062.3188 -18.36993362     860.99644749     824.13129946    
   2062.4712 -18.46288544     876.40965800     825.68779567    
   2062.6236 -18.70995073     890.67004628     826.18083133    
   2062.7760 -18.65328925     898.17326045     827.89631671    
   2062.9284 -18.34480296     895.75406476     829.73403144    
   2063.0808 -18.30436827     878.53370425     831.60687944    
   2063.2332 -18.45734533     852.97971224     832.26309288    
   2063.3856 -18.73048773     837.64668653     832.33570068    
   2063.5380 -18.71358686     836.01323919     830.38042050    
   2063.6904 -18.72582829     846.84952344     828.18469622    
   2063.8428 -18.50166721     868.59697447     826.12039464    
   2063.9952 -18.55270147     871.16613411     825.36268556    
   2064.1476 -18.71197302     867.51276010     822.41743480    
