~Version Information Block
 VERS.                2.00:     CWLS LOG ASCII STANDARD - VERSION 2.000000
 WRAP.                  NO:     One Line Per Depth Step
#
~Well Information Block
#MNEM.UNIT                     Data                         Information
#----------   ------------------------------------------   ----------------
 STRT.M                                      2015.0000:     START DEPTH
 STOP.M                                      2349.9752:     STOP DEPTH
 STEP.M                                         0.1524:     STEP
 NULL.                                       -999.2500:     NULL VALUE
 COMP.                                        Alphabow:     COMPANY
 WELL.                   SOC PINE CK 4-15-56-19 #92507:     WELL
 FLD .                                      Pine Creek:     FIELD
 LOC .                           100/04-15-056-19W5/00:     LOCATION
 CNTY.                                                :     COUNTY
 STAT.                                         Alberta:     STATE
 CTRY.                                          Canada:     COUNTRY
 SRVC.                                                :     SERVICE COMPANY
 DATE.                                      03/27/2025:     DATE
 API .                                100041505619W500:     API NUMBER
 UWI .                                100041505619W500:     UWI NUMBER
 TVD .                                              NO:     TVD flag
 WSTA.                                             LOC:     Well status
#
~Curve Information Block
#MNEM.UNIT       API CODE      Curve Description
#----------    -------------   -------------------
 DEPT.M                    :   Depth in Meters
 CALI.mm       70 280 01 01:   Caliper
 GR  .GAPI     35 310 01 01:   Gamma Ray
 RHOB.kg/m3     42 350 01 01:   Bulk Density
#
~Parameter Information Block
#MNEM.UNIT            Value               Description
#----------    --------------------    -------------------
 RUN .                         ONE:    Run Number
 PDAT.                         UNK:    Permanent Datum
 EPD .M                 -9999.5000:    Elevation Of Perm. Datum
 TD  .M                  2350.0000:    Total Depth
 WSTA.                         LOC:    
 LATB.M                     0.0000:    
 LONB.M                     0.0000:    
#
~Other Information Block
<DescLogPlotStart>   NEURALOG PLOT DEFINITION
PLOTDEFVERSION: 3
LASFILE: C:\Users\wadet\Desktop\Alphabow Evaluation\well_info\second_white_spec
DEPTHSCALE: 600.000000
RESOLUTION: 200
DEPTHLABELFREQ: 100.000000
HEAVYGRIDFREQ: 50.000000
MEDIUMGRIDFREQ: 25.000000
LIGHTGRIDFREQ: 25.000000
#
#   TRACK 1
#
STARTTRACK: 
 LEFTX: 0.500000 inch
 RIGHTX: 3.000000 inch
 SCALETYPE: Linear
 NUMCHARTDIVISIONS: 9
CURVE: CALI  125.000000 375.000000 (0,0,255)      Solid             2     N    
CURVE: GR    0.000000   150.000000 (0,131,131)    Dot               2     Y    
BACKUP: 150.000000 300.000000 (0,131,131)    Dot               2    
ENDTRACK: 
#
#   TRACK 2
#
STARTTRACK: 
 LEFTX: 3.500000 inch
 RIGHTX: 8.500000 inch
 SCALETYPE: Linear
 NUMCHARTDIVISIONS: 17
CURVE: RHOB  2000.000000 3000.000000 (255,0,255)    Solid             2     N  
ENDTRACK: 
<DescLogPlotEnd>
~A DEPTH     CALI             GR               RHOB            
# ...
   2319.8000 230.70911697     136.51859675     2558.90489397   
   2319.9524 230.68106105     138.76684990     2551.60050644   
   2320.1048 230.65300513     141.03529202     2550.77640290   
   2320.2572 230.62494920     142.40777078     2553.65469543   
   2320.4096 230.59689328     139.63212137     2563.01430786   
   2320.5620 230.56883736     138.06240052     2576.32763693   
   2320.7144 230.54078143     135.75199650     2582.57985620   
   2320.8668 230.51272551     135.26740276     2573.24711192   
   2321.0192 230.48466959     135.90587860     2558.85085231   
   2321.1716 230.45661366     135.57840266     2552.64377957   
   2321.3240 230.42855774     131.57013523     2542.33384258   
   2321.4764 230.40050182     124.42916720     2542.37100004   
   2321.6288 230.37244590     114.84025443     2553.65947750   
   2321.7812 230.34438997     109.56115188     2567.13706318   
   2321.9336 230.31633405     112.07590109     2583.52011674   
   2322.0860 230.28827813     119.79046317     2583.62988401   
   2322.2384 230.26022220     130.02538102     2570.10700442   
   2322.3908 230.23216628     138.68498156     2559.92803125   
   2322.5432 230.20411036     142.40422720     2561.85141434   
   2322.6956 230.17605443     142.41247383     2567.13197263   
   2322.8480 230.14799851     140.53402579     2570.13174715   
   2323.0004 230.11994259     138.39488754     2564.04026162   
   2323.1528 230.09188666     134.95348592     2559.87580672   
   2323.3052 230.06383074     131.90518730     2556.79291145   
   2323.4576 230.03577482     131.23502916     2552.65827406   
   2323.6100 230.00771889     134.38829106     2547.45334129   
   2323.7624 229.97966297     138.03717194     2542.33678080   
   2323.9148 229.95160705     139.33507354     2543.32213922   
   2324.0672 229.92355112     142.67220164     2552.65763482   
   2324.2196 229.89549520     140.56372304     2567.05696241   
   2324.3720 229.86743928     138.64731327     2570.17183024   
   2324.5244 229.83938335     137.16416584     2579.45937799   
   2324.6768 229.81132743     137.43832833     2580.40821622   
   2324.8292 229.78327151     138.39622924     2571.25573757   
   2324.9816 229.75521558     141.15288368     2569.72475100   
   2325.1340 229.72715966     140.16831183     2572.64944588   
   2325.2864 229.69910374     139.33422829     2575.02044159   
   2325.4388 229.67104781     143.61958080     2581.69560794   
   2325.5912 229.64299189     145.53361183     2590.55713495   
   2325.7436 229.61493597     149.79465856     2578.64709548   
   2325.8960 229.58688004     149.87328189     2561.66369913   
   2326.0484 229.55882412     149.79543129     2545.69284062   
   2326.2008 229.53076820     149.87757775     2547.22833507   
   2326.3532 229.50271227     149.80136586     2547.75351588   
   2326.5056 229.47465635     149.87500405     2547.24209644   
   2326.6580 229.44660043     149.79909741     2547.73415972   
   2326.8104 229.41854450     149.86738452     2547.28288018   
   2326.9628 229.39048858     149.80980003     2547.69860375   
   2327.1152 229.36243266     149.85512146     2547.33065644   
   2327.2676 229.33437673     149.82309574     2547.62681277   
   2327.4200 229.30632081     149.84915290     2547.39609464   
   2327.5724 229.27826489     149.82912232     2540.36356376   
   2327.7248 229.25020896     149.84324265     2555.70117396   
   2327.8772 229.22215304     149.83829530     2570.19684917   
   2328.0296 229.19409712     149.84504132     2571.21431234   
   2328.1820 229.16604119     149.84504132     2572.19413314   
   2328.3344 229.13798527     149.84504132     2572.25098973   
   2328.4868 229.10992935     149.84504132     2580.93173739   
   2328.6392 229.08187342     149.84504132     2578.45288069   
   2328.7916 229.05381750     149.84504132     2569.04541231   
   2328.9440 229.02576158     149.84504132     2559.90634385   
   2329.0964 228.99770565     149.84504132     2558.74599558   
   2329.2488 228.96964973     149.84118645     2556.80562990   
   2329.4012 228.94159381     149.83795586     2552.59541401   
   2329.5536 228.91353789     149.83451646     2552.68026871   
   2329.7060 228.88548196     149.83691081     2556.76495020   
   2329.8584 228.85742604     149.83906765     2561.94201660   
   2330.0108 228.82937012     149.84760621     2560.07212375   
   2330.1632 228.80131419     149.93246267     2557.51674203   
   2330.3156 228.77325827     149.82003923     2554.98357711   
   2330.4680 228.74520235     149.95150165     2552.36898806   
   2330.6204 228.71714642     149.73664569     2551.63501325   
   2330.7728 228.68909050     150.01952877     2553.64748879   
   2330.9252 228.66103458     149.60398999     2553.74410845   
   2331.0776 228.63297865     150.28075749     2551.59947943   
   2331.2300 228.60492273     149.54334805     2551.67903250   
   2331.3824 228.57686681     149.84504132     2550.54301428   
   2331.5348 228.54881088     147.36570248     2552.71062565   
   2331.6872 228.52075496     142.40702479     2561.86029807   
   2331.8396 228.49269904     138.37809917     2574.33755717   
   2331.9920 228.46464889     137.44834711     2588.63365016   
   2332.1444 228.43713435     140.85743802     2599.06189725   
   2332.2968 228.40893985     147.67561983     2601.00415096   
   2332.4492 228.38166356     208.10950413     2591.83956688   
   2332.6016 228.35307015     198.81571350     2574.22145725   
   2332.7540 228.32634664     185.98556474     2547.51340342   
   2332.9064 228.29706272     173.15541598     2537.14461304   
   2333.0588 228.27114258     160.32526722     2547.49035554   
   2333.2112 228.24097486     144.88636364     2567.05591983   
   2333.3636 228.21598066     231.05928099     2582.49975522   
   2333.5160 228.18488698     298.06825856     2583.56584887   
   2333.6684 228.16077514     291.20216175     2580.41728998   
   2333.8208 228.12888530     284.33606494     2577.40238757   
   2333.9732 228.10544426     277.46996812     2573.19449735   
   2334.1256 228.07304245     270.60387131     2565.06288274   
   2334.2780 228.05363947     263.73777450     2556.72331066   
   2334.4304 228.37308916     256.87167769     2547.56917515   
   2334.5828 228.66397764     250.56818182     2545.40997558   
   2334.7352 228.94581822     100.87809917     2545.50386279   
   2334.8876 229.23623276     97.15909091      2545.43464175   
   2335.0400 229.51871238     99.22554492      2546.94408175   
   2335.1924 229.80835472     103.20881881     2547.73497931   
   2335.3448 230.09170158     109.24586777     2548.57102717   
   2335.4972 230.38042372     116.06404959     2549.43163233   
   2335.6496 230.66470014     121.33264463     2550.21126202   
   2335.8020 230.95252601     124.43181818     2551.14032694   
   2335.9544 231.23762610     126.60123967     2551.81770241   
   2336.1068 231.52473473     125.36157025     2552.84020906   
   2336.2592 231.81041901     123.81198347     2553.41351171   
   2336.4116 232.09692067     123.50206612     2554.53962653   
   2336.5640 232.38247427     125.36157025     2554.99966957   
   2336.7164 232.66886384     126.60123967     2556.26978471   
   2336.8688 232.95490555     127.84090909     2556.61335024   
   2337.0212 233.24137180     126.60123967     2558.11329950   
   2337.1736 233.52720658     124.43181818     2575.01209858   
   2337.3260 233.81394610     121.64256198     2593.22404063   
   2337.4784 234.09945026     119.78305785     2611.02379489   
   2337.6308 234.38656501     118.23347107     2613.87986771   
   2337.7832 234.67166514     117.61363636     2604.79905479   
   2337.9356 234.95919470     116.99380165     2592.26927239   
   2338.0880 235.24388855     116.99380165     2583.14580981   
   2338.2404 235.53179637     117.61363636     2570.64427161   
   2338.3928 235.81615849     117.61363636     2569.77229375   
   2338.5452 236.10433501     115.14556452     2559.21450139   
   2338.6976 236.27680460     111.09652449     2553.36672218   
