~Version Information Block
 VERS.                2.00:     CWLS LOG ASCII STANDARD - VERSION 2.000000
 WRAP.                  NO:     One Line Per Depth Step
#
~Well Information Block
#MNEM.UNIT                     Data                         Information
#----------   ------------------------------------------   ----------------
 STRT.M                                      1950.0000:     START DEPTH
 STOP.M                                      2299.9104:     STOP DEPTH
 STEP.M                                         0.1524:     STEP
 NULL.                                       -999.2500:     NULL VALUE
 COMP.                                        Alphabow:     COMPANY
 WELL.                   SOC PINE CK 4-15-56-19 #92507:     WELL
 FLD .                                                :     FIELD
 LOC .                                                :     LOCATION
 CNTY.                                                :     COUNTY
 STAT.                                                :     STATE
 CTRY.                                                :     COUNTRY
 SRVC.                                                :     SERVICE COMPANY
 DATE.                                      03/29/2025:     DATE
 API .                                100041505619W500:     API NUMBER
 UWI .                                100041505619W500:     UWI NUMBER
 TVD .                                              NO:     TVD flag
 WSTA.                                             LOC:     Well status
#
~Curve Information Block
#MNEM.UNIT       API CODE      Curve Description
#----------    -------------   -------------------
 DEPT.M                    :   Depth in Meters
 SP  .MV       01 010 01 01:   Spontaneous Potential
 SFLU.OHMM     10 220 01 01:   SFL Resistivity (Unaveraged)
 ILD .OHMM     05 120 46 01:   Deep Induction Standard Processed Resistivity
#
~Parameter Information Block
#MNEM.UNIT            Value               Description
#----------    --------------------    -------------------
 RUN .                         ONE:    Run Number
 PDAT.                         UNK:    Permanent Datum
 EPD .M                 -9999.5000:    Elevation Of Perm. Datum
 WSTA.                         LOC:    
 TD  .M                  2300.0000:    Total Depth
#
~Other Information Block
<DescLogPlotStart>   NEURALOG PLOT DEFINITION
PLOTDEFVERSION: 3
LASFILE: C:\Users\wadet\Desktop\Alphabow Evaluation\well_info\second_white_spec
DEPTHSCALE: 240.000000
RESOLUTION: 200
DEPTHLABELFREQ: 50.000000
HEAVYGRIDFREQ: 50.000000
MEDIUMGRIDFREQ: 25.000000
LIGHTGRIDFREQ: 5.000000
#
#   TRACK 1
#
STARTTRACK: 
 LEFTX: 0.500000 inch
 RIGHTX: 3.000000 inch
 SCALETYPE: Linear
 NUMCHARTDIVISIONS: 9
CURVE: SP    -80.000000 20.000000  (0,0,255)      Solid             2     N    
ENDTRACK: 
#
#   TRACK 2
#
STARTTRACK: 
 LEFTX: 3.500000 inch
 RIGHTX: 8.500000 inch
 SCALETYPE: Linear
 NUMCHARTDIVISIONS: 34
CURVE: SFLU  2.000000   2000.000000 (0,131,131)    Solid             2     N   
CURVE: ILD   2.000000   2000.000000 (255,0,255)    Dot               2     N   
ENDTRACK: 
<DescLogPlotEnd>
~A DEPTH     SP               SFLU             ILD             
# ...
   2007.1500 -18.49878074     900.83123182     906.47351690    
   2007.3024 -18.71854359     906.36603863     906.33946932    
   2007.4548 -18.70310713     898.36980098     906.87190146    
   2007.6072 -18.69568121     905.24225555     910.95300886    
   2007.7596 -18.74223486     924.41110964     914.98298237    
   2007.9120 -18.71850507     943.39397491     923.01266724    
   2008.0644 -18.91446727     962.38087227     934.38908101    
   2008.2168 -19.02983871     981.44980864     943.34990304    
   2008.3692 -18.75163769     982.65954087     949.71039355    
   2008.5216 -18.53837295     980.53013290     955.09593299    
   2008.6740 -18.49417134     978.25130178     958.01969261    
   2008.8264 -18.49932891     976.83889802     960.73498519    
   2008.9788 -18.50088579     988.81893606     965.82306420    
   2009.1312 -18.49972532     1000.92122038    973.29496833    
   2009.2836 -18.50410836     1018.84735629    980.56879502    
   2009.4360 -18.52630075     1055.43941737    980.92771475    
   2009.5884 -18.27869312     1045.79951179    977.13168512    
   2009.7408 -17.63615187     1016.25252688    972.00682079    
   2009.8932 -17.21860466     978.84200062     951.14245710    
   2010.0456 -17.07064825     951.45079299     943.86239378    
   2010.1980 -17.06415188     937.84450393     934.76964007    
   2010.3504 -17.06498412     925.94477320     929.60289945    
   2010.5028 -17.06056423     922.78759016     925.59068254    
   2010.6552 -17.03349975     922.85114629     917.86914731    
   2010.8076 -17.11526046     926.71952511     912.70068638    
   2010.9600 -17.21927803     935.98092971     905.16872405    
   2011.1124 -17.24587196     938.11907682     900.21508954    
   2011.2648 -17.45313753     930.86817158     896.03379364    
   2011.4172 -17.71409279     923.00762548     890.05989062    
   2011.5696 -17.85347268     914.21225350     885.78306406    
   2011.7220 -18.09418130     905.47943833     881.44690367    
   2011.8744 -18.33527263     902.93271487     876.97789332    
   2012.0268 -18.28444837     901.33880017     873.15221976    
   2012.1792 -18.50241288     899.61817757     870.43335130    
   2012.3316 -18.72545134     897.35852400     867.65817887    
   2012.4840 -18.70518937     892.42466391     864.87309100    
   2012.6364 -18.70291407     883.40332141     863.09464290    
   2012.7888 -18.47223078     878.45361524     861.94520453    
   2012.9412 -18.10097910     885.25155446     858.96089655    
   2013.0936 -17.88259362     890.17531621     855.01959096    
   2013.2460 -17.89775982     893.02491297     849.04735015    
   2013.3984 -17.85807406     890.81608871     845.96396098    
   2013.5508 -17.80477161     881.65097747     851.04614956    
   2013.7032 -17.70547118     870.31185157     849.26292094    
   2013.8556 -17.84815229     849.84155172     846.42065619    
   2014.0080 -17.66329464     844.93504466     843.62031149    
   2014.1604 -17.67534030     842.09124879     840.93122999    
   2014.3128 -17.66027639     853.74459958     842.20723277    
   2014.4652 -17.89457682     892.78513719     841.12654684    
   2014.6176 -18.03318531     901.54688199     839.35634666    
   2014.7700 -17.96048322     887.40163376     838.45527571    
   2014.9224 -17.91333606     849.16089674     838.44013140    
   2015.0748 -17.86535817     846.87882160     838.40575520    
   2015.2272 -17.71926132     851.19895311     838.71601930    
   2015.3796 -17.45871864     873.76660044     846.41708915    
   2015.5320 -17.63499376     879.76745436     844.91249838    
   2015.6844 -17.68512833     872.58112878     842.90378722    
   2015.8368 -17.68175939     860.01603897     848.87942641    
   2015.9892 -17.67890720     867.31538654     850.40642914    
   2016.1416 -17.67949028     878.27718940     862.87907151    
   2016.2940 -17.68717159     895.84743100     871.69652149    
   2016.4464 -17.84064324     923.27280211     883.69530028    
   2016.5988 -17.92911177     966.49199622     904.13668090    
   2016.7512 -18.08257736     999.64576615     929.94077740    
   2016.9036 -18.09300654     1017.87428732    942.35905831    
   2017.0560 -18.10114070     1020.36483352    928.76150514    
   2017.2084 -17.72370464     993.53760055     918.02649503    
   2017.3608 -17.40332482     947.09023202     907.83249582    
   2017.5132 -17.11828092     886.82824033     888.90529465    
   2017.6656 -17.22535687     858.72877187     874.01081605    
   2017.8180 -17.27119063     841.26338042     859.55593783    
   2017.9704 -17.26938399     826.46909388     837.59057285    
   2018.1228 -17.26566409     811.58183576     827.60002587    
   2018.2752 -17.30648755     808.80474293     804.00336412    
   2018.4276 -17.44375579     813.36870705     797.70534691    
   2018.5800 -17.67705272     812.01694287     790.99126665    
   2018.7324 -17.67738656     803.31753779     784.93312477    
   2018.8848 -17.45295370     799.14971189     780.16210012    
   2019.0372 -17.47355043     807.85215479     775.73017835    
   2019.1896 -17.47966490     807.50808990     774.04469951    
   2019.3420 -17.43449984     807.55097408     776.76252525    
   2019.4944 -17.27895601     807.58196963     778.96643664    
   2019.6468 -17.26925937     807.80252914     778.79126390    
   2019.7992 -17.26009523     809.18453370     778.74776598    
   2019.9516 -17.10099640     810.62262567     778.92426367    
   2020.1040 -17.03859386     814.08479771     785.60117896    
   2020.2564 -17.26776138     826.64283141     794.21340998    
   2020.4088 -17.26429647     838.99360122     798.46674944    
   2020.5612 -17.27131080     840.50568722     804.66934054    
   2020.7136 -17.28939560     840.52709851     810.29099684    
   2020.8660 -17.06297571     840.48686003     813.68572408    
   2021.0184 -17.00059533     843.94930979     819.58040216    
   2021.1708 -16.82092992     849.34904943     823.70543663    
   2021.3232 -16.68194814     861.12310606     827.83187972    
   2021.4756 -16.67293410     874.21966886     832.35721221    
   2021.6280 -16.65837756     884.90053272     837.99439036    
   2021.7804 -16.65002135     894.67332790     840.87329230    
   2021.9328 -16.66388511     899.57190157     846.81222993    
   2022.0852 -16.85538180     904.21240656     850.25151174    
   2022.2376 -16.61479182     900.24395871     852.99932071    
   2022.3900 -16.46862502     886.34455739     854.88349637    
   2022.5424 -16.06855680     877.59475552     856.89939879    
   2022.6948 -15.65071149     879.56558792     858.94525454    
   2022.8472 -15.76361966     887.41750947     860.93891114    
   2022.9996 -16.09410118     892.02308158     857.37848433    
   2023.1520 -16.25428704     889.33298550     853.35139596    
   2023.3044 -16.39979552     875.15787079     848.53668746    
   2023.4568 -16.29081948     857.13951657     846.66575721    
   2023.6092 -16.19948146     846.61143607     846.44990575    
   2023.7616 -16.04534047     855.43079973     848.70530090    
   2023.9140 -16.04141528     880.70401022     848.74088847    
   2024.0664 -15.87183550     894.14990318     850.96201861    
   2024.2188 -15.66404561     901.65792165     856.04802521    
   2024.3712 -15.66196355     900.54478526     854.03801418    
   2024.5236 -15.82021362     890.62424126     857.02400810    
   2024.6760 -15.83166540     875.26371262     861.19027274    
   2024.8284 -15.83382623     869.08117569     861.10024228    
   2024.9808 -15.70630224     866.41670944     861.03357121    
   2025.1332 -15.50079250     864.90178517     859.30129118    
   2025.2856 -15.42294301     872.08684717     858.90628772    
   2025.4380 -15.19457311     887.95236385     857.77225113    
   2025.5904 -15.21278622     897.14310040     852.65374163    
   2025.7428 -15.22703017     884.30725795     851.36861417    
   2025.8952 -15.37862031     853.57471830     844.57292287    
   2026.0476 -15.40548434     830.43182786     834.81469417    
