~Version Information Block
 VERS.                2.00:     CWLS LOG ASCII STANDARD - VERSION 2.000000
 WRAP.                  NO:     One Line Per Depth Step
#
~Well Information Block
#MNEM.UNIT                     Data                         Information
#----------   ------------------------------------------   ----------------
 STRT.M                                      2015.0000:     START DEPTH
 STOP.M                                      2349.9752:     STOP DEPTH
 STEP.M                                         0.1524:     STEP
 NULL.                                       -999.2500:     NULL VALUE
 COMP.                                        Alphabow:     COMPANY
 WELL.                   SOC PINE CK 4-15-56-19 #92507:     WELL
 FLD .                                      Pine Creek:     FIELD
 LOC .                           100/04-15-056-19W5/00:     LOCATION
 CNTY.                                                :     COUNTY
 STAT.                                         Alberta:     STATE
 CTRY.                                          Canada:     COUNTRY
 SRVC.                                                :     SERVICE COMPANY
 DATE.                                      03/27/2025:     DATE
 API .                                100041505619W500:     API NUMBER
 UWI .                                100041505619W500:     UWI NUMBER
 TVD .                                              NO:     TVD flag
 WSTA.                                             LOC:     Well status
#
~Curve Information Block
#MNEM.UNIT       API CODE      Curve Description
#----------    -------------   -------------------
 DEPT.M                    :   Depth in Meters
 CALI.mm       70 280 01 01:   Caliper
 GR  .GAPI     35 310 01 01:   Gamma Ray
 RHOB.kg/m3     42 350 01 01:   Bulk Density
#
~Parameter Information Block
#MNEM.UNIT            Value               Description
#----------    --------------------    -------------------
 RUN .                         ONE:    Run Number
 PDAT.                         UNK:    Permanent Datum
 EPD .M                 -9999.5000:    Elevation Of Perm. Datum
 TD  .M                  2350.0000:    Total Depth
 WSTA.                         LOC:    
 LATB.M                     0.0000:    
 LONB.M                     0.0000:    
#
~Other Information Block
<DescLogPlotStart>   NEURALOG PLOT DEFINITION
PLOTDEFVERSION: 3
LASFILE: C:\Users\wadet\Desktop\Alphabow Evaluation\well_info\second_white_spec
DEPTHSCALE: 600.000000
RESOLUTION: 200
DEPTHLABELFREQ: 100.000000
HEAVYGRIDFREQ: 50.000000
MEDIUMGRIDFREQ: 25.000000
LIGHTGRIDFREQ: 25.000000
#
#   TRACK 1
#
STARTTRACK: 
 LEFTX: 0.500000 inch
 RIGHTX: 3.000000 inch
 SCALETYPE: Linear
 NUMCHARTDIVISIONS: 9
CURVE: CALI  125.000000 375.000000 (0,0,255)      Solid             2     N    
CURVE: GR    0.000000   150.000000 (0,131,131)    Dot               2     Y    
BACKUP: 150.000000 300.000000 (0,131,131)    Dot               2    
ENDTRACK: 
#
#   TRACK 2
#
STARTTRACK: 
 LEFTX: 3.500000 inch
 RIGHTX: 8.500000 inch
 SCALETYPE: Linear
 NUMCHARTDIVISIONS: 17
CURVE: RHOB  2000.000000 3000.000000 (255,0,255)    Solid             2     N  
ENDTRACK: 
<DescLogPlotEnd>
~A DEPTH     CALI             GR               RHOB            
# ...
   2338.8500 236.17602083     108.96241897     2547.83144821   
   2339.0024 236.07111051     106.13815145     2560.59131844   
   2339.1548 235.97024852     106.18920856     2579.76356154   
   2339.3072 235.86550481     106.13008656     2593.61989599   
   2339.4596 235.76431847     106.19811241     2608.62229317   
   2339.6120 235.65967688     106.11692338     2617.39459273   
   2339.7644 235.55812783     101.25660797     2617.90954241   
   2339.9168 235.45384369     101.77505954     2617.43953247   
   2340.0692 235.35196336     103.42022581     2612.75415117   
   2340.2216 235.24796558     104.57507185     2613.80358715   
   2340.3740 235.14585923     105.96360649     2612.70526692   
   2340.5264 235.04201596     107.02099983     2618.47901476   
   2340.6788 234.93983288     106.52997616     2628.12114088   
   2340.8312 234.83598752     105.78006565     2632.88114956   
   2340.9836 234.73388121     105.90743399     2620.85151957   
   2341.1360 234.62970423     105.46422660     2601.93694596   
   2341.2884 234.52737636     104.35752845     2589.89183678   
   2341.4408 234.42301662     104.53220809     2597.84096231   
   2341.5932 234.32083482     104.91076089     2613.61498822   
   2341.7456 234.16638061     105.07281452     2632.84852201   
   2341.8980 233.87014473     105.28543487     2649.71396271   
   2342.0504 233.57157518     108.24470790     2657.69744082   
   2342.2028 233.27528827     109.29976514     2656.94326396   
   2342.3552 232.97681909     110.10720462     2651.53520800   
   2342.5076 232.68038757     109.60826198     2650.75343204   
   2342.6600 232.38241188     108.88089007     2655.64590142   
   2342.8124 232.08613930     107.43563830     2656.93276598   
   2342.9648 231.78845670     106.72679020     2646.37421491   
   2343.1172 231.49191209     106.18305357     2617.78738689   
   2343.2696 231.19446432     105.50080215     2596.90944802   
   2343.4220 230.89773588     105.54925998     2574.50127025   
   2343.5744 230.60041034     106.13322243     2556.67240639   
   2343.7268 230.30362799     106.15266949     2555.93618595   
   2343.8792 230.00628559     106.45693073     2559.75814748   
   2344.0316 229.70958893     106.44901554     2571.41895112   
   2344.1840 229.41201356     105.85028213     2585.53388877   
   2344.3364 229.11529750     105.51153026     2596.16911804   
   2344.4888 228.81739267     105.55620598     2613.37147197   
   2344.6412 228.52075129     106.74326991     2625.02539561   
   2344.7936 228.22263189     108.03837208     2627.80424806   
   2344.9460 228.12649525     109.52303465     2615.73854616   
   2345.0984 228.29757193     109.84180102     2613.98071361   
   2345.2508 228.47053724     109.62416701     2613.08706832   
   2345.4032 228.64158101     108.35354034     2611.66765293   
   2345.5556 228.81452081     108.12914290     2617.78629037   
   2345.7080 228.98564780     107.42296207     2621.68537124   
   2345.8604 229.15845049     107.35850746     2615.67232675   
   2346.0128 229.32976176     107.72984668     2608.27844186   
   2346.1652 229.50234221     107.67185736     2603.27182812   
   2346.3176 229.67390249     107.41682597     2599.00314663   
   2346.4700 229.84621966     107.36637697     2591.94855913   
   2346.6224 230.01804442     108.03095093     2584.61339913   
   2346.7748 230.11274984     109.22614270     2585.80879690   
   2346.9272 230.11257054     109.26553734     2588.76067188   
   2347.0796 230.11220642     108.61204861     2591.97386602   
   2347.2320 230.11218019     108.95544372     2591.86000537   
   2347.3844 230.11204996     110.16383074     2590.92025464   
   2347.5368 230.11243878     111.11990955     2598.05272576   
   2347.6892 230.11232618     112.64091407     2612.54592795   
   2347.8416 230.11058834     113.87129941     2673.28407913   
   2347.9940 230.11234526     113.88141844     2673.33312726   
   2348.1464 230.11234526     113.88141844     2673.33312726   
   2348.2988 230.11234526     113.88141844     2673.33312726   
   2348.4512 230.11234526     113.88141844     2673.33312726   
   2348.6036 230.11234526     113.88141844     2673.33312726   
   2348.7560 230.11234526     113.88141844     2673.33312726   
   2348.9084 230.11234526     113.88141844     2673.33312726   
   2349.0608 230.11234526     113.88141844     2673.33312726   
   2349.2132 230.11234526     113.88141844     2673.33312726   
   2349.3656 230.11234526     113.88141844     2673.33312726   
   2349.5180 230.11234526     113.88141844     2673.33312726   
   2349.6704 230.11234526     113.88141844     2673.33312726   
   2349.8228 230.11234526     113.88141844     2673.33312726   
