~Version Information Block
 VERS.                2.00:     CWLS LOG ASCII STANDARD - VERSION 2.000000
 WRAP.                  NO:     One Line Per Depth Step
#
~Well Information Block
#MNEM.UNIT                     Data                         Information
#----------   ------------------------------------------   ----------------
 STRT.M                                      2015.0000:     START DEPTH
 STOP.M                                      2349.9752:     STOP DEPTH
 STEP.M                                         0.1524:     STEP
 NULL.                                       -999.2500:     NULL VALUE
 COMP.                                        Alphabow:     COMPANY
 WELL.                   SOC PINE CK 4-15-56-19 #92507:     WELL
 FLD .                                      Pine Creek:     FIELD
 LOC .                           100/04-15-056-19W5/00:     LOCATION
 CNTY.                                                :     COUNTY
 STAT.                                         Alberta:     STATE
 CTRY.                                          Canada:     COUNTRY
 SRVC.                                                :     SERVICE COMPANY
 DATE.                                      03/27/2025:     DATE
 API .                                100041505619W500:     API NUMBER
 UWI .                                100041505619W500:     UWI NUMBER
 TVD .                                              NO:     TVD flag
 WSTA.                                             LOC:     Well status
#
~Curve Information Block
#MNEM.UNIT       API CODE      Curve Description
#----------    -------------   -------------------
 DEPT.M                    :   Depth in Meters
 CALI.mm       70 280 01 01:   Caliper
 GR  .GAPI     35 310 01 01:   Gamma Ray
 RHOB.kg/m3     42 350 01 01:   Bulk Density
#
~Parameter Information Block
#MNEM.UNIT            Value               Description
#----------    --------------------    -------------------
 RUN .                         ONE:    Run Number
 PDAT.                         UNK:    Permanent Datum
 EPD .M                 -9999.5000:    Elevation Of Perm. Datum
 TD  .M                  2350.0000:    Total Depth
 WSTA.                         LOC:    
 LATB.M                     0.0000:    
 LONB.M                     0.0000:    
#
~Other Information Block
<DescLogPlotStart>   NEURALOG PLOT DEFINITION
PLOTDEFVERSION: 3
LASFILE: C:\Users\wadet\Desktop\Alphabow Evaluation\well_info\second_white_spec
DEPTHSCALE: 600.000000
RESOLUTION: 200
DEPTHLABELFREQ: 100.000000
HEAVYGRIDFREQ: 50.000000
MEDIUMGRIDFREQ: 25.000000
LIGHTGRIDFREQ: 25.000000
#
#   TRACK 1
#
STARTTRACK: 
 LEFTX: 0.500000 inch
 RIGHTX: 3.000000 inch
 SCALETYPE: Linear
 NUMCHARTDIVISIONS: 9
CURVE: CALI  125.000000 375.000000 (0,0,255)      Solid             2     N    
CURVE: GR    0.000000   150.000000 (0,131,131)    Dot               2     Y    
BACKUP: 150.000000 300.000000 (0,131,131)    Dot               2    
ENDTRACK: 
#
#   TRACK 2
#
STARTTRACK: 
 LEFTX: 3.500000 inch
 RIGHTX: 8.500000 inch
 SCALETYPE: Linear
 NUMCHARTDIVISIONS: 17
CURVE: RHOB  2000.000000 3000.000000 (255,0,255)    Solid             2     N  
ENDTRACK: 
<DescLogPlotEnd>
~A DEPTH     CALI             GR               RHOB            
# ...
   2072.1500 270.86939489     118.26821493     2360.68325245   
   2072.3024 270.71124038     120.05459982     2309.16948987   
   2072.4548 270.55308588     121.04972547     2276.06310108   
   2072.6072 270.39493137     121.92590542     2251.39188779   
   2072.7596 270.23677686     120.42460927     2254.37587000   
   2072.9120 270.07862235     118.53350932     2259.63969577   
   2073.0644 269.92046784     117.93565025     2277.07399044   
   2073.2168 269.76231334     118.23289631     2300.90492595   
   2073.3692 269.60597937     118.84760651     2325.53744896   
   2073.5216 269.44971528     118.55014706     2359.68755107   
   2073.6740 269.29380874     118.83916463     2393.68704516   
   2073.8264 269.13720978     118.55745832     2414.36485986   
   2073.9788 268.98151576     117.28713175     2445.30443756   
   2074.1312 268.82485035     115.45896348     2479.36016512   
   2074.2836 268.66906079     114.19629933     2505.15995872   
   2074.4360 268.51354332     112.04801269     2493.80804954   
   2074.5884 268.35253692     111.72995376     2454.59236326   
   2074.7408 268.19873402     112.34989101     2416.40866873   
   2074.8932 268.03440295     114.53154048     2358.61713106   
   2075.0456 267.88550507     115.90019615     2316.54927339   
   2075.1980 267.71481238     117.24343049     2304.60887513   
   2075.3504 267.57351880     118.50783672     2323.01011352   
   2075.5028 267.39427367     116.39652692     2352.42518060   
   2075.6552 268.43124700     114.47858514     2298.76160991   
   2075.8076 270.81513996     112.06479111     2298.76160991   
   2075.9600 273.26451447     112.00615313     2461.81630547   
   2076.1124 275.64002142     110.82322506     2471.10423117   
   2076.2648 278.09669114     109.85380777     2465.94427245   
   2076.4172 280.46635330     109.26442328     2465.94427245   
   2076.5696 282.92712664     111.10732506     2485.55211558   
   2076.7220 285.86202584     112.65035093     2504.12796698   
   2076.8744 285.90835741     112.97710615     2521.67182663   
   2077.0268 285.86326724     114.79864287     2522.70381837   
   2077.1792 285.90569269     115.46541639     2513.41589267   
   2077.3316 285.86417148     115.40573619     2500.00000000   
   2077.4840 285.90033089     112.99841847     2481.42414861   
   2077.6364 285.86607108     110.14210143     2466.97626419   
   2077.7888 285.89496448     106.19464083     2454.59236326   
   2077.9412 285.86757190     104.88217696     2451.49638803   
   2078.0936 285.89233990     104.02208386     2455.62435501   
   2078.2460 285.87180919     104.26875489     2457.68833849   
   2078.3984 285.89302914     106.18026056     2447.36842105   
   2078.5508 285.87478673     108.60977351     2440.14447884   
   2078.7032 285.89739599     111.12028223     2443.27166268   
   2078.8556 285.88011050     112.95111437     2450.46261634   
   2079.0080 285.90487690     113.58517647     2461.82014497   
   2079.1604 285.88525909     112.95907162     2460.74528199   
   2079.3128 285.90883979     112.33582272     2450.43867998   
   2079.4652 285.88654307     110.49383330     2437.00288953   
   2079.6176 284.56641467     108.31114814     2430.82169303   
   2079.7700 283.53737755     107.10166854     2437.02016000   
   2079.9224 282.55400631     106.76077779     2439.05558968   
   2080.0748 281.52733147     107.58643744     2441.53816496   
   2080.2272 280.54013172     108.59662408     2441.95337163   
   2080.3796 279.51860215     109.58266181     2439.14166739   
   2080.5320 278.52516019     110.76916138     2431.79459136   
   2080.6844 277.51069141     111.44101492     2429.96614816   
   2080.8368 276.50969173     112.01029544     2438.96049206   
   2080.9892 277.02807546     112.37374613     2446.48207169   
   2081.1416 278.58035389     112.32775626     2448.20733449   
   2081.2940 280.13449833     109.58822207     2428.99447751   
   2081.4464 281.68279714     107.69088869     2388.34317657   
   2081.5988 283.23886188     104.94191818     2342.46144209   
   2081.7512 284.85663154     104.91286659     2308.91607621   
   2081.9036 285.17720147     108.02893937     2297.16339441   
   2082.0560 285.51380010     111.10651066     2319.19863043   
   2082.2084 285.84007787     115.75320670     2337.41926636   
   2082.3608 286.18715598     118.22742551     2355.23705394   
   2082.5132 286.50236688     118.52972979     2353.89263502   
   2082.6656 286.86052988     117.92419707     2361.39889541   
   2082.8180 287.16521935     117.28487959     2384.79435145   
   2082.9704 287.53278154     117.31230800     2421.19151224   
   2083.1228 287.82969645     117.58828081     2437.36154126   
   2083.2752 288.20299290     118.86714796     2449.10900509   
   2083.4276 288.43492905     120.05965116     2433.02105071   
   2083.5800 284.28003144     120.10783816     2406.02225304   
   2083.7324 280.72255744     119.74085649     2382.45167888   
   2083.8848 277.23672902     120.72546939     2386.42976817   
   2084.0372 274.00432225     122.21026706     2403.04215003   
   2084.1896 273.13373650     123.20322561     2424.60466541   
   2084.3420 272.28693634     124.38062076     2447.37107009   
   2084.4944 271.48151483     121.97077096     2455.58298459   
   2084.6468 270.64322486     120.36965639     2438.07327373   
   2084.7992 269.83059905     118.56698849     2400.93524809   
   2084.9516 268.99785109     116.96476357     2383.67711391   
   2085.1040 268.18159214     116.00249414     2372.97725083   
   2085.2564 267.35044513     114.88454322     2360.66232536   
   2085.4088 266.53461201     114.52874052     2387.57577211   
   2085.5612 265.69984504     115.11213381     2418.43835497   
   2085.7136 264.88767716     115.46590973     2435.12573829   
   2085.8660 264.22391385     114.49931053     2456.55006530   
   2086.0184 264.03574182     113.62003966     2468.10554677   
   2086.1708 263.85092439     112.63777590     2479.21892482   
   2086.3232 263.71691220     113.01154720     2469.10889480   
   2086.4756 265.13412153     113.24877921     2465.84190941   
   2086.6280 266.47558816     113.33090229     2453.61391670   
   2086.7804 267.77399591     114.16832494     2456.62024818   
   2086.9328 269.11507870     115.80911690     2459.76052279   
   2087.0852 270.41465312     116.01524887     2453.56318917   
   2087.2376 271.75384652     111.47529415     2435.95069163   
   2087.3900 273.05593901     108.27629164     2422.64457624   
   2087.5424 274.39210815     103.11462327     2417.30557736   
   2087.6948 275.69758724     103.32690574     2417.51541574   
   2087.8472 276.19617095     106.81809475     2460.59040110   
   2087.9996 276.34031238     110.76164661     2487.68237553   
   2088.1520 276.50306396     115.78062901     2512.04057111   
   2088.3044 276.65111544     119.12715842     2509.46169475   
   2088.4568 276.81106905     121.02977363     2496.63191199   
   2088.6092 276.96249204     120.99595178     2481.66308915   
   2088.7616 277.11939323     120.71084193     2463.65424819   
   2088.9140 277.27628393     119.76813298     2456.91452142   
   2089.0664 277.42978974     118.84790124     2454.36801225   
   2089.2188 277.59000415     118.23033906     2457.91011147   
   2089.3712 277.74021605     116.68094168     2457.44325742   
   2089.5236 277.90225049     115.91275864     2439.35728027   
   2089.6760 278.04927337     115.43331641     2412.06166654   
   2089.8284 278.21322924     114.51359783     2377.70792985   
   2089.9808 278.35905272     113.30346392     2365.76078916   
   2090.1332 278.52343208     111.97158189     2354.74262969   
   2090.2856 278.64934789     110.79215743     2344.05454934   
   2090.4380 277.91420381     109.88249492     2355.76172200   
   2090.5904 277.25228628     110.49217248     2404.96044449   
   2090.7428 276.60214386     111.43587395     2448.58076324   
   2090.8952 275.94386852     112.97231037     2473.01553772   
   2091.0476 275.28952100     113.29119495     2482.12136855   
