~Version Information Block
 VERS.                2.00:     CWLS LOG ASCII STANDARD - VERSION 2.000000
 WRAP.                  NO:     One Line Per Depth Step
#
~Well Information Block
#MNEM.UNIT                     Data                         Information
#----------   ------------------------------------------   ----------------
 STRT.M                                      1950.0000:     START DEPTH
 STOP.M                                      2299.9104:     STOP DEPTH
 STEP.M                                         0.1524:     STEP
 NULL.                                       -999.2500:     NULL VALUE
 COMP.                                        Alphabow:     COMPANY
 WELL.                   SOC PINE CK 4-15-56-19 #92507:     WELL
 FLD .                                                :     FIELD
 LOC .                                                :     LOCATION
 CNTY.                                                :     COUNTY
 STAT.                                                :     STATE
 CTRY.                                                :     COUNTRY
 SRVC.                                                :     SERVICE COMPANY
 DATE.                                      03/29/2025:     DATE
 API .                                100041505619W500:     API NUMBER
 UWI .                                100041505619W500:     UWI NUMBER
 TVD .                                              NO:     TVD flag
 WSTA.                                             LOC:     Well status
#
~Curve Information Block
#MNEM.UNIT       API CODE      Curve Description
#----------    -------------   -------------------
 DEPT.M                    :   Depth in Meters
 SP  .MV       01 010 01 01:   Spontaneous Potential
 SFLU.OHMM     10 220 01 01:   SFL Resistivity (Unaveraged)
 ILD .OHMM     05 120 46 01:   Deep Induction Standard Processed Resistivity
#
~Parameter Information Block
#MNEM.UNIT            Value               Description
#----------    --------------------    -------------------
 RUN .                         ONE:    Run Number
 PDAT.                         UNK:    Permanent Datum
 EPD .M                 -9999.5000:    Elevation Of Perm. Datum
 WSTA.                         LOC:    
 TD  .M                  2300.0000:    Total Depth
#
~Other Information Block
<DescLogPlotStart>   NEURALOG PLOT DEFINITION
PLOTDEFVERSION: 3
LASFILE: C:\Users\wadet\Desktop\Alphabow Evaluation\well_info\second_white_spec
DEPTHSCALE: 240.000000
RESOLUTION: 200
DEPTHLABELFREQ: 50.000000
HEAVYGRIDFREQ: 50.000000
MEDIUMGRIDFREQ: 25.000000
LIGHTGRIDFREQ: 5.000000
#
#   TRACK 1
#
STARTTRACK: 
 LEFTX: 0.500000 inch
 RIGHTX: 3.000000 inch
 SCALETYPE: Linear
 NUMCHARTDIVISIONS: 9
CURVE: SP    -80.000000 20.000000  (0,0,255)      Solid             2     N    
ENDTRACK: 
#
#   TRACK 2
#
STARTTRACK: 
 LEFTX: 3.500000 inch
 RIGHTX: 8.500000 inch
 SCALETYPE: Linear
 NUMCHARTDIVISIONS: 34
CURVE: SFLU  2.000000   2000.000000 (0,131,131)    Solid             2     N   
CURVE: ILD   2.000000   2000.000000 (255,0,255)    Dot               2     N   
ENDTRACK: 
<DescLogPlotEnd>
~A DEPTH     SP               SFLU             ILD             
# ...
   2178.6000 -20.96603843     910.33273049     864.23772631    
   2178.7524 -20.96545167     914.73785589     863.57456790    
   2178.9048 -20.96424199     916.82682413     866.71559134    
   2179.0572 -20.99898614     917.67360584     867.72323547    
   2179.2096 -21.04719501     920.29228924     869.12971710    
   2179.3620 -21.09569093     921.18394176     866.14953748    
   2179.5144 -21.14421150     922.71112418     863.14713865    
   2179.6668 -21.19271783     922.77148131     866.73059456    
   2179.8192 -21.23945611     918.56275168     862.35870328    
   2179.9716 -21.29177923     908.80140557     859.10567307    
   2180.1240 -21.36786914     898.10488169     856.32604439    
   2180.2764 -21.64752495     893.80717054     853.52474569    
   2180.4288 -21.19946832     894.04012049     852.55871847    
   2180.5812 -21.18256550     895.54811495     851.96798183    
   2180.7336 -21.13750719     902.56504438     851.42706838    
   2180.8860 -20.58551426     907.90913450     850.80591301    
   2181.0384 -21.13863582     911.87499777     853.07004141    
   2181.1908 -21.15806905     912.30427923     853.67409412    
   2181.3432 -21.19349955     911.84520901     854.79789383    
   2181.4956 -20.99216008     912.64903434     859.84840240    
   2181.6480 -20.79224347     912.39647674     861.48897778    
   2181.8004 -20.93985040     910.44487330     862.23674402    
   2181.9528 -20.81096710     905.18025404     862.77361521    
   2182.1052 -20.75655326     899.51724256     867.46364467    
   2182.2576 -20.75738871     898.08777746     867.22836531    
   2182.4100 -20.75958442     902.22573200     867.22981283    
   2182.5624 -20.75873138     908.04536317     867.44435191    
   2182.7148 -20.76225375     919.54667390     862.16105139    
   2182.8672 -20.78229120     931.04577337     859.33975529    
   2183.0196 -20.65342044     935.51173975     856.31703463    
   2183.1720 -20.88713516     934.77788325     852.98651357    
   2183.3244 -20.77649317     931.19925169     860.72219833    
   2183.4768 -20.78164623     929.15538637     865.45105352    
   2183.6292 -20.53970875     926.95594726     871.90276502    
   2183.7816 -20.39468094     926.97502680     879.67782159    
   2183.9340 -20.11943621     926.91922353     881.58006674    
   2184.0864 -19.96403732     925.19655842     884.30160454    
   2184.2388 -19.91953953     924.88152385     886.10778862    
   2184.3912 -20.14464188     924.86261415     887.74560111    
   2184.5436 -20.13992355     924.73431925     887.87551997    
   2184.6960 -20.14370783     923.21855967     887.42275471    
   2184.8484 -20.14442743     920.48572619     885.21222708    
   2185.0008 -20.20225740     920.68901301     883.35971438    
   2185.1532 -20.30873319     921.16321384     881.55982190    
   2185.3056 -20.41654302     925.34470913     879.64428493    
   2185.4580 -20.53598167     928.88109354     881.76119963    
   2185.6104 -20.72062138     931.08375747     883.27328070    
   2185.7628 -20.77742235     928.73059431     883.73658459    
   2185.9152 -20.88290871     928.93840495     884.49860026    
   2186.0676 -20.92547396     930.31348069     885.32413586    
   2186.2200 -20.95960326     933.66062083     887.83046404    
   2186.3724 -20.97757801     939.75466189     887.78969065    
   2186.5248 -20.92467751     945.36275430     887.69975887    
   2186.6772 -20.75670158     947.88562662     886.98228592    
   2186.8296 -20.76703270     949.41478322     886.35221387    
   2186.9820 -20.52240815     949.67957322     887.23633232    
   2187.1344 -20.47661660     950.38925426     895.37167936    
   2187.2868 -20.41797492     951.02758235     903.02776976    
   2187.4392 -20.35472973     951.78297380     908.04832680    
   2187.5916 -20.29202916     958.32111179     903.42908340    
   2187.7440 -20.22959440     959.41067232     900.17367833    
   2187.8964 -20.16650987     955.46801320     900.42488708    
   2188.0488 -20.14409127     946.52243581     897.68974205    
   2188.2012 -20.14380132     937.06250895     894.75399992    
   2188.3536 -20.14372377     930.37189046     890.95843882    
   2188.5060 -20.14373150     925.29493315     887.83594704    
   2188.6584 -20.14373717     924.97385832     887.77029636    
   2188.8108 -20.14373717     926.42026546     883.82000052    
   2188.9632 -20.14411588     925.28314897     879.41258589    
   2189.1156 -20.14632615     921.50414929     875.03528669    
   2189.2680 -20.14200324     918.04016391     871.17856038    
   2189.4204 -20.10057173     916.46658270     869.92214661    
   2189.5728 -20.78199619     919.10511711     867.14729967    
   2189.7252 -20.76603803     923.36156454     865.82755368    
   2189.8776 -20.76098012     928.53041052     865.58133856    
   2190.0300 -20.33253801     934.79817657     872.18140743    
   2190.1824 -20.66892217     941.42894089     877.96832377    
   2190.3348 -20.96641291     945.36335777     882.94430056    
   2190.4872 -20.99990313     949.55661592     886.88404717    
   2190.6396 -20.91365531     954.21480247     894.83763986    
   2190.7920 -21.03289241     954.05165954     900.59791671    
   2190.9444 -20.96862190     949.84372783     902.36189420    
   2191.0968 -20.98272195     949.89496009     906.46378199    
   2191.2492 -20.75860489     951.75198082     900.97357596    
   2191.4016 -20.76385982     951.92637030     897.57238109    
   2191.5540 -20.76449194     946.66456318     898.37057215    
   2191.7064 -20.76215372     940.51031744     895.48300308    
   2191.8588 -20.98106598     937.09052806     891.03381330    
   2192.0112 -21.12288094     934.92462035     886.60774910    
   2192.1636 -21.02535315     937.84141617     884.07504944    
   2192.3160 -20.95911645     942.96059688     885.68462667    
   2192.4684 -20.96882302     947.52019096     885.78247115    
   2192.6208 -21.15208223     949.90297596     885.77141904    
   2192.7732 -21.05123683     951.73660816     883.89871913    
   2192.9256 -21.08171371     949.65191449     881.71763277    
   2193.0780 -20.84095867     946.36349386     879.47111575    
   2193.2304 -20.50210632     939.49236866     884.16637555    
   2193.3828 -20.35895679     929.25941531     881.41330106    
   2193.5352 -20.57229924     920.17859411     874.93869159    
   2193.6876 -20.76199813     919.28775754     868.32749781    
   2193.8400 -20.96855851     922.13392741     867.47654950    
   2193.9924 -20.96288264     925.46067276     865.16683116    
   2194.1448 -20.93634619     928.58740637     865.11281617    
   2194.2972 -20.95512051     931.68308332     868.61685911    
   2194.4496 -20.75997506     935.77766276     875.84332709    
   2194.6020 -20.76320463     940.89092718     877.51914129    
   2194.7544 -20.82113398     943.45247338     877.54493694    
   2194.9068 -20.74883678     945.59045837     879.68389574    
   2195.0592 -20.76175717     946.93565815     884.96647651    
   2195.2116 -20.76753612     948.92782130     892.29612545    
   2195.3640 -20.49657676     947.92147940     895.96701217    
   2195.5164 -20.31830017     942.23565629     895.00214316    
   2195.6688 -20.17460994     937.78433612     894.08165070    
   2195.8212 -19.93673836     934.99978509     893.98672780    
   2195.9736 -19.94336113     936.21682630     896.26554734    
   2196.1260 -19.94312890     939.43143941     896.08665068    
   2196.2784 -19.89814769     944.33392752     896.04163481    
   2196.4308 -19.74232215     951.40461322     896.05085712    
   2196.5832 -19.73281297     958.34229473     896.16280013    
   2196.7356 -19.73360076     959.83045503     897.75970787    
   2196.8880 -19.73428393     957.54699854     897.88055105    
   2197.0404 -19.87980937     945.69630080     892.23523088    
   2197.1928 -20.12879357     935.55228372     887.03277036    
   2197.3452 -20.34931676     929.39471940     885.86337712    
   2197.4976 -20.33857507     929.02506862     885.47286832    
