~Version Information Block
 VERS.                2.00:     CWLS LOG ASCII STANDARD - VERSION 2.000000
 WRAP.                  NO:     One Line Per Depth Step
#
~Well Information Block
#MNEM.UNIT                     Data                         Information
#----------   ------------------------------------------   ----------------
 STRT.M                                      1950.0000:     START DEPTH
 STOP.M                                      2299.9104:     STOP DEPTH
 STEP.M                                         0.1524:     STEP
 NULL.                                       -999.2500:     NULL VALUE
 COMP.                                        Alphabow:     COMPANY
 WELL.                   SOC PINE CK 4-15-56-19 #92507:     WELL
 FLD .                                                :     FIELD
 LOC .                                                :     LOCATION
 CNTY.                                                :     COUNTY
 STAT.                                                :     STATE
 CTRY.                                                :     COUNTRY
 SRVC.                                                :     SERVICE COMPANY
 DATE.                                      03/29/2025:     DATE
 API .                                100041505619W500:     API NUMBER
 UWI .                                100041505619W500:     UWI NUMBER
 TVD .                                              NO:     TVD flag
 WSTA.                                             LOC:     Well status
#
~Curve Information Block
#MNEM.UNIT       API CODE      Curve Description
#----------    -------------   -------------------
 DEPT.M                    :   Depth in Meters
 SP  .MV       01 010 01 01:   Spontaneous Potential
 SFLU.OHMM     10 220 01 01:   SFL Resistivity (Unaveraged)
 ILD .OHMM     05 120 46 01:   Deep Induction Standard Processed Resistivity
#
~Parameter Information Block
#MNEM.UNIT            Value               Description
#----------    --------------------    -------------------
 RUN .                         ONE:    Run Number
 PDAT.                         UNK:    Permanent Datum
 EPD .M                 -9999.5000:    Elevation Of Perm. Datum
 WSTA.                         LOC:    
 TD  .M                  2300.0000:    Total Depth
#
~Other Information Block
<DescLogPlotStart>   NEURALOG PLOT DEFINITION
PLOTDEFVERSION: 3
LASFILE: C:\Users\wadet\Desktop\Alphabow Evaluation\well_info\second_white_spec
DEPTHSCALE: 240.000000
RESOLUTION: 200
DEPTHLABELFREQ: 50.000000
HEAVYGRIDFREQ: 50.000000
MEDIUMGRIDFREQ: 25.000000
LIGHTGRIDFREQ: 5.000000
#
#   TRACK 1
#
STARTTRACK: 
 LEFTX: 0.500000 inch
 RIGHTX: 3.000000 inch
 SCALETYPE: Linear
 NUMCHARTDIVISIONS: 9
CURVE: SP    -80.000000 20.000000  (0,0,255)      Solid             2     N    
ENDTRACK: 
#
#   TRACK 2
#
STARTTRACK: 
 LEFTX: 3.500000 inch
 RIGHTX: 8.500000 inch
 SCALETYPE: Linear
 NUMCHARTDIVISIONS: 34
CURVE: SFLU  2.000000   2000.000000 (0,131,131)    Solid             2     N   
CURVE: ILD   2.000000   2000.000000 (255,0,255)    Dot               2     N   
ENDTRACK: 
<DescLogPlotEnd>
~A DEPTH     SP               SFLU             ILD             
# ...
   2102.4000 -20.94852586     1013.32837973    984.88696067    
   2102.5524 -20.95827687     1013.48322513    987.48169573    
   2102.7048 -21.03632559     1014.95885181    988.40177909    
   2102.8572 -21.55358842     1018.13683861    987.98501490    
   2103.0096 -21.63499141     1022.23270556    987.56659677    
   2103.1620 -21.79018571     1029.78407590    987.14018041    
   2103.3144 -21.78210743     1033.72939208    986.71294766    
   2103.4668 -21.78389603     1025.57182830    986.28620760    
   2103.6192 -21.60639855     1018.77172523    985.85946754    
   2103.7716 -21.77073029     997.26322846     985.43272747    
   2103.9240 -21.80971165     997.23855448     985.00598741    
   2104.0764 -22.00159060     994.30676445     984.57924734    
   2104.2288 -22.02836374     988.40332057     984.15250728    
   2104.3812 -22.15883607     988.46301115     983.72576722    
   2104.5336 -22.43883295     991.21869592     983.29902715    
   2104.6860 -22.63204384     988.65687456     982.87228709    
   2104.8384 -22.80293050     987.47498344     982.44554702    
   2104.9908 -22.54654956     983.55604744     982.01880344    
   2105.1432 -22.40484432     992.63145971     981.59358766    
   2105.2956 -22.16894912     997.42383528     981.16895981    
   2105.4480 -22.03355914     992.46356946     980.71928342    
   2105.6004 -21.94837580     982.31529457     979.63170841    
   2105.7528 -21.79467515     983.25867448     976.28452700    
   2105.9052 -21.79004647     989.95853941     972.99981769    
   2106.0576 -21.78574451     970.98449872     969.72247864    
   2106.2100 -22.01434178     966.71601251     966.44164125    
   2106.3624 -21.98235826     973.90928326     963.16030096    
   2106.5148 -21.79837027     963.18625045     959.87662503    
   2106.6672 -21.05960371     986.38966930     956.59737250    
   2106.8196 -20.94951524     986.14241424     953.61450478    
   2106.9720 -20.98081129     988.65161347     952.86261091    
   2107.1244 -20.96754824     988.55804088     952.12701164    
   2107.2768 -21.46191531     987.12616011     950.98897088    
   2107.4292 -21.62515417     982.94653329     948.50353466    
   2107.5816 -21.55791674     976.97121505     946.06794095    
   2107.7340 -21.62352221     974.11993447     943.63695564    
   2107.8864 -21.20947483     970.65160547     941.20462193    
   2108.0388 -20.96299159     965.16320112     938.77588019    
   2108.1912 -20.95892964     961.90423376     936.70553537    
   2108.3436 -20.96451200     961.96510472     935.34073111    
   2108.4960 -20.99796162     964.20839843     933.97342514    
   2108.6484 -21.45680434     965.85218510     933.65697087    
   2108.8008 -21.79884014     964.07957311     935.22477608    
   2108.9532 -22.01102308     963.99404871     936.76321989    
   2109.1056 -22.18236153     963.91537597     938.30249967    
   2109.2580 -22.43223821     966.04032964     939.84400654    
   2109.4104 -22.58249335     968.17063147     941.38543535    
   2109.5628 -22.78423617     967.59401532     942.92686416    
   2109.7152 -22.77801345     964.18324491     944.46829298    
   2109.8676 -22.84495448     958.46556791     946.00951446    
   2110.0200 -22.81559285     953.88514198     947.55056954    
   2110.1724 -22.80974070     951.54821213     949.09469964    
   2110.3248 -22.80614543     953.85189790     950.64822385    
   2110.4772 -22.84866553     953.73421097     953.04835952    
   2110.6296 -23.05857883     951.36831972     957.08302328    
   2110.7820 -23.38016766     954.28710819     961.13962391    
   2110.9344 -23.43217572     960.00046984     966.04058214    
   2111.0868 -23.42808151     970.22839353     973.93960662    
   2111.2392 -23.47418451     976.60762482     981.69206834    
   2111.3916 -23.76959555     978.18134257     989.43225163    
   2111.5440 -24.09362736     984.78309481     997.17981239    
   2111.6964 -24.46566369     988.89066202     1004.92790593   
   2111.8488 -24.68722756     992.61459793     1012.67599948   
   2112.0012 -24.65956793     991.74227984     1020.42409302   
   2112.1536 -24.44539314     992.75569999     1028.17218656   
   2112.3060 -24.07939329     1023.19168187    1035.92044804   
   2112.4584 -23.87332524     1120.30937325    1043.66686809   
   2112.6108 -23.85097153     1268.07251393    1051.41107060   
   2112.7632 -23.36961308     1355.14640104    1059.17612330   
   2112.9156 -22.79379998     1294.96742505    1064.91348758   
   2113.0680 -22.30856097     1234.99636401    1068.95831724   
   2113.2204 -21.43657556     1176.67969246    1072.97014881   
   2113.3728 -21.11421464     1137.33482850    1076.98386104   
   2113.5252 -20.37539459     1122.02700093    1075.08460807   
   2113.6776 -19.92965243     1119.91065839    1066.44207514   
   2113.8300 -19.75282211     1132.20528099    1057.84658399   
   2113.9824 -19.53774976     1133.94436649    1047.66056842   
   2114.1348 -19.22897660     1127.19841036    1036.22682102   
   2114.2872 -18.71523979     1107.51102519    1039.76811574   
   2114.4396 -18.34661863     1081.20024544    1047.20187141   
   2114.5920 -17.94674120     1062.22778686    1054.78499451   
   2114.7444 -17.68103736     1032.02530916    1062.36510958   
   2114.8968 -17.63946683     995.81136665     1069.93656708   
   2115.0492 -17.63678902     986.18826352     1077.53257203   
   2115.2016 -17.62602063     976.75618950     1085.11790133   
   2115.3540 -17.30038877     964.75717761     1092.29793219   
   2115.5064 -17.46712198     958.31571559     1088.61435947   
   2115.6588 -17.69317325     954.99884823     1056.23974871   
   2115.8112 -17.73942254     951.89617770     1025.12939604   
   2115.9636 -17.57493238     937.02039664     994.09700075    
   2116.1160 -17.26956654     936.34612991     963.01636785    
   2116.2684 -17.04634843     915.34562986     931.95572485    
   2116.4208 -17.28665541     903.78566307     900.68390322    
   2116.5732 -17.49718091     917.48074318     885.99783610    
   2116.7256 -17.47187055     924.48120275     882.57805759    
   2116.8780 -17.51385699     925.24498065     879.89496867    
   2117.0304 -17.67628751     921.53021303     882.09478747    
   2117.1828 -17.67670118     916.30843831     884.36189627    
   2117.3352 -17.84686889     920.81525230     887.22052113    
   2117.4876 -17.67559395     926.30058714     891.23447652    
   2117.6400 -17.67078505     932.01910550     895.22656740    
   2117.7924 -17.90732169     939.17862949     898.85419734    
   2117.9448 -17.89231288     945.21767364     901.50657550    
   2118.0972 -17.84111474     947.16845371     904.21601757    
   2118.2496 -17.68675489     948.05578524     906.12292844    
   2118.4020 -17.73674200     950.87561093     908.05969709    
   2118.5544 -17.67077285     956.04873458     910.08249470    
   2118.7068 -17.45486901     953.61956096     908.63347344    
   2118.8592 -17.45161917     949.49846346     906.29381539    
   2119.0116 -17.68037459     945.31820151     903.91915622    
   2119.1640 -17.67903856     943.40446638     901.54789731    
   2119.3164 -17.69817968     942.92368327     899.17573315    
   2119.4688 -17.46931343     936.99670995     896.75844581    
   2119.6212 -17.51841377     930.84093407     894.43702291    
   2119.7736 -17.67201893     922.52356157     892.05116099    
   2119.9260 -17.67341309     917.10577668     889.67822302    
   2120.0784 -17.52112820     913.59434571     887.30610231    
   2120.2308 -17.47815970     912.79865123     884.93126217    
   2120.3832 -17.26781597     918.47661381     882.73831869    
   2120.5356 -17.07235101     926.44713932     880.77031290    
   2120.6880 -16.89681031     928.61971116     878.84433995    
   2120.8404 -16.99720907     923.05499368     882.90017374    
   2120.9928 -17.11795400     912.84245285     896.53634330    
   2121.1452 -17.26966446     905.86881061     910.04699964    
   2121.2976 -17.26715091     905.72452268     923.57723949    
