~Version Information Block
 VERS.                2.00:     CWLS LOG ASCII STANDARD - VERSION 2.000000
 WRAP.                  NO:     One Line Per Depth Step
#
~Well Information Block
#MNEM.UNIT                     Data                         Information
#----------   ------------------------------------------   ----------------
 STRT.M                                      1950.0000:     START DEPTH
 STOP.M                                      2299.9104:     STOP DEPTH
 STEP.M                                         0.1524:     STEP
 NULL.                                       -999.2500:     NULL VALUE
 COMP.                                        Alphabow:     COMPANY
 WELL.                   SOC PINE CK 4-15-56-19 #92507:     WELL
 FLD .                                                :     FIELD
 LOC .                                                :     LOCATION
 CNTY.                                                :     COUNTY
 STAT.                                                :     STATE
 CTRY.                                                :     COUNTRY
 SRVC.                                                :     SERVICE COMPANY
 DATE.                                      03/29/2025:     DATE
 API .                                100041505619W500:     API NUMBER
 UWI .                                100041505619W500:     UWI NUMBER
 TVD .                                              NO:     TVD flag
 WSTA.                                             LOC:     Well status
#
~Curve Information Block
#MNEM.UNIT       API CODE      Curve Description
#----------    -------------   -------------------
 DEPT.M                    :   Depth in Meters
 SP  .MV       01 010 01 01:   Spontaneous Potential
 SFLU.OHMM     10 220 01 01:   SFL Resistivity (Unaveraged)
 ILD .OHMM     05 120 46 01:   Deep Induction Standard Processed Resistivity
#
~Parameter Information Block
#MNEM.UNIT            Value               Description
#----------    --------------------    -------------------
 RUN .                         ONE:    Run Number
 PDAT.                         UNK:    Permanent Datum
 EPD .M                 -9999.5000:    Elevation Of Perm. Datum
 WSTA.                         LOC:    
 TD  .M                  2300.0000:    Total Depth
#
~Other Information Block
<DescLogPlotStart>   NEURALOG PLOT DEFINITION
PLOTDEFVERSION: 3
LASFILE: C:\Users\wadet\Desktop\Alphabow Evaluation\well_info\second_white_spec
DEPTHSCALE: 240.000000
RESOLUTION: 200
DEPTHLABELFREQ: 50.000000
HEAVYGRIDFREQ: 50.000000
MEDIUMGRIDFREQ: 25.000000
LIGHTGRIDFREQ: 5.000000
#
#   TRACK 1
#
STARTTRACK: 
 LEFTX: 0.500000 inch
 RIGHTX: 3.000000 inch
 SCALETYPE: Linear
 NUMCHARTDIVISIONS: 9
CURVE: SP    -80.000000 20.000000  (0,0,255)      Solid             2     N    
ENDTRACK: 
#
#   TRACK 2
#
STARTTRACK: 
 LEFTX: 3.500000 inch
 RIGHTX: 8.500000 inch
 SCALETYPE: Linear
 NUMCHARTDIVISIONS: 34
CURVE: SFLU  2.000000   2000.000000 (0,131,131)    Solid             2     N   
CURVE: ILD   2.000000   2000.000000 (255,0,255)    Dot               2     N   
ENDTRACK: 
<DescLogPlotEnd>
~A DEPTH     SP               SFLU             ILD             
# ...
   2140.5000 -23.02023377     943.09980124     901.65736587    
   2140.6524 -22.75470557     945.58629028     899.45865249    
   2140.8048 -22.61307770     943.40991101     898.31199040    
   2140.9572 -22.83824576     939.17671896     898.77349964    
   2141.1096 -23.00197281     933.10682111     899.21981213    
   2141.2620 -22.62427247     928.95738657     899.67599205    
   2141.4144 -22.36548324     929.24196727     900.13421835    
   2141.5668 -22.78979554     934.91629537     900.59191202    
   2141.7192 -23.23826644     943.56151104     901.04958214    
   2141.8716 -22.84320011     949.98956752     901.50618431    
   2142.0240 -21.98859300     962.33376219     901.96187485    
   2142.1764 -21.08345918     974.48147381     902.47893682    
   2142.3288 -21.25535195     976.15169064     903.09795427    
   2142.4812 -21.72571365     962.71583866     903.73285331    
   2142.6336 -21.58186693     946.76387639     904.09520618    
   2142.7860 -21.73984076     934.40544090     898.93887910    
   2142.9384 -21.83286956     927.06135113     893.67440392    
   2143.0908 -22.19046968     921.16021641     888.43836076    
   2143.2432 -22.00247704     916.98704387     883.24177691    
   2143.3956 -22.03264103     916.61726643     879.52081559    
   2143.5480 -22.16256576     916.56314927     879.59740175    
   2143.7004 -22.59261978     915.14494047     879.63333206    
   2143.8528 -22.61741864     912.32329442     880.51369992    
   2144.0052 -22.71440959     917.05621267     883.76299282    
   2144.1576 -22.80716065     925.85592031     886.88012977    
   2144.3100 -22.82375688     934.83729411     892.86497377    
   2144.4624 -22.32042673     943.70630788     900.03697449    
   2144.6148 -21.91629022     949.86543190     907.24921512    
   2144.7672 -21.17515898     957.89679707     907.56251881    
   2144.9196 -21.16482587     964.73634393     906.61352003    
   2145.0720 -21.16981367     959.81764486     905.62102700    
   2145.2244 -21.17000565     951.72201801     904.63430945    
   2145.3768 -21.16983302     945.28634874     903.65007765    
   2145.5292 -21.17025997     945.33776162     902.66578703    
   2145.6816 -21.77320073     943.59829583     901.68149641    
   2145.8340 -20.13808914     933.16370258     900.69720580    
   2145.9864 -21.13743788     924.55389447     899.71291518    
   2146.1388 -21.15130194     925.14719648     898.72862457    
   2146.2912 -21.12717801     956.19237769     897.74433395    
   2146.4436 -21.10326205     967.26535312     896.76004334    
   2146.5960 -21.08253495     955.95533285     895.77575272    
   2146.7484 -21.06165211     934.06950357     894.79146210    
   2146.9008 -21.04076928     911.59572645     893.80717149    
   2147.0532 -21.01988644     892.77253935     892.82288087    
   2147.2056 -20.99900360     883.21085628     891.83859026    
   2147.3580 -20.97812077     887.54382863     890.85429964    
   2147.5104 -20.95723793     898.83094254     889.87000902    
   2147.6628 -20.93635510     922.67958443     888.88659246    
   2147.8152 -20.91547226     932.73791127     887.90705355    
   2147.9676 -20.89458942     931.10449897     886.91231829    
   2148.1200 -20.87370659     922.63595643     885.84857252    
   2148.2724 -20.85282375     918.59911768     888.10860633    
   2148.4248 -20.83193326     920.61309748     890.86741750    
   2148.5772 -20.81106815     923.45577791     893.62875322    
   2148.7296 -20.79032865     926.81656582     893.13038991    
   2148.8820 -20.76942090     931.51072475     892.14032354    
   2149.0344 -20.77243731     939.38844579     891.14050639    
   2149.1868 -20.79500051     947.26839535     890.14378739    
   2149.3392 -20.81759907     947.35063267     889.14748562    
   2149.4916 -20.84034081     939.70811634     888.15118386    
   2149.6440 -20.86309600     930.29580806     887.15488209    
   2149.7964 -20.88584250     923.20234248     886.15858033    
   2149.9488 -20.90858900     920.08222410     885.16212664    
   2150.1012 -20.93133550     914.60281459     884.16593534    
   2150.2536 -20.95408200     909.86353233     883.17227217    
   2150.4060 -20.97682850     906.23500085     882.17872886    
   2150.5584 -20.99957500     906.55332315     881.49280135    
   2150.7108 -21.02232150     912.28340116     881.14511889    
   2150.8632 -21.04506800     926.79470492     880.79594149    
   2151.0156 -21.06781450     940.71127365     880.44975317    
   2151.1680 -21.09056555     943.41848459     880.10704489    
   2151.3204 -21.11239057     927.06929717     879.76058502    
   2151.4728 -21.14019459     912.67133210     879.96603579    
   2151.6252 -21.17876285     906.17313667     880.63194064    
   2151.7776 -21.28216159     908.46925750     881.29766595    
   2151.9300 -21.54252612     912.67883610     882.33021192    
   2152.0824 -26.55722717     917.78948748     883.79802061    
   2152.2348 -22.01112957     924.85433920     885.29895864    
   2152.3872 -21.95684500     933.11583991     887.03060159    
   2152.5396 -21.98791732     939.23480194     888.97295156    
   2152.6920 -21.93167191     940.89155883     890.90433445    
   2152.8444 -22.00483455     936.90157100     892.25463772    
   2152.9968 -22.15395239     929.90882144     892.93060604    
   2153.1492 -22.55178175     926.82375603     893.60641753    
   2153.3016 -22.81838942     926.69299889     893.40861859    
   2153.4540 -22.84004450     929.01623886     892.06756257    
   2153.6064 -22.35603774     926.38071274     890.74184693    
   2153.7588 -21.88604836     922.50588717     889.87507420    
   2153.9112 -21.51590626     918.25993043     889.88864863    
   2154.0636 -26.31636408     919.84856036     889.88055739    
   2154.2160 -20.07545285     925.88590714     889.69873911    
   2154.3684 -20.58269134     928.48502481     889.02905416    
   2154.5208 -21.21277205     921.64342124     888.38082289    
   2154.6732 -21.41250752     918.50169075     887.66653031    
   2154.8256 -21.16337469     926.57187069     886.52995025    
   2154.9780 -21.15207571     935.83913216     885.37758971    
   2155.1304 -21.11383211     943.19107808     884.23455713    
   2155.2828 -21.07120201     931.27935207     881.21540821    
   2155.4352 -21.02869775     917.96879057     876.50522572    
   2155.5876 -20.98642410     904.11307689     871.78582269    
   2155.7400 -20.94415025     898.04832540     867.33993525    
   2155.8924 -20.90187639     900.24730399     869.07521756    
   2156.0448 -20.85960253     903.93882802     872.94398695    
   2156.1972 -20.81732867     908.54013723     877.58135270    
   2156.3496 -20.77505482     906.96104645     880.92296443    
   2156.5020 -20.73278096     904.16300093     883.30057421    
   2156.6544 -20.69050710     904.59823839     885.61575917    
   2156.8068 -20.64823325     909.84235746     887.88660927    
   2156.9592 -20.60595939     916.58472699     889.24738345    
   2157.1116 -20.56368553     920.55611388     894.06262776    
   2157.2640 -20.52141167     924.52145270     896.49602245    
   2157.4164 -20.47913782     924.92487097     898.74392461    
   2157.5688 -20.43686396     924.30177677     901.22120715    
   2157.7212 -20.39459010     921.03670584     904.25231578    
   2157.8736 -20.35231625     920.92727346     908.51263616    
   2158.0260 -20.31004239     926.30983812     908.85209607    
   2158.1784 -20.26776853     930.90394740     910.36551243    
   2158.3308 -20.22549467     944.87360990     910.51601741    
   2158.4832 -20.18322082     957.52877092     908.82394177    
   2158.6356 -20.14094696     959.87989119     906.84025908    
   2158.7880 -20.09867310     951.89747851     904.86773026    
   2158.9404 -20.05639925     941.92903852     902.72287186    
   2159.0928 -20.01412539     933.65708624     904.34451742    
   2159.2452 -19.97185153     931.14726924     906.38340621    
   2159.3976 -19.92957767     936.88889727     908.50846798    
