~Version Information Block
 VERS.                2.00:     CWLS LOG ASCII STANDARD - VERSION 2.000000
 WRAP.                  NO:     One Line Per Depth Step
#
~Well Information Block
#MNEM.UNIT                     Data                         Information
#----------   ------------------------------------------   ----------------
 STRT.M                                      2015.0000:     START DEPTH
 STOP.M                                      2349.9752:     STOP DEPTH
 STEP.M                                         0.1524:     STEP
 NULL.                                       -999.2500:     NULL VALUE
 COMP.                                        Alphabow:     COMPANY
 WELL.                   SOC PINE CK 4-15-56-19 #92507:     WELL
 FLD .                                      Pine Creek:     FIELD
 LOC .                           100/04-15-056-19W5/00:     LOCATION
 CNTY.                                                :     COUNTY
 STAT.                                         Alberta:     STATE
 CTRY.                                          Canada:     COUNTRY
 SRVC.                                                :     SERVICE COMPANY
 DATE.                                      03/27/2025:     DATE
 API .                                100041505619W500:     API NUMBER
 UWI .                                100041505619W500:     UWI NUMBER
 TVD .                                              NO:     TVD flag
 WSTA.                                             LOC:     Well status
#
~Curve Information Block
#MNEM.UNIT       API CODE      Curve Description
#----------    -------------   -------------------
 DEPT.M                    :   Depth in Meters
 CALI.mm       70 280 01 01:   Caliper
 GR  .GAPI     35 310 01 01:   Gamma Ray
 RHOB.kg/m3     42 350 01 01:   Bulk Density
#
~Parameter Information Block
#MNEM.UNIT            Value               Description
#----------    --------------------    -------------------
 RUN .                         ONE:    Run Number
 PDAT.                         UNK:    Permanent Datum
 EPD .M                 -9999.5000:    Elevation Of Perm. Datum
 TD  .M                  2350.0000:    Total Depth
 WSTA.                         LOC:    
 LATB.M                     0.0000:    
 LONB.M                     0.0000:    
#
~Other Information Block
<DescLogPlotStart>   NEURALOG PLOT DEFINITION
PLOTDEFVERSION: 3
LASFILE: C:\Users\wadet\Desktop\Alphabow Evaluation\well_info\second_white_spec
DEPTHSCALE: 600.000000
RESOLUTION: 200
DEPTHLABELFREQ: 100.000000
HEAVYGRIDFREQ: 50.000000
MEDIUMGRIDFREQ: 25.000000
LIGHTGRIDFREQ: 25.000000
#
#   TRACK 1
#
STARTTRACK: 
 LEFTX: 0.500000 inch
 RIGHTX: 3.000000 inch
 SCALETYPE: Linear
 NUMCHARTDIVISIONS: 9
CURVE: CALI  125.000000 375.000000 (0,0,255)      Solid             2     N    
CURVE: GR    0.000000   150.000000 (0,131,131)    Dot               2     Y    
BACKUP: 150.000000 300.000000 (0,131,131)    Dot               2    
ENDTRACK: 
#
#   TRACK 2
#
STARTTRACK: 
 LEFTX: 3.500000 inch
 RIGHTX: 8.500000 inch
 SCALETYPE: Linear
 NUMCHARTDIVISIONS: 17
CURVE: RHOB  2000.000000 3000.000000 (255,0,255)    Solid             2     N  
ENDTRACK: 
<DescLogPlotEnd>
~A DEPTH     CALI             GR               RHOB            
# ...
   2300.7500 229.67287161     136.82851240     2589.72687055   
   2300.9024 229.67007650     136.82851240     2591.83668738   
   2301.0548 229.66728139     130.94008264     2589.77046281   
   2301.2072 229.66448628     127.44088264     2589.73697449   
   2301.3596 229.66169118     123.51311901     2606.32692247   
   2301.5120 229.65889607     87.24173554      2628.87718183   
   2301.6644 229.65610096     90.34090909      2661.03667789   
   2301.8168 229.65330585     91.27066116      2675.22445706   
   2301.9692 229.65051074     98.39876033      2671.39516449   
   2302.1216 229.64771563     110.79545455     2655.58774883   
   2302.2740 229.64492053     120.09297521     2622.97811020   
   2302.4264 229.64212542     126.29132231     2602.98078859   
   2302.5788 229.63932985     130.01033058     2579.69843609   
   2302.7312 229.63755602     132.79958678     2570.00054467   
   2302.8836 229.63471537     134.34917355     2562.16815755   
   2303.0360 229.63336062     135.64915591     2572.13860732   
   2303.1884 229.62985735     135.22870810     2583.74073889   
   2303.3408 229.62939503     134.37749434     2591.76463257   
   2303.4932 229.62452125     132.76707002     2593.99731658   
   2303.6456 229.62469813     130.95605961     2596.95813741   
   2303.7980 229.61840889     129.36012365     2609.42077290   
   2303.9504 229.61991579     128.44585707     2619.72389957   
   2304.1028 229.61240926     128.43342390     2631.06788903   
   2304.2552 229.61495518     127.21338056     2631.13182850   
   2304.4076 229.60664533     125.96158328     2621.73562403   
   2304.5600 229.60971311     125.36777826     2609.48387733   
   2304.7124 229.60119413     127.20972789     2600.00866871   
   2304.8648 229.60384772     129.40030394     2600.19510753   
   2305.0172 230.25128219     130.73622096     2606.64498548   
   2305.1696 230.98637490     131.05495984     2613.82592159   
   2305.3220 231.71220645     130.01028361     2622.62944331   
   2305.4744 232.44606548     127.23810377     2625.00762285   
   2305.6268 233.17328638     125.06102636     2627.75359355   
   2305.7792 233.72835467     124.44222118     2619.88721703   
   2305.9316 233.85520969     124.44399532     2611.25630155   
   2306.0840 233.95924909     125.05295264     2605.45953488   
   2306.2364 234.06234691     126.92254516     2614.35456680   
   2306.3888 234.16526861     129.38090915     2629.18365215   
   2306.5412 234.26921199     130.63671509     2634.98426119   
   2306.6936 234.37113380     129.68802442     2626.09809732   
   2306.8460 234.47551615     127.22956634     2611.27244425   
   2306.9984 234.57723179     127.52461656     2596.19362659   
   2307.1508 234.68166367     129.39589779     2586.51941350   
   2307.3032 234.78345908     132.17383399     2578.65662641   
   2307.4556 234.88882441     134.03485102     2579.30515436   
   2307.6080 234.99067649     134.65566006     2587.93727033   
   2307.7604 235.09623509     134.02883056     2602.00455341   
   2307.9128 235.19777598     131.87169318     2614.73832674   
   2308.0652 235.30374403     130.30839060     2626.75348950   
   2308.2176 235.40450345     128.77981720     2621.93044053   
   2308.3700 235.51035820     129.06888933     2615.42547797   
   2308.5224 235.61061795     129.75031914     2611.60727604   
   2308.6748 235.71682958     129.65975100     2613.41354680   
   2308.8272 235.79103235     129.47333500     2617.79762445   
   2308.9796 235.62437772     129.01872036     2621.69905542   
   2309.1320 235.48545495     129.20597131     2624.97187671   
   2309.2844 235.35260929     129.57872043     2625.82600568   
   2309.4368 235.21398874     130.49103761     2618.70983258   
   2309.5892 235.08072808     130.11781481     2608.31653482   
   2309.7416 234.94261453     130.55367183     2599.07964014   
   2309.8940 234.80877995     130.67903150     2599.08339223   
   2310.0464 234.67127931     131.60885528     2606.62071857   
   2310.1988 234.53682199     131.52721816     2612.81733221   
   2310.3512 234.39992521     132.03874403     2614.47008682   
   2310.5036 234.26490958     131.70120943     2614.67810090   
   2310.6560 234.12850238     132.63917719     2618.53751601   
   2310.8084 233.99308436     157.72978507     2625.00421243   
   2310.9608 233.85697952     142.50984727     2635.99957731   
   2311.1132 233.72136585     147.86619864     2645.65006186   
   2311.2656 233.58530584     156.70483438     2649.38779213   
   2311.4180 233.44929875     150.40029804     2650.81459055   
   2311.5704 233.31329166     156.65165652     2646.28407033   
   2311.7228 233.17728457     140.54084385     2625.02973179   
   2311.8752 233.04127748     132.76530867     2619.49272181   
   2312.0276 232.90527039     128.51295322     2616.75131414   
   2312.1800 232.76926329     125.60991480     2619.52340478   
   2312.3324 232.63332546     124.82745785     2619.81684834   
   2312.4848 232.49749236     125.89985584     2614.42138918   
   2312.6372 232.36155425     127.93093124     2613.60945661   
   2312.7896 232.22575223     129.02104319     2616.51300768   
   2312.9420 232.08975084     127.27271062     2617.70681492   
   2313.0944 231.95404387     125.64987752     2608.29309658   
   2313.2468 231.81791800     123.22789477     2602.25805048   
   2313.3992 231.68236078     124.76492588     2604.19281443   
   2313.5516 231.54606568     126.57934639     2610.52838460   
   2313.7040 231.41069000     128.24430764     2606.22941466   
   2313.8564 231.27420918     127.74720006     2595.08204742   
   2314.0088 231.13901476     127.07611383     2585.56630293   
   2314.1612 231.00236584     126.73708820     2578.59448026   
   2314.3136 230.86731810     128.98632773     2585.52904129   
   2314.4660 230.73055122     130.08207336     2592.03076503   
   2314.6184 230.64006144     131.19977626     2598.91038219   
   2314.7708 230.66666469     129.11349069     2600.29707105   
   2314.9232 230.69511820     128.85613069     2599.91483700   
   2315.0756 230.72175942     149.43285432     2599.54047657   
   2315.2280 230.75008393     128.26877231     2598.13863415   
   2315.3804 230.77681131     127.49900680     2599.26660378   
   2315.5328 230.80497683     130.40780747     2603.00787916   
   2315.6852 230.83189043     131.23744455     2605.41370342   
   2315.8376 230.85985141     134.05020184     2609.20950209   
   2315.9900 230.88697820     134.37799632     2599.22091225   
   2316.1424 230.91472725     135.19797141     2588.62335502   
   2316.2948 230.94205509     134.45243925     2578.56624105   
   2316.4472 230.96962273     134.49928060     2575.22394378   
   2316.5996 230.99710491     133.60891904     2580.59919261   
   2316.7520 231.02455100     134.73722048     2587.62905909   
   2316.9044 231.05211821     134.91919531     2595.03581646   
   2317.0568 231.07959271     134.98456176     2594.86462860   
   2317.2092 231.10734949     140.54383758     2592.94516782   
   2317.3616 231.13482636     142.39937859     2593.82547084   
   2317.5140 231.12938565     162.12516458     2596.00824202   
   2317.6664 231.10124898     186.68756938     2595.88246668   
   2317.8188 231.07334759     185.61704676     2590.84771907   
   2317.9712 231.04523579     176.31852732     2586.62687239   
   2318.1236 231.01730643     160.84132082     2581.58416383   
   2318.2760 230.98922432     145.27733544     2585.62988874   
   2318.4284 230.96126500     130.34462425     2588.78162605   
   2318.5808 230.93321172     128.75125749     2583.55150457   
   2318.7332 230.90522600     130.34277741     2577.39654857   
   2318.8856 230.87719556     133.71108554     2577.36908633   
   2319.0380 230.84919144     135.91278598     2586.64695504   
   2319.1904 230.82117436     135.57319806     2596.97497928   
   2319.3428 230.79316221     134.35355335     2595.92953176   
   2319.4952 230.76514786     133.71966784     2582.58811197   
   2319.6476 230.73713795     134.65889040     2570.17434447   
