~Version Information Block
 VERS.                2.00:     CWLS LOG ASCII STANDARD - VERSION 2.000000
 WRAP.                  NO:     One Line Per Depth Step
#
~Well Information Block
#MNEM.UNIT                     Data                         Information
#----------   ------------------------------------------   ----------------
 STRT.M                                      1950.0000:     START DEPTH
 STOP.M                                      2299.9104:     STOP DEPTH
 STEP.M                                         0.1524:     STEP
 NULL.                                       -999.2500:     NULL VALUE
 COMP.                                        Alphabow:     COMPANY
 WELL.                   SOC PINE CK 4-15-56-19 #92507:     WELL
 FLD .                                                :     FIELD
 LOC .                                                :     LOCATION
 CNTY.                                                :     COUNTY
 STAT.                                                :     STATE
 CTRY.                                                :     COUNTRY
 SRVC.                                                :     SERVICE COMPANY
 DATE.                                      03/29/2025:     DATE
 API .                                100041505619W500:     API NUMBER
 UWI .                                100041505619W500:     UWI NUMBER
 TVD .                                              NO:     TVD flag
 WSTA.                                             LOC:     Well status
#
~Curve Information Block
#MNEM.UNIT       API CODE      Curve Description
#----------    -------------   -------------------
 DEPT.M                    :   Depth in Meters
 SP  .MV       01 010 01 01:   Spontaneous Potential
 SFLU.OHMM     10 220 01 01:   SFL Resistivity (Unaveraged)
 ILD .OHMM     05 120 46 01:   Deep Induction Standard Processed Resistivity
#
~Parameter Information Block
#MNEM.UNIT            Value               Description
#----------    --------------------    -------------------
 RUN .                         ONE:    Run Number
 PDAT.                         UNK:    Permanent Datum
 EPD .M                 -9999.5000:    Elevation Of Perm. Datum
 WSTA.                         LOC:    
 TD  .M                  2300.0000:    Total Depth
#
~Other Information Block
<DescLogPlotStart>   NEURALOG PLOT DEFINITION
PLOTDEFVERSION: 3
LASFILE: C:\Users\wadet\Desktop\Alphabow Evaluation\well_info\second_white_spec
DEPTHSCALE: 240.000000
RESOLUTION: 200
DEPTHLABELFREQ: 50.000000
HEAVYGRIDFREQ: 50.000000
MEDIUMGRIDFREQ: 25.000000
LIGHTGRIDFREQ: 5.000000
#
#   TRACK 1
#
STARTTRACK: 
 LEFTX: 0.500000 inch
 RIGHTX: 3.000000 inch
 SCALETYPE: Linear
 NUMCHARTDIVISIONS: 9
CURVE: SP    -80.000000 20.000000  (0,0,255)      Solid             2     N    
ENDTRACK: 
#
#   TRACK 2
#
STARTTRACK: 
 LEFTX: 3.500000 inch
 RIGHTX: 8.500000 inch
 SCALETYPE: Linear
 NUMCHARTDIVISIONS: 34
CURVE: SFLU  2.000000   2000.000000 (0,131,131)    Solid             2     N   
CURVE: ILD   2.000000   2000.000000 (255,0,255)    Dot               2     N   
ENDTRACK: 
<DescLogPlotEnd>
~A DEPTH     SP               SFLU             ILD             
# ...
   2235.7500 -18.13323847     965.89053937     898.76606609    
   2235.9024 -18.28292258     963.28075917     898.44913983    
   2236.0548 -18.29931183     960.74663344     900.50841076    
   2236.2072 -18.29562439     958.23417167     899.88345099    
   2236.3596 -18.52272433     955.73837388     899.66844094    
   2236.5120 -18.50578501     953.22135888     894.29820861    
   2236.6644 -18.48797014     950.55602414     893.51293550    
   2236.8168 -18.30536105     946.48005423     892.37236279    
   2236.9692 -18.35557458     943.25022039     891.20361820    
   2237.1216 -18.49092502     943.14388075     890.01899556    
   2237.2740 -18.49944909     945.88497064     888.87876036    
   2237.4264 -18.72746220     947.30093567     887.78428400    
   2237.5788 -18.70050885     950.06357143     890.08997142    
   2237.7312 -18.54746123     955.07207144     889.81990279    
   2237.8836 -18.47627651     960.06534954     889.35100156    
   2238.0360 -18.09100321     959.16448167     888.94024142    
   2238.1884 -17.95507085     955.59349780     888.52618742    
   2238.3408 -17.67601852     949.41523371     888.05308873    
   2238.4932 -17.88380481     942.44301928     887.68363359    
   2238.6456 -18.29334982     937.46850289     891.97844987    
   2238.7980 -18.47891423     934.98298514     893.49394967    
   2238.9504 -18.47592403     931.32679961     889.95602297    
   2239.1028 -18.50349703     931.48271810     886.22900356    
   2239.2552 -18.65568134     935.07784062     882.50374037    
   2239.4076 -19.01480911     939.13865196     882.17721563    
   2239.5600 -19.35517301     941.70432435     885.27165869    
   2239.7124 -19.48365831     941.07342373     885.81389951    
   2239.8648 -19.28409183     941.50839207     885.36005629    
   2240.0172 -18.92182575     939.39384646     884.83565689    
   2240.1696 -18.48051664     941.07863035     884.29827361    
   2240.3220 -18.49382500     942.49396164     883.55511484    
   2240.4744 -18.74240231     945.06526738     885.50201034    
   2240.6268 -19.15229976     948.97180971     887.99242575    
   2240.7792 -19.48146782     951.56790961     891.81039668    
   2240.9316 -19.53287369     950.07943723     892.28064070    
   2241.0840 -19.37390182     945.50360149     892.86981294    
   2241.2364 -19.33364221     939.11020509     893.40242507    
   2241.3888 -19.48795473     936.05430786     894.44340014    
   2241.5412 -19.53046777     931.05769883     898.02962795    
   2241.6936 -19.51841304     932.89102857     900.14610278    
   2241.8460 -19.87432080     934.40542845     900.07500497    
   2241.9984 -20.39007641     933.25069220     897.14790258    
   2242.1508 -20.75748382     933.11766525     894.30181368    
   2242.3032 -20.92914972     933.07036402     891.47350276    
   2242.4556 -21.00822364     932.93543938     888.57051853    
   2242.6080 -21.21270995     936.56782671     887.85073837    
   2242.7604 -21.66600987     939.68879236     887.82438661    
   2242.9128 -21.63157233     941.20971796     887.82626818    
   2243.0652 -21.77296635     942.82447347     887.83471084    
   2243.2176 -21.80321069     943.63736178     887.83291178    
   2243.3700 -21.62619636     940.90179128     887.73202201    
   2243.5224 -21.92490542     939.35945065     885.91990903    
   2243.6748 -22.24253175     939.67463755     883.75767971    
   2243.8272 -22.61788248     941.22315604     882.06872352    
   2243.9796 -22.58153046     941.12103345     880.48472721    
   2244.1320 -22.40236215     939.81661027     881.30122943    
   2244.2844 -22.23970139     938.49668407     881.29033705    
   2244.4368 -22.15475298     937.26140532     878.92504246    
   2244.5892 -22.00729266     937.25601857     876.97647884    
   2244.7416 -21.95043867     936.87972598     875.15160964    
   2244.8940 -22.02020658     935.04839937     873.46030662    
   2245.0464 -21.89956515     931.11144386     873.41393402    
   2245.1988 -21.82116426     931.15148554     873.42320750    
   2245.3512 -21.98215444     932.78356137     873.46369172    
   2245.5036 -21.99244287     934.88824096     871.93377585    
   2245.6560 -21.99196734     936.85070353     869.95015720    
   2245.8084 -21.98954000     937.23446593     867.79092074    
   2245.9608 -22.00509718     937.69681775     866.94699923    
   2246.1132 -22.34781424     938.06359162     873.04617958    
   2246.2656 -22.40016046     934.86628685     872.84695514    
   2246.4180 -22.40699199     920.52544074     872.06477036    
   2246.5704 -22.42745759     908.66965268     871.80639330    
   2246.7228 -22.32942167     905.35675147     875.18022217    
   2246.8752 -22.50857737     920.91555718     879.56165878    
   2247.0276 -22.38801673     933.35402029     879.54930255    
   2247.1800 -22.17816316     938.90972414     881.75063641    
   2247.3324 -22.18718846     944.16665119     884.92771345    
   2247.4848 -22.03117759     949.43808530     888.12535183    
   2247.6372 -21.97452389     954.72733053     891.30531205    
   2247.7896 -21.86608889     960.01256401     894.13765829    
   2247.9420 -21.96740932     965.18447887     898.33788161    
   2248.0944 -21.59861043     970.45039898     900.15994958    
   2248.2468 -21.59368051     977.57568909     901.60561132    
   2248.3992 -21.74206631     986.19595625     904.45646216    
   2248.5516 -21.99615011     990.68081811     907.31868671    
   2248.7040 -22.20268593     992.86932837     910.29880407    
   2248.8564 -22.19363793     992.86860472     914.37523832    
   2249.0088 -22.25247475     988.98475012     918.53659022    
   2249.1612 -22.39704836     985.16676799     921.04405427    
   2249.3136 -22.26394541     974.57163704     920.78024365    
   2249.4660 -21.94187350     972.32055914     920.54832093    
   2249.6184 -21.77588164     971.62794555     919.56082867    
   2249.7708 -22.04001649     972.32723042     918.57152855    
   2249.9232 -22.58242397     973.75939826     917.58110512    
   2250.0756 -22.88057033     970.30766616     916.60010881    
   2250.2280 -23.01865675     968.12169746     915.62590424    
   2250.3804 -23.01666614     967.96006783     914.53284817    
   2250.5328 -23.01466050     974.13002403     917.03253090    
   2250.6852 -23.01939162     983.71154767     920.71290368    
   2250.8376 -22.79298885     986.29991695     920.72493270    
   2250.9900 -22.81069052     989.32400100     923.20723183    
   2251.1424 -22.80488271     991.27204408     927.23350921    
   2251.2948 -22.64831907     996.97402441     931.26621419    
   2251.4472 -22.60307233     1001.35111681    935.32159906    
   2251.5996 -22.60220047     1002.89033332    939.48979308    
   2251.7520 -22.60878296     1010.89028566    942.96464828    
   2251.9044 -22.38167159     1014.11767373    944.28863267    
   2252.0568 -22.39970710     1017.45735094    946.09421913    
   2252.2092 -22.40352763     1021.16613383    949.14211476    
   2252.3616 -22.40288193     1021.50963528    949.59546903    
   2252.5140 -22.40136257     1019.53909331    949.03200251    
   2252.6664 -22.39850289     1015.39299912    948.21000261    
   2252.8188 -22.41081966     1010.68170496    949.54514041    
   2252.9712 -22.33757009     1002.56638808    951.55274587    
   2253.1236 -22.44513769     1002.29288828    950.56563491    
   2253.2760 -22.59796971     1001.42644396    949.35738849    
   2253.4284 -22.58715130     999.21270721     948.18251417    
   2253.5808 -22.82395932     997.51042153     947.90130570    
   2253.7332 -22.97460215     994.74722914     951.81294799    
   2253.8856 -23.02186947     999.22180265     949.25872644    
   2254.0380 -23.01966542     1005.70123035    946.16677360    
   2254.1904 -23.02514944     1013.07719690    945.47715833    
   2254.3428 -23.04030188     1011.66372033    945.47720081    
   2254.4952 -23.02839814     1003.72468401    945.08149721    
   2254.6476 -22.85418350     1001.20769727    940.96535475    
