~Version Information Block
 VERS.                2.00:     CWLS LOG ASCII STANDARD - VERSION 2.000000
 WRAP.                  NO:     One Line Per Depth Step
#
~Well Information Block
#MNEM.UNIT                     Data                         Information
#----------   ------------------------------------------   ----------------
 STRT.M                                      2015.0000:     START DEPTH
 STOP.M                                      2349.9752:     STOP DEPTH
 STEP.M                                         0.1524:     STEP
 NULL.                                       -999.2500:     NULL VALUE
 COMP.                                        Alphabow:     COMPANY
 WELL.                   SOC PINE CK 4-15-56-19 #92507:     WELL
 FLD .                                      Pine Creek:     FIELD
 LOC .                           100/04-15-056-19W5/00:     LOCATION
 CNTY.                                                :     COUNTY
 STAT.                                         Alberta:     STATE
 CTRY.                                          Canada:     COUNTRY
 SRVC.                                                :     SERVICE COMPANY
 DATE.                                      03/27/2025:     DATE
 API .                                100041505619W500:     API NUMBER
 UWI .                                100041505619W500:     UWI NUMBER
 TVD .                                              NO:     TVD flag
 WSTA.                                             LOC:     Well status
#
~Curve Information Block
#MNEM.UNIT       API CODE      Curve Description
#----------    -------------   -------------------
 DEPT.M                    :   Depth in Meters
 CALI.mm       70 280 01 01:   Caliper
 GR  .GAPI     35 310 01 01:   Gamma Ray
 RHOB.kg/m3     42 350 01 01:   Bulk Density
#
~Parameter Information Block
#MNEM.UNIT            Value               Description
#----------    --------------------    -------------------
 RUN .                         ONE:    Run Number
 PDAT.                         UNK:    Permanent Datum
 EPD .M                 -9999.5000:    Elevation Of Perm. Datum
 TD  .M                  2350.0000:    Total Depth
 WSTA.                         LOC:    
 LATB.M                     0.0000:    
 LONB.M                     0.0000:    
#
~Other Information Block
<DescLogPlotStart>   NEURALOG PLOT DEFINITION
PLOTDEFVERSION: 3
LASFILE: C:\Users\wadet\Desktop\Alphabow Evaluation\well_info\second_white_spec
DEPTHSCALE: 600.000000
RESOLUTION: 200
DEPTHLABELFREQ: 100.000000
HEAVYGRIDFREQ: 50.000000
MEDIUMGRIDFREQ: 25.000000
LIGHTGRIDFREQ: 25.000000
#
#   TRACK 1
#
STARTTRACK: 
 LEFTX: 0.500000 inch
 RIGHTX: 3.000000 inch
 SCALETYPE: Linear
 NUMCHARTDIVISIONS: 9
CURVE: CALI  125.000000 375.000000 (0,0,255)      Solid             2     N    
CURVE: GR    0.000000   150.000000 (0,131,131)    Dot               2     Y    
BACKUP: 150.000000 300.000000 (0,131,131)    Dot               2    
ENDTRACK: 
#
#   TRACK 2
#
STARTTRACK: 
 LEFTX: 3.500000 inch
 RIGHTX: 8.500000 inch
 SCALETYPE: Linear
 NUMCHARTDIVISIONS: 17
CURVE: RHOB  2000.000000 3000.000000 (255,0,255)    Solid             2     N  
ENDTRACK: 
<DescLogPlotEnd>
~A DEPTH     CALI             GR               RHOB            
# ...
   2053.1000 268.62207367     120.07702326     2395.67344816   
   2053.2524 268.07305855     121.33182265     2454.56928168   
   2053.4048 267.45175232     121.31784675     2485.48630407   
   2053.5572 266.83114463     121.01808935     2495.80098198   
   2053.7096 268.30106544     120.39376253     2480.30152599   
   2053.8620 270.07312033     119.78244368     2455.45216534   
   2054.0144 271.77336737     119.77698045     2440.15420209   
   2054.1668 273.54110786     121.02662208     2439.89653499   
   2054.3192 275.56146213     121.63093896     2441.31209846   
   2054.4716 275.52228260     122.89296921     2444.95752151   
   2054.6240 275.44676673     123.17363097     2447.65958563   
   2054.7764 275.37997066     121.97168562     2426.24399201   
   2054.9288 275.31952590     120.95715953     2403.55651871   
   2055.0812 275.23910782     119.81040840     2381.70377150   
   2055.2336 275.19013482     118.54913409     2360.39947189   
   2055.3860 275.10096801     117.02837562     2339.09517228   
   2055.5384 275.06754222     117.88893935     2317.79087267   
   2055.6908 281.18164752     118.27190948     2439.11248710   
   2055.8432 286.55219400     119.12803736     2439.11248710   
   2055.9956 287.35478832     119.20011173     2360.38687306   
   2056.1480 284.40296758     119.13269465     2298.76160991   
   2056.3004 281.24293945     119.81458052     2298.76160991   
   2056.4528 281.73126502     121.61610784     2298.76160991   
   2056.6052 282.23977823     123.83146592     2298.76160991   
   2056.7576 282.74874236     126.26717655     2298.76160991   
   2056.9100 283.26260923     128.15573618     2348.29721362   
   2057.0624 283.76382096     127.82350693     2298.76160991   
   2057.2148 284.28279575     124.74309113     2447.36842105   
   2057.3672 284.78134310     122.25914924     2299.65573470   
   2057.5196 285.30052260     119.16615041     2297.99174126   
   2057.6720 285.80119931     116.07155823     2299.49715530   
   2057.8244 286.31617151     116.06680542     2298.13730568   
   2057.9768 286.82278267     116.69153256     2342.63138213   
   2058.1292 287.34106833     118.23406793     2305.58848307   
   2058.2816 287.85131718     119.16724082     2285.70776380   
   2058.4340 288.35882579     120.70916608     2285.12968073   
   2058.5864 288.86617391     121.94782457     2286.54166759   
   2058.7388 289.37206298     122.25735917     2286.33087208   
   2058.8912 289.88535541     122.87526022     2295.69370019   
   2059.0436 290.39114954     122.26228108     2297.78868566   
   2059.1960 290.40095557     121.95115933     2297.68456617   
   2059.3484 290.20106709     121.95584635     2296.81288711   
   2059.5008 290.00811061     122.57041659     2327.57507867   
   2059.6532 289.80871013     122.87722950     2345.33750010   
   2059.8056 289.61515107     122.87782161     2365.44202701   
   2059.9580 289.41643778     122.62547628     2347.66315971   
   2060.1104 289.22214057     122.15358347     2324.16201293   
   2060.2628 289.02418101     121.62771474     2301.93267103   
   2060.4152 288.82914957     121.64619613     2290.36643841   
   2060.5676 288.63187193     121.93955913     2318.64804479   
   2060.7200 288.43623959     120.10559913     2346.05647864   
   2060.8724 288.23945871     118.84857315     2360.83842393   
   2061.0248 288.04345014     117.32526344     2381.06680943   
   2061.1772 287.84691604     116.06179672     2393.73585309   
   2061.3296 287.65079136     116.39481637     2401.66707165   
   2061.4820 287.45424894     116.98534872     2402.00069856   
   2061.6344 287.25739133     117.31935504     2399.64816984   
   2061.7868 287.06053372     117.29126305     2397.95657038   
   2061.9392 286.86367611     117.01283928     2394.49190381   
   2062.0916 286.66681850     116.35961077     2384.47079166   
   2062.2440 286.46996089     116.08713842     2382.24694403   
   2062.3964 286.27310327     116.04557338     2389.63415007   
   2062.5488 286.07624566     116.70857322     2412.20192513   
   2062.7012 285.87938805     118.20793176     2437.08742444   
   2062.8536 285.68253044     120.11582261     2452.43825650   
   2063.0060 285.48567283     122.22890632     2453.57329784   
   2063.1584 285.28881522     123.51799498     2421.54275245   
   2063.3108 285.09195761     125.32061915     2347.12162585   
   2063.4632 284.89509999     123.51462780     2293.22119744   
   2063.6156 284.69824238     121.60767397     2248.16849469   
   2063.7680 284.50138477     119.48918917     2273.42202678   
   2063.9204 284.30452716     116.35295429     2320.25221807   
   2064.0728 284.10766955     115.46272814     2372.27127372   
   2064.2252 283.91081194     115.12131953     2372.82959769   
   2064.3776 283.71395432     114.52976337     2330.02030427   
   2064.5300 283.51709671     114.19862156     2291.27115719   
   2064.6824 283.32023910     113.59802945     2276.41108093   
   2064.8348 283.12338149     113.58529716     2444.96454744   
   2064.9872 282.92652388     113.76412687     2448.67655693   
   2065.1396 282.72966627     114.00213675     2440.89828892   
   2065.2920 282.53280866     114.21827039     2435.33823696   
   2065.4444 282.33595104     113.90129446     2429.58663735   
   2065.5968 282.13908979     113.60167133     2420.72280596   
   2065.7492 281.93625391     113.59025444     2413.13908427   
   2065.9016 281.74028352     113.60038630     2442.29235709   
   2066.0540 281.53852362     113.58427093     2469.94345062   
   2066.2064 281.35029325     114.22166242     2492.77670852   
   2066.3588 281.14375488     114.50549364     2471.05993608   
   2066.5112 280.96178492     115.15223091     2441.16884512   
   2066.6636 280.74770187     116.04857328     2398.88951498   
   2066.8160 280.57440752     116.70237255     2369.96904025   
   2066.9684 280.34930306     118.21075384     2350.36119711   
   2067.1208 280.18578999     118.86997660     2342.10526316   
   2067.2732 279.95054684     119.75667564     2335.91331269   
   2067.4256 279.79707426     120.41938798     2334.88132095   
   2067.5780 279.55233181     120.68898148     2350.36119711   
   2067.7304 279.40738772     119.49283734     2367.90505676   
   2067.8828 279.15313859     118.52733939     2394.73684211   
   2068.0352 275.17178291     117.63430847     2418.47265222   
   2068.1876 271.02579126     116.36378981     2440.14447884   
   2068.3400 269.32641490     116.69767026     2447.36842105   
   2068.4924 270.19720910     118.22546089     2450.46439628   
   2068.6448 271.18168185     118.85731466     2453.56037152   
   2068.7972 272.05736537     118.85162082     2464.91228070   
   2068.9496 273.03520221     118.85260862     2477.29618163   
   2069.1020 274.00052967     119.17154302     2483.48813209   
   2069.2544 273.89632056     118.84723707     2463.87908690   
   2069.4068 273.70300161     118.86815636     2449.31165577   
   2069.5592 273.57499512     119.14808321     2433.94384769   
   2069.7116 273.39136685     119.80214286     2421.49206200   
   2069.8640 273.25430545     122.23562893     2423.52197300   
   2070.0164 273.07875012     123.85885439     2424.58310756   
   2070.1688 272.93487512     125.62315881     2427.29073068   
   2070.3212 272.76467423     126.93177001     2430.82804294   
   2070.4736 272.61050147     125.62635608     2422.42069081   
   2070.6260 272.44426508     123.52765366     2409.22867861   
   2070.7784 272.29046355     123.14615585     2400.79165819   
   2070.9308 272.13063106     122.29647170     2374.20048860   
   2071.0832 271.97504787     122.52564738     2351.36125156   
   2071.2356 271.81650605     123.22733806     2340.19739514   
   2071.3880 271.66014583     124.69003112     2359.70120481   
   2071.5404 271.50201292     125.08518121     2387.54210104   
   2071.6928 271.34385841     122.83089597     2428.80840296   
   2071.8452 271.18570391     121.05874475     2448.39462851   
   2071.9976 271.02754940     119.73700687     2413.35724091   
