~Version Information Block
 VERS.                2.00:     CWLS LOG ASCII STANDARD - VERSION 2.000000
 WRAP.                  NO:     One Line Per Depth Step
#
~Well Information Block
#MNEM.UNIT                     Data                         Information
#----------   ------------------------------------------   ----------------
 STRT.M                                      1950.0000:     START DEPTH
 STOP.M                                      2299.9104:     STOP DEPTH
 STEP.M                                         0.1524:     STEP
 NULL.                                       -999.2500:     NULL VALUE
 COMP.                                        Alphabow:     COMPANY
 WELL.                   SOC PINE CK 4-15-56-19 #92507:     WELL
 FLD .                                                :     FIELD
 LOC .                                                :     LOCATION
 CNTY.                                                :     COUNTY
 STAT.                                                :     STATE
 CTRY.                                                :     COUNTRY
 SRVC.                                                :     SERVICE COMPANY
 DATE.                                      03/29/2025:     DATE
 API .                                100041505619W500:     API NUMBER
 UWI .                                100041505619W500:     UWI NUMBER
 TVD .                                              NO:     TVD flag
 WSTA.                                             LOC:     Well status
#
~Curve Information Block
#MNEM.UNIT       API CODE      Curve Description
#----------    -------------   -------------------
 DEPT.M                    :   Depth in Meters
 SP  .MV       01 010 01 01:   Spontaneous Potential
 SFLU.OHMM     10 220 01 01:   SFL Resistivity (Unaveraged)
 ILD .OHMM     05 120 46 01:   Deep Induction Standard Processed Resistivity
#
~Parameter Information Block
#MNEM.UNIT            Value               Description
#----------    --------------------    -------------------
 RUN .                         ONE:    Run Number
 PDAT.                         UNK:    Permanent Datum
 EPD .M                 -9999.5000:    Elevation Of Perm. Datum
 WSTA.                         LOC:    
 TD  .M                  2300.0000:    Total Depth
#
~Other Information Block
<DescLogPlotStart>   NEURALOG PLOT DEFINITION
PLOTDEFVERSION: 3
LASFILE: C:\Users\wadet\Desktop\Alphabow Evaluation\well_info\second_white_spec
DEPTHSCALE: 240.000000
RESOLUTION: 200
DEPTHLABELFREQ: 50.000000
HEAVYGRIDFREQ: 50.000000
MEDIUMGRIDFREQ: 25.000000
LIGHTGRIDFREQ: 5.000000
#
#   TRACK 1
#
STARTTRACK: 
 LEFTX: 0.500000 inch
 RIGHTX: 3.000000 inch
 SCALETYPE: Linear
 NUMCHARTDIVISIONS: 9
CURVE: SP    -80.000000 20.000000  (0,0,255)      Solid             2     N    
ENDTRACK: 
#
#   TRACK 2
#
STARTTRACK: 
 LEFTX: 3.500000 inch
 RIGHTX: 8.500000 inch
 SCALETYPE: Linear
 NUMCHARTDIVISIONS: 34
CURVE: SFLU  2.000000   2000.000000 (0,131,131)    Solid             2     N   
CURVE: ILD   2.000000   2000.000000 (255,0,255)    Dot               2     N   
ENDTRACK: 
<DescLogPlotEnd>
~A DEPTH     SP               SFLU             ILD             
# ...
   1969.0500 -21.00870817     874.86566679     833.80399561    
   1969.2024 -21.07490178     880.18159440     835.52482022    
   1969.3548 -21.14149632     878.95432429     837.30034567    
   1969.5072 -21.20820172     869.46591790     839.04203544    
   1969.6596 -21.27489736     855.94848610     840.35117294    
   1969.8120 -21.34160569     852.67934850     839.14919233    
   1969.9644 -21.40830026     864.67997747     837.99293879    
   1970.1168 -21.47452943     867.12940301     836.83352023    
   1970.2692 -21.54251035     871.20233213     836.40143955    
   1970.4216 -21.58501190     871.23699566     836.43524796    
   1970.5740 -21.53997275     867.25909608     837.79103108    
   1970.7264 -21.38516532     846.59492138     840.95774686    
   1970.8788 -21.39151781     844.40887058     842.43200803    
   1971.0312 -21.01205674     856.82270935     841.80310714    
   1971.1836 -20.47664428     864.74498522     841.00935935    
   1971.3360 -19.96669720     871.13783484     840.48795269    
   1971.4884 -19.94437544     874.84215886     839.56577241    
   1971.6408 -20.05685518     880.11196174     838.06585370    
   1971.7932 -20.32064225     885.30193847     836.58863969    
   1971.9456 -19.53243895     885.62245985     835.01526477    
   1972.0980 -20.13862291     879.89530030     836.51228506    
   1972.2504 -21.49301907     879.55046651     835.72281067    
   1972.4028 -21.42909607     882.09404043     835.08418713    
   1972.5552 -21.40330685     877.07695981     834.47773006    
   1972.7076 -20.07294116     866.71499781     838.63204929    
   1972.8600 -20.15635826     861.31615522     837.73631456    
   1973.0124 -20.52984557     853.53292223     833.18301458    
   1973.1648 -20.98129654     853.01697989     828.60460376    
   1973.3172 -20.97406404     850.30460392     825.33037607    
   1973.4696 -20.90989302     846.86106110     815.19705227    
   1973.6220 -21.21457406     846.78121356     811.72388073    
   1973.7744 -21.32466164     848.62160257     810.63389316    
   1973.9268 -21.18299010     847.83106967     807.13768225    
   1974.0792 -21.07997303     889.79345984     804.33164043    
   1974.2316 -20.97206766     842.15210652     801.59788223    
   1974.3840 -20.86467196     840.75861100     810.21685646    
   1974.5364 -20.75662298     844.66057258     811.09791362    
   1974.6888 -20.64902175     852.75323017     816.45862451    
   1974.8412 -20.55605649     855.22709064     823.68008668    
   1974.9936 -20.50120683     854.95743621     821.06741574    
   1975.1460 -20.42689550     854.95210109     825.84067455    
   1975.2984 -20.35176876     854.51327554     826.29351374    
   1975.4508 -20.27631231     852.60818855     826.80412659    
   1975.6032 -20.20588486     854.08905311     827.40539342    
   1975.7556 -20.15105217     865.01487816     827.94513463    
   1975.9080 -20.06075713     870.98939655     834.19445473    
   1976.0604 -19.89285477     877.50198739     832.79035884    
   1976.2128 -19.77052827     882.10221704     834.28328367    
   1976.3652 -19.72693966     877.30238618     834.63310674    
   1976.5176 -19.73781366     871.12198585     828.59539483    
   1976.6700 -19.75232855     862.09608603     830.54876892    
   1976.8224 -19.44830780     841.26888365     834.37453442    
   1976.9748 -18.98455706     838.32903104     831.51715905    
   1977.1272 -18.86666856     844.17624884     830.66635463    
   1977.2796 -18.84539305     866.79689300     832.71070843    
   1977.4320 -18.81755833     870.76843854     834.09312776    
   1977.5844 -18.78455680     862.01455494     834.29472495    
   1977.7368 -18.75195758     842.86411299     837.57593382    
   1977.8892 -18.72054532     847.81062272     841.87905641    
   1978.0416 -18.66822922     873.86737044     845.82556635    
   1978.1940 -18.57900549     910.17890895     849.78276214    
   1978.3464 -18.41697457     922.48749069     853.76793323    
   1978.4988 -19.00713892     914.15983464     858.99446935    
   1978.6512 -18.51640174     898.39487459     867.09431204    
   1978.8036 -18.49684081     883.70670974     868.73394276    
   1978.9560 -18.50479342     878.15904176     864.31110153    
   1979.1084 -18.46154028     874.45313236     860.06906855    
   1979.2608 -18.30531621     868.72489023     855.82458538    
   1979.4132 -18.28594522     867.32409968     855.76313236    
   1979.5656 -18.13201650     869.96625938     858.42428243    
   1979.7180 -18.09085694     874.02120182     861.12128408    
   1979.8704 -18.04365149     875.08880496     864.55094640    
   1980.0228 -18.17700806     870.19825082     867.96200701    
   1980.1752 -18.58784082     868.04929041     870.63312919    
   1980.3276 -19.00987712     880.33968136     873.09374913    
   1980.4800 -19.43366615     885.44732833     880.73439629    
   1980.6324 -19.86405226     882.09088754     884.84519137    
   1980.7848 -19.95303784     870.06723090     889.38455150    
   1980.9372 -20.02869275     873.57380184     887.62141389    
   1981.0896 -20.30012789     868.93155924     877.94951904    
   1981.2420 -20.34981021     868.88378402     876.18716155    
   1981.3944 -20.34824678     875.92041767     867.63600594    
   1981.5468 -20.34903759     854.87735815     871.06422543    
   1981.6992 -20.34895073     860.70481459     869.46343784    
   1981.8516 -20.34997330     862.90576268     867.44786832    
   1982.0040 -20.37628029     857.18988696     867.12005923    
   1982.1564 -20.47352742     848.56174194     871.03470944    
   1982.3088 -20.56756599     860.99856005     869.18459312    
   1982.4612 -20.66182868     853.29443332     868.91141230    
   1982.6136 -20.75849655     859.16819841     871.70757945    
   1982.7660 -20.76385625     857.73274889     863.51834562    
   1982.9184 -20.71196455     850.66783475     851.17654687    
   1983.0708 -20.88897004     857.93503372     850.71356587    
   1983.2232 -20.93785253     862.14884242     850.76865852    
   1983.3756 -20.89576700     884.08709665     853.42089832    
   1983.5280 -21.02016832     915.62005144     857.67450073    
   1983.6804 -20.76253206     935.25267971     868.14442994    
   1983.8328 -20.76170577     926.72815892     880.16308540    
   1983.9852 -20.75994992     896.81221025     881.35447014    
   1984.1376 -20.75947664     862.29792111     874.13718060    
   1984.2900 -20.76067083     848.59337134     859.52872102    
   1984.4424 -20.76265292     847.40175848     858.65092110    
   1984.5948 -20.73173476     862.21306521     852.86154563    
   1984.7472 -20.74977027     839.58133837     848.44227669    
   1984.8996 -20.55752221     838.76895000     850.82025905    
   1985.0520 -20.55937755     840.25445756     850.68537361    
   1985.2044 -20.55475202     842.52365227     850.32903872    
   1985.3568 -20.55426245     847.19120461     855.32542336    
   1985.5092 -20.55440363     848.46570219     856.73973426    
   1985.6616 -20.55440324     845.40375875     858.96548967    
   1985.8140 -20.55455204     846.75782372     863.22898919    
   1985.9664 -20.55415663     849.43206412     865.08353673    
   1986.1188 -20.50901422     865.12062453     858.37436657    
   1986.2712 -20.45744954     846.87881801     857.29168864    
   1986.4236 -20.40576633     845.86892686     861.71225234    
   1986.5760 -20.35412731     853.59661401     863.67669063    
   1986.7284 -20.30249281     847.92098617     855.68083835    
   1986.8808 -20.25085832     848.82504581     852.67221322    
   1987.0332 -20.19922382     848.30491248     853.93668164    
   1987.1856 -20.14758932     860.76192845     851.39455151    
   1987.3380 -20.09600305     847.43067081     850.93679514    
   1987.4904 -20.04424213     845.78994710     846.00736925    
   1987.6428 -19.99190061     842.64015002     842.79355822    
   1987.7952 -19.94219646     840.34304417     835.30074634    
   1987.9476 -20.02964121     846.35769346     832.18567020    
