~Version Information Block
 VERS.                2.00:     CWLS LOG ASCII STANDARD - VERSION 2.000000
 WRAP.                  NO:     One Line Per Depth Step
#
~Well Information Block
#MNEM.UNIT                     Data                         Information
#----------   ------------------------------------------   ----------------
 STRT.M                                      2015.0000:     START DEPTH
 STOP.M                                      2349.9752:     STOP DEPTH
 STEP.M                                         0.1524:     STEP
 NULL.                                       -999.2500:     NULL VALUE
 COMP.                                        Alphabow:     COMPANY
 WELL.                   SOC PINE CK 4-15-56-19 #92507:     WELL
 FLD .                                      Pine Creek:     FIELD
 LOC .                           100/04-15-056-19W5/00:     LOCATION
 CNTY.                                                :     COUNTY
 STAT.                                         Alberta:     STATE
 CTRY.                                          Canada:     COUNTRY
 SRVC.                                                :     SERVICE COMPANY
 DATE.                                      03/27/2025:     DATE
 API .                                100041505619W500:     API NUMBER
 UWI .                                100041505619W500:     UWI NUMBER
 TVD .                                              NO:     TVD flag
 WSTA.                                             LOC:     Well status
#
~Curve Information Block
#MNEM.UNIT       API CODE      Curve Description
#----------    -------------   -------------------
 DEPT.M                    :   Depth in Meters
 CALI.mm       70 280 01 01:   Caliper
 GR  .GAPI     35 310 01 01:   Gamma Ray
 RHOB.kg/m3     42 350 01 01:   Bulk Density
#
~Parameter Information Block
#MNEM.UNIT            Value               Description
#----------    --------------------    -------------------
 RUN .                         ONE:    Run Number
 PDAT.                         UNK:    Permanent Datum
 EPD .M                 -9999.5000:    Elevation Of Perm. Datum
 TD  .M                  2350.0000:    Total Depth
 WSTA.                         LOC:    
 LATB.M                     0.0000:    
 LONB.M                     0.0000:    
#
~Other Information Block
<DescLogPlotStart>   NEURALOG PLOT DEFINITION
PLOTDEFVERSION: 3
LASFILE: C:\Users\wadet\Desktop\Alphabow Evaluation\well_info\second_white_spec
DEPTHSCALE: 600.000000
RESOLUTION: 200
DEPTHLABELFREQ: 100.000000
HEAVYGRIDFREQ: 50.000000
MEDIUMGRIDFREQ: 25.000000
LIGHTGRIDFREQ: 25.000000
#
#   TRACK 1
#
STARTTRACK: 
 LEFTX: 0.500000 inch
 RIGHTX: 3.000000 inch
 SCALETYPE: Linear
 NUMCHARTDIVISIONS: 9
CURVE: CALI  125.000000 375.000000 (0,0,255)      Solid             2     N    
CURVE: GR    0.000000   150.000000 (0,131,131)    Dot               2     Y    
BACKUP: 150.000000 300.000000 (0,131,131)    Dot               2    
ENDTRACK: 
#
#   TRACK 2
#
STARTTRACK: 
 LEFTX: 3.500000 inch
 RIGHTX: 8.500000 inch
 SCALETYPE: Linear
 NUMCHARTDIVISIONS: 17
CURVE: RHOB  2000.000000 3000.000000 (255,0,255)    Solid             2     N  
ENDTRACK: 
<DescLogPlotEnd>
~A DEPTH     CALI             GR               RHOB            
# ...
   2224.5500 234.64150938     127.22271545     2623.80971518   
   2224.7024 234.55614474     126.00126792     2614.53096567   
   2224.8548 234.47029648     126.02406411     2604.21784311   
   2225.0072 234.38481016     127.08268197     2599.83286307   
   2225.1596 234.29899993     128.12603133     2594.49461894   
   2225.3120 234.21326048     129.17864081     2589.11747539   
   2225.4644 234.12747953     130.22604491     2586.72224415   
   2225.6168 234.04173543     131.27403984     2598.06493285   
   2225.7692 233.95607488     132.32405125     2610.41813200   
   2225.9216 233.87056218     133.37119338     2619.74893733   
   2226.0740 233.78491506     134.42339397     2624.82165567   
   2226.2264 233.69942636     135.47258046     2614.62423861   
   2226.3788 233.61371539     136.52391720     2604.16484569   
   2226.5312 233.52833054     137.57608451     2594.06430219   
   2226.6836 233.44247794     137.85178477     2587.66175565   
   2226.8360 233.35727494     137.47521171     2585.88497519   
   2226.9884 233.27122924     137.08262803     2579.38384022   
   2227.1408 233.18624593     136.71178892     2577.65803027   
   2227.2932 233.09997316     136.31635439     2591.69065784   
   2227.4456 233.01521376     135.95409404     2605.48495230   
   2227.5980 232.92873095     135.55208045     2621.53115142   
   2227.7504 232.84415745     135.19636488     2632.27765983   
   2227.9028 232.75752212     134.79014192     2632.84915326   
   2228.0552 232.74708150     134.36235941     2624.04202878   
   2228.2076 232.89843709     134.81667086     2617.42066057   
   2228.3600 233.05179760     135.45249291     2605.50597031   
   2228.5124 233.20284820     136.02548987     2603.03032586   
   2228.6648 233.35607917     136.22357619     2605.46086794   
   2228.8172 233.50726892     137.12166834     2623.65755965   
   2228.9696 233.66036196     136.53371424     2641.46156112   
   2229.1220 233.81167789     135.26621138     2657.69800773   
   2229.2744 233.96466603     134.05644861     2667.15536165   
   2229.4268 234.11605774     132.48121076     2662.88848677   
   2229.5792 234.26908004     132.20064328     2651.63090982   
   2229.7316 234.42090806     132.17414909     2636.16455688   
   2229.8840 234.57390461     131.89407436     2622.74232877   
   2230.0364 234.72580417     132.24014682     2614.90790033   
   2230.1888 234.87865306     133.02189920     2609.16338384   
   2230.3412 235.03078025     134.33709092     2603.32588182   
   2230.4936 235.18344748     135.91420114     2610.34467185   
   2230.6460 235.17699773     137.42703997     2621.88908707   
   2230.7984 234.92524844     137.46129213     2629.88897188   
   2230.9508 234.67459870     136.49490448     2628.07733183   
   2231.1032 234.42224546     135.29642650     2621.66112403   
   2231.2556 234.17222708     135.25473650     2612.62373407   
   2231.4080 233.91924572     135.29795397     2604.16257815   
   2231.5604 233.66982106     134.93790851     2593.02158955   
   2231.7128 233.41631022     134.98815142     2586.66846898   
   2231.8652 233.21555341     136.16812839     2579.59433249   
   2232.0176 233.29581561     138.08478086     2579.47573047   
   2232.1700 233.36785379     140.18716980     2580.57590628   
   2232.3224 233.43472395     142.11133172     2588.75933477   
   2232.4748 233.50671079     141.73430681     2605.26976279   
   2232.6272 233.57374750     139.33176564     2619.68620035   
   2232.7796 233.64546430     137.71396842     2636.16872145   
   2232.9320 233.71285764     135.00195491     2635.17173786   
   2233.0844 233.78388257     133.38495561     2627.93240891   
   2233.2368 233.85140144     131.59346077     2632.08357711   
   2233.3892 233.92194238     130.60226435     2638.23312450   
   2233.5416 233.98990140     130.04066853     2632.05724212   
   2233.6940 234.06006363     129.68208660     2617.61534869   
   2233.8464 234.12832677     128.17720592     2602.13652853   
   2233.9988 234.19826755     126.90300033     2593.91222208   
   2234.1512 234.22534359     126.00216710     2597.99903062   
   2234.3036 234.16844037     125.05509294     2603.20315442   
   2234.4560 234.11040554     125.37775739     2604.18110399   
   2234.6084 234.05377383     125.68465817     2602.20827945   
   2234.7608 233.99622290     127.23245837     2599.04308718   
   2234.9132 233.93958124     128.78760714     2595.03891973   
   2235.0656 233.88210847     129.35116720     2599.27012099   
   2235.2180 233.82531917     129.85156714     2603.00012886   
   2235.3704 233.76824294     129.06935787     2602.10554332   
   2235.5228 233.71019317     128.16671849     2597.10386718   
   2235.6752 233.65365577     127.82506431     2590.74897486   
   2235.8276 233.59470631     128.78970508     2585.81598632   
   2235.9800 233.53939137     130.30150842     2579.37208574   
   2236.1324 233.47893111     130.03297035     2576.57071849   
   2236.2848 233.42536288     129.68311835     2574.16707442   
   2236.4372 233.36298804     128.48472520     2582.80305172   
   2236.5896 233.31135204     128.13114986     2590.64707996   
   2236.7420 233.24685035     127.55314597     2596.23420871   
   2236.8944 233.39461383     127.50878837     2612.30053617   
   2237.0468 233.84334099     129.09849590     2619.86883062   
   2237.1992 234.30988513     130.91328387     2633.93058787   
   2237.3516 234.75751839     131.88725867     2623.96675729   
   2237.5040 235.22471984     131.53405573     2607.17318036   
   2237.6564 235.78893282     129.10651697     2592.00137479   
   2237.8088 235.75909979     125.65292391     2585.58166002   
   2237.9612 235.69707664     125.39538149     2585.78106452   
   2238.1136 235.65250789     127.50458996     2587.68237104   
   2238.2660 235.59207896     129.72644122     2592.94446450   
   2238.4184 235.54561589     133.07153314     2597.13408952   
   2238.5708 235.48728854     135.29717466     2607.35821764   
   2238.7232 235.43861859     135.54517821     2619.70389360   
   2238.8756 235.38249823     133.43906962     2636.24561683   
   2239.0280 235.33172361     132.14285816     2635.17208478   
   2239.1804 235.27775927     129.72308298     2623.89176331   
   2239.3328 235.34981820     127.81496569     2609.37621051   
   2239.4852 235.42114287     127.24718388     2597.12665950   
   2239.6376 235.49195440     127.51450492     2596.96627800   
   2239.7900 235.56384493     129.10292265     2600.23303627   
   2239.9424 235.63444428     130.32694660     2611.30540675   
   2240.0948 235.70640773     131.19950597     2619.53015692   
   2240.2472 235.77633923     132.16180139     2629.78822468   
   2240.3996 235.84798184     130.63746033     2633.25069065   
   2240.5520 235.91821469     127.21429517     2629.75154092   
   2240.7044 235.98956816     125.37658204     2635.36846768   
   2240.8568 236.06006532     125.05077992     2648.32544322   
   2241.0092 236.13119008     124.75746742     2665.31681888   
   2241.1616 236.20187198     125.04890661     2686.48493217   
   2241.3140 236.27286155     125.68011710     2686.95181831   
   2241.4664 236.34362654     125.97573722     2679.26268266   
   2241.6188 236.41458503     126.60412369     2660.06404090   
   2241.7712 236.48554301     127.52279817     2648.41748230   
   2241.9236 236.55650099     128.45664328     2635.28455820   
   2242.0760 236.62745897     130.31201381     2621.67033008   
   2242.2284 236.69841695     131.54907005     2607.40155161   
   2242.3808 236.76937493     132.48512634     2598.01865544   
   2242.5332 236.83999376     132.47407466     2586.73721645   
   2242.6856 236.91078788     131.25414977     2574.38440775   
   2242.8380 236.98129660     129.99214057     2571.21685772   
   2242.9904 237.05223390     128.46877998     2587.84304876   
   2243.1428 237.12257140     126.27350509     2616.52559393   
   2243.2952 237.19370106     124.14060414     2641.50518097   
   2243.4476 237.26383345     122.86942311     2652.58944930   
