~Version Information Block
 VERS.                2.00:     CWLS LOG ASCII STANDARD - VERSION 2.000000
 WRAP.                  NO:     One Line Per Depth Step
#
~Well Information Block
#MNEM.UNIT                     Data                         Information
#----------   ------------------------------------------   ----------------
 STRT.M                                      1950.0000:     START DEPTH
 STOP.M                                      2299.9104:     STOP DEPTH
 STEP.M                                         0.1524:     STEP
 NULL.                                       -999.2500:     NULL VALUE
 COMP.                                        Alphabow:     COMPANY
 WELL.                   SOC PINE CK 4-15-56-19 #92507:     WELL
 FLD .                                                :     FIELD
 LOC .                                                :     LOCATION
 CNTY.                                                :     COUNTY
 STAT.                                                :     STATE
 CTRY.                                                :     COUNTRY
 SRVC.                                                :     SERVICE COMPANY
 DATE.                                      03/29/2025:     DATE
 API .                                100041505619W500:     API NUMBER
 UWI .                                100041505619W500:     UWI NUMBER
 TVD .                                              NO:     TVD flag
 WSTA.                                             LOC:     Well status
#
~Curve Information Block
#MNEM.UNIT       API CODE      Curve Description
#----------    -------------   -------------------
 DEPT.M                    :   Depth in Meters
 SP  .MV       01 010 01 01:   Spontaneous Potential
 SFLU.OHMM     10 220 01 01:   SFL Resistivity (Unaveraged)
 ILD .OHMM     05 120 46 01:   Deep Induction Standard Processed Resistivity
#
~Parameter Information Block
#MNEM.UNIT            Value               Description
#----------    --------------------    -------------------
 RUN .                         ONE:    Run Number
 PDAT.                         UNK:    Permanent Datum
 EPD .M                 -9999.5000:    Elevation Of Perm. Datum
 WSTA.                         LOC:    
 TD  .M                  2300.0000:    Total Depth
#
~Other Information Block
<DescLogPlotStart>   NEURALOG PLOT DEFINITION
PLOTDEFVERSION: 3
LASFILE: C:\Users\wadet\Desktop\Alphabow Evaluation\well_info\second_white_spec
DEPTHSCALE: 240.000000
RESOLUTION: 200
DEPTHLABELFREQ: 50.000000
HEAVYGRIDFREQ: 50.000000
MEDIUMGRIDFREQ: 25.000000
LIGHTGRIDFREQ: 5.000000
#
#   TRACK 1
#
STARTTRACK: 
 LEFTX: 0.500000 inch
 RIGHTX: 3.000000 inch
 SCALETYPE: Linear
 NUMCHARTDIVISIONS: 9
CURVE: SP    -80.000000 20.000000  (0,0,255)      Solid             2     N    
ENDTRACK: 
#
#   TRACK 2
#
STARTTRACK: 
 LEFTX: 3.500000 inch
 RIGHTX: 8.500000 inch
 SCALETYPE: Linear
 NUMCHARTDIVISIONS: 34
CURVE: SFLU  2.000000   2000.000000 (0,131,131)    Solid             2     N   
CURVE: ILD   2.000000   2000.000000 (255,0,255)    Dot               2     N   
ENDTRACK: 
<DescLogPlotEnd>
~A DEPTH     SP               SFLU             ILD             
   1950.0000 -23.02735260     832.27085479     807.57878476    
   1950.1524 -23.09217512     832.27085479     807.57878476    
   1950.3048 -23.15699765     829.24012106     807.96505665    
   1950.4572 -23.22381930     824.66540672     808.40693247    
   1950.6096 -23.27856767     821.22667892     808.73953743    
   1950.7620 -23.35627927     816.62789534     809.19059115    
   1950.9144 -23.41658839     816.02137056     809.58393929    
   1951.0668 -23.05732791     816.52981020     808.03653660    
   1951.2192 -22.67533328     817.11543495     806.36697242    
   1951.3716 -22.67593045     817.66291125     804.70858874    
   1951.5240 -22.78556384     830.00887829     803.24405221    
   1951.6764 -23.26779049     858.25264093     802.43552049    
   1951.8288 -23.25205966     859.33597860     801.54882532    
   1951.9812 -23.27077605     851.75061242     803.33726184    
   1952.1336 -22.80121219     845.06817239     805.86366166    
   1952.2860 -22.65390434     840.67849616     807.60586139    
   1952.4384 -22.60125276     836.25277716     807.57566119    
   1952.5908 -22.64308207     832.58782699     807.57480806    
   1952.7432 -22.78290064     838.43804940     807.57367302    
   1952.8956 -23.01798849     844.16743960     807.60083565    
   1953.0480 -23.02242667     847.97534521     808.45815007    
   1953.2004 -23.22977216     843.35124165     812.79160691    
   1953.3528 -23.39659216     838.90941991     816.93761839    
   1953.5052 -23.39404612     833.43991888     818.93639512    
   1953.6576 -23.48352761     826.51022615     816.56960143    
   1953.8100 -23.24871520     825.92624885     815.61370374    
   1953.9624 -23.04231671     831.40190153     815.14686346    
   1954.1148 -22.82117088     836.44588823     814.67775652    
   1954.2672 -22.77743866     841.63599048     814.19786707    
   1954.4196 -22.60808633     843.97980942     813.86696681    
   1954.5720 -22.44210891     847.38334849     817.68800968    
   1954.7244 -22.39867368     850.35576863     821.75866227    
   1954.8768 -22.40205090     850.87536168     825.89605474    
   1955.0292 -22.46566638     851.60472614     824.70951610    
   1955.1816 -22.43846176     852.14727552     824.05908371    
   1955.3340 -22.40877466     851.34076344     812.37908262    
   1955.4864 -22.33968012     848.55522654     811.24686592    
   1955.6388 -22.40470805     844.85945024     810.92933731    
   1955.7912 -22.40565583     842.96957341     810.52904756    
   1955.9436 -22.39313010     842.50546824     810.08096770    
   1956.0960 -22.23768545     842.54067750     809.69332235    
   1956.2484 -22.19663657     842.56046610     811.90131429    
   1956.4008 -22.19431827     842.55936295     814.32787683    
   1956.5532 -22.42181798     842.55960018     816.77214560    
   1956.7056 -22.40443997     842.55336433     816.79320113    
   1956.8580 -22.42535774     842.57702092     814.93547762    
   1957.0104 -22.03910271     842.12817443     813.39353589    
   1957.1628 -22.16543802     839.93388482     812.44641452    
   1957.3152 -21.77559748     839.58643836     811.48645000    
   1957.4676 -22.00956095     841.34044254     810.50956331    
   1957.6200 -21.99287189     844.92676353     809.66011808    
   1957.7724 -21.98565616     849.17738309     814.03492656    
   1957.9248 -22.03437622     850.70271605     817.01650766    
   1958.0772 -22.20923484     850.73290668     819.97238187    
   1958.2296 -21.99154257     851.23445656     823.03620193    
   1958.3820 -21.98734056     853.02139145     818.74733021    
   1958.5344 -21.82550121     850.50438772     811.51839668    
   1958.6868 -21.76995492     845.38078383     812.57216317    
   1958.8392 -21.78762010     842.94221596     817.02533658    
   1958.9916 -21.30864325     834.39665262     821.54445583    
   1959.1440 -21.98728154     824.36802543     826.07755968    
   1959.2964 -21.95037494     841.94305089     830.15930799    
   1959.4488 -22.01289455     847.13057758     830.22854555    
   1959.6012 -21.83540748     853.27059066     830.21358926    
   1959.7536 -21.79440063     861.41457169     830.21210669    
   1959.9060 -21.65143736     861.97538488     830.21169827    
   1960.0584 -21.54826020     854.07556931     830.18956952    
   1960.2108 -21.66762857     850.93028970     830.17861487    
   1960.3632 -21.70914492     858.42242727     830.51640938    
   1960.5156 -21.78777678     864.65177963     817.89879995    
   1960.6680 -21.77810822     856.56938680     817.27026980    
   1960.8204 -21.60068021     848.14292272     816.84333475    
   1960.9728 -21.78135292     839.68805671     816.37478540    
   1961.1252 -21.78036767     833.86755216     815.83999378    
   1961.2776 -21.82988180     845.80413765     818.61094316    
   1961.4300 -21.90886246     858.02973760     820.33111025    
   1961.5824 -21.80114168     868.82637863     822.11886720    
   1961.7348 -21.82778137     878.90555443     824.09253017    
   1961.8872 -21.59173076     889.59357096     832.37498119    
   1962.0396 -21.40207113     894.75808632     830.87646641    
   1962.1920 -21.59333267     878.72938502     829.62764166    
   1962.3444 -21.58042820     856.48612992     828.38241465    
   1962.4968 -21.80825325     850.29278351     829.05535568    
   1962.6492 -21.78943496     852.44518223     830.18644322    
   1962.8016 -21.76522653     841.96343088     831.38357217    
   1962.9540 -21.47120171     861.01331316     834.11121268    
   1963.1064 -21.76461711     873.29734175     840.76153910    
   1963.2588 -21.75200263     880.15897240     840.25649798    
   1963.4112 -21.80117438     879.02265640     836.62673669    
   1963.5636 -21.96831991     871.85263149     832.91486769    
   1963.7160 -21.96492971     869.55053292     832.28186502    
   1963.8684 -22.21134821     868.72009573     832.26745931    
   1964.0208 -22.20017441     871.47821778     832.27545054    
   1964.1732 -22.19257493     868.35842015     832.24342195    
   1964.3256 -22.19968994     858.63349112     831.09377915    
   1964.4780 -21.97545035     854.31382129     829.86028214    
   1964.6304 -21.94577448     850.64670813     828.63742152    
   1964.7828 -21.78830708     850.77302652     826.02859090    
   1964.9352 -21.36367145     850.78800070     822.47969433    
   1965.0876 -21.05691836     850.75344042     818.82882495    
   1965.2400 -21.11191610     850.81674187     814.19439374    
   1965.3924 -21.09982414     848.56540339     815.22300497    
   1965.5448 -21.16137730     848.31884346     816.88817356    
   1965.6972 -21.54194485     846.81775427     818.09644389    
   1965.8496 -21.59865304     846.30145505     818.65341901    
   1966.0020 -21.25848327     845.60947148     819.17116598    
   1966.1544 -21.81220854     849.01300891     819.55997063    
   1966.3068 -22.34664717     850.81972575     821.98648852    
   1966.4592 -22.20223381     850.33799442     821.94262492    
   1966.6116 -21.94601718     848.70800002     822.19396048    
   1966.7640 -22.03793549     852.55189809     822.53760420    
   1966.9164 -21.90244821     854.47007118     822.87211433    
   1967.0688 -21.76329344     853.54562153     823.21789768    
   1967.2212 -21.74107153     852.03223064     823.62478823    
   1967.3736 -21.57050314     850.57219044     823.96122160    
   1967.5260 -21.80133147     849.12987263     830.27295661    
   1967.6784 -21.43142122     852.66457051     832.26575135    
   1967.8308 -21.16851970     852.86869392     834.19177209    
   1967.9832 -21.16735533     852.10692383     836.21016182    
   1968.1356 -21.13361821     849.05584930     838.23258531    
   1968.2880 -21.10158066     852.48472785     840.22586108    
   1968.4404 -21.07036776     861.95987704     838.80670407    
   1968.5928 -21.03906844     867.95619744     835.09311405    
   1968.7452 -21.00774134     868.86951367     831.19769836    
   1968.8976 -20.97527369     867.65787455     832.51194664    
