~Version Information Block
 VERS.                2.00:     CWLS LOG ASCII STANDARD - VERSION 2.000000
 WRAP.                  NO:     One Line Per Depth Step
#
~Well Information Block
#MNEM.UNIT                     Data                         Information
#----------   ------------------------------------------   ----------------
 STRT.M                                      2015.0000:     START DEPTH
 STOP.M                                      2349.9752:     STOP DEPTH
 STEP.M                                         0.1524:     STEP
 NULL.                                       -999.2500:     NULL VALUE
 COMP.                                        Alphabow:     COMPANY
 WELL.                   SOC PINE CK 4-15-56-19 #92507:     WELL
 FLD .                                      Pine Creek:     FIELD
 LOC .                           100/04-15-056-19W5/00:     LOCATION
 CNTY.                                                :     COUNTY
 STAT.                                         Alberta:     STATE
 CTRY.                                          Canada:     COUNTRY
 SRVC.                                                :     SERVICE COMPANY
 DATE.                                      03/27/2025:     DATE
 API .                                100041505619W500:     API NUMBER
 UWI .                                100041505619W500:     UWI NUMBER
 TVD .                                              NO:     TVD flag
 WSTA.                                             LOC:     Well status
#
~Curve Information Block
#MNEM.UNIT       API CODE      Curve Description
#----------    -------------   -------------------
 DEPT.M                    :   Depth in Meters
 CALI.mm       70 280 01 01:   Caliper
 GR  .GAPI     35 310 01 01:   Gamma Ray
 RHOB.kg/m3     42 350 01 01:   Bulk Density
#
~Parameter Information Block
#MNEM.UNIT            Value               Description
#----------    --------------------    -------------------
 RUN .                         ONE:    Run Number
 PDAT.                         UNK:    Permanent Datum
 EPD .M                 -9999.5000:    Elevation Of Perm. Datum
 TD  .M                  2350.0000:    Total Depth
 WSTA.                         LOC:    
 LATB.M                     0.0000:    
 LONB.M                     0.0000:    
#
~Other Information Block
<DescLogPlotStart>   NEURALOG PLOT DEFINITION
PLOTDEFVERSION: 3
LASFILE: C:\Users\wadet\Desktop\Alphabow Evaluation\well_info\second_white_spec
DEPTHSCALE: 600.000000
RESOLUTION: 200
DEPTHLABELFREQ: 100.000000
HEAVYGRIDFREQ: 50.000000
MEDIUMGRIDFREQ: 25.000000
LIGHTGRIDFREQ: 25.000000
#
#   TRACK 1
#
STARTTRACK: 
 LEFTX: 0.500000 inch
 RIGHTX: 3.000000 inch
 SCALETYPE: Linear
 NUMCHARTDIVISIONS: 9
CURVE: CALI  125.000000 375.000000 (0,0,255)      Solid             2     N    
CURVE: GR    0.000000   150.000000 (0,131,131)    Dot               2     Y    
BACKUP: 150.000000 300.000000 (0,131,131)    Dot               2    
ENDTRACK: 
#
#   TRACK 2
#
STARTTRACK: 
 LEFTX: 3.500000 inch
 RIGHTX: 8.500000 inch
 SCALETYPE: Linear
 NUMCHARTDIVISIONS: 17
CURVE: RHOB  2000.000000 3000.000000 (255,0,255)    Solid             2     N  
ENDTRACK: 
<DescLogPlotEnd>
~A DEPTH     CALI             GR               RHOB            
# ...
   2186.4500 246.97356323     116.37080025     2551.59958720   
   2186.6024 246.88493412     116.07114344     2576.36738906   
   2186.7548 246.79327972     115.43181868     2625.28813210   
   2186.9072 246.70385557     114.53055556     2667.20206398   
   2187.0596 246.61284234     113.56608145     2703.30237358   
   2187.2120 246.52319108     112.06206322     2669.24664603   
   2187.3644 246.43293680     110.77661334     2624.76854780   
   2187.5168 246.34313322     109.58801312     2609.41402285   
   2187.6692 246.25297928     109.22490825     2625.83407717   
   2187.8216 246.16279373     109.28030579     2643.41062492   
   2187.9740 246.07260819     109.53402784     2631.02115815   
   2188.1264 245.98242265     109.89836325     2612.43257843   
   2188.2788 245.89223710     111.39110095     2582.56379606   
   2188.4312 245.80205156     112.67733091     2560.84424634   
   2188.5836 245.71186601     113.86843423     2547.51411997   
   2188.7360 245.62168047     113.90827053     2549.49037126   
   2188.8884 245.53149493     113.56744956     2553.71098174   
   2189.0408 245.44130938     112.97614644     2554.68506195   
   2189.1932 245.35112384     113.57950445     2550.65236226   
   2189.3456 245.26093829     114.51769131     2548.56257728   
   2189.4980 245.17075275     115.44675433     2556.84842725   
   2189.6504 245.08056721     115.74299673     2577.46939543   
   2189.8028 244.99038166     114.21546315     2599.07936711   
   2189.9552 244.90019612     113.19028560     2597.85154139   
   2190.1076 244.81001057     112.18723144     2588.25339736   
   2190.2600 244.71982503     111.08900772     2578.57967351   
   2190.4124 244.62963948     110.10515938     2553.63913235   
   2190.5648 244.53945394     108.90453116     2534.26767963   
   2190.7172 244.44926840     107.74744203     2534.00051118   
   2190.8696 244.35908285     106.42532726     2539.43501985   
   2191.0220 244.26889731     105.28074933     2547.35870349   
   2191.1744 244.17871176     106.73247984     2553.87079557   
   2191.3268 244.08852622     108.99725754     2574.12826673   
   2191.4792 243.99834068     112.61019374     2587.89661487   
   2191.6316 243.90815513     115.18619557     2605.02462829   
   2191.7840 243.81796959     117.25487256     2616.75901535   
   2191.9364 243.72778404     116.73201131     2629.75361135   
   2192.0888 243.63759850     115.71291619     2644.62112447   
   2192.2412 243.54741295     115.17827218     2655.56322400   
   2192.3936 243.45722741     115.71813950     2652.88009826   
   2192.5460 243.36704187     116.40538279     2639.08538152   
   2192.6984 243.27685632     116.65263178     2630.17307292   
   2192.8508 243.18667078     116.08442392     2636.83213980   
   2193.0032 243.09648523     115.73088906     2642.49157083   
   2193.1556 243.00629969     116.38488282     2654.56361289   
   2193.3080 242.91611415     117.59739666     2646.59123250   
   2193.4604 242.82592860     118.54194485     2628.86336832   
   2193.6128 242.73574306     119.46552342     2611.53595000   
   2193.7652 242.64555751     119.46609672     2602.15087019   
   2193.9176 242.55537197     119.16645322     2591.92186170   
   2194.0700 242.46518643     119.15111783     2580.55881278   
   2194.2224 242.37500088     119.17374633     2569.18389308   
   2194.3748 242.28481534     119.76139205     2569.25862346   
   2194.5272 242.19462979     120.41717843     2586.64175854   
   2194.6796 242.10444425     120.68579921     2601.25383635   
   2194.8320 242.01425870     119.49768313     2617.52168623   
   2194.9844 241.92407316     119.27260145     2615.71568561   
   2195.1368 241.83388762     118.59711093     2609.07197863   
   2195.2892 241.74370207     117.89132745     2604.41154159   
   2195.4416 241.65351653     119.51082330     2600.99748053   
   2195.5940 241.56333098     121.29111073     2606.50174312   
   2195.7464 241.47314544     121.99304840     2629.85645128   
   2195.8988 241.38295990     122.83485015     2655.95302365   
   2196.0512 241.29277435     122.61827379     2678.29108273   
   2196.2036 241.20258881     121.28492660     2681.68743833   
   2196.3560 241.11240326     119.21850595     2671.09082208   
   2196.5084 241.02221772     118.18797795     2650.72685404   
   2196.6608 240.93203217     116.74439674     2628.83943704   
   2196.8132 240.84184663     117.87843965     2595.04511185   
   2196.9656 240.75166109     119.53183069     2579.38312506   
   2197.1180 240.66147554     120.97546862     2578.53521227   
   2197.2704 240.57129000     122.00519266     2585.64852892   
   2197.4228 240.48110445     122.83612397     2599.11992400   
   2197.5752 240.39091891     122.92862373     2603.20281550   
   2197.7276 240.30073337     123.45961447     2607.32809876   
   2197.8800 240.21054782     123.54479992     2614.55653081   
   2198.0324 240.12036228     123.46909094     2619.69006230   
   2198.1848 240.03017673     123.23136925     2612.52996398   
   2198.3372 239.93999119     123.78643066     2604.26802751   
   2198.4896 239.84980565     124.46131515     2595.02861077   
   2198.6420 239.75962010     125.33637700     2599.12216345   
   2198.7944 239.66947661     125.37932914     2605.29651889   
   2198.9468 239.57930392     125.03113541     2599.09325378   
   2199.0992 239.48917529     125.06308862     2592.86696646   
   2199.2516 239.39898165     125.96680033     2585.65220551   
   2199.4040 239.30887946     126.91822934     2590.77636452   
   2199.5564 239.21865483     127.83413865     2603.17792225   
   2199.7088 239.12858692     128.77660599     2615.56783369   
   2199.8612 239.03832623     128.89216067     2619.69500170   
   2200.0136 238.94829451     129.24356669     2619.44268098   
   2200.1660 238.85799921     129.58930674     2619.02659086   
   2200.3184 238.76799884     130.00816980     2618.71982466   
   2200.4708 238.67767700     130.93666847     2617.55896842   
   2200.6232 238.58769703     130.93610802     2616.66354420   
   2200.7756 238.49736197     130.31900692     2616.52250989   
   2200.9280 238.40738735     129.39335893     2607.40593560   
   2201.0804 238.34406004     128.45753615     2603.15618338   
   2201.2328 238.29370921     128.77638599     2588.85362204   
   2201.3852 238.24302974     129.06916559     2578.40992053   
   2201.5376 238.19265416     129.39730980     2572.28801256   
   2201.6900 238.14200473     129.99175253     2567.07862363   
   2201.8424 238.09159532     132.50089765     2581.53531658   
   2201.9948 238.04098184     135.56328593     2602.10281899   
   2202.1472 237.99053607     137.14937287     2624.81925553   
   2202.2996 237.93995769     138.34844929     2632.00372098   
   2202.4520 237.88947965     138.07500686     2618.66066650   
   2202.6044 237.83892936     136.49341279     2606.20985231   
   2202.7568 237.78842846     133.42904646     2592.94022787   
   2202.9092 237.73789508     133.71478408     2589.64768658   
   2203.0616 237.68738358     134.65985969     2605.37922683   
   2203.2140 237.63685450     135.26992001     2618.42901713   
   2203.3664 237.58634388     133.72112125     2633.28403832   
   2203.5188 237.53785926     131.56305920     2630.71114848   
   2203.6712 237.48706167     131.23713848     2612.71918127   
   2203.8236 237.43943526     128.16723776     2591.56210781   
   2203.9760 237.38724291     127.51739690     2578.66100229   
   2204.1284 237.34052101     129.41203298     2572.98030563   
   2204.2808 237.28489958     131.85276887     2528.17425384   
   2204.4332 237.24067187     134.06189873     2528.81331292   
   2204.5856 237.18224145     134.33321138     2534.36645619   
   2204.7380 237.14102396     132.82601738     2540.04369152   
   2204.8904 237.07951143     131.86048098     2545.65984456   
   2205.0428 237.04130981     131.37842235     2539.97305863   
   2205.1952 236.97698694     130.85870513     2536.26234612   
   2205.3476 236.94125749     130.95701573     2533.98682486   
