~Version Information Block
 VERS.                2.00:     CWLS LOG ASCII STANDARD - VERSION 2.000000
 WRAP.                  NO:     One Line Per Depth Step
#
~Well Information Block
#MNEM.UNIT                     Data                         Information
#----------   ------------------------------------------   ----------------
 STRT.M                                      1800.0000:     START DEPTH
 STOP.M                                      2299.8720:     STOP DEPTH
 STEP.M                                         0.1524:     STEP
 NULL.                                       -999.2500:     NULL VALUE
 COMP.                                        Alphabow:     COMPANY
 WELL.                   ABE PINE CK 6-21-56-19 #97328:     WELL
 FLD .                                      Pine Creek:     FIELD
 LOC .                           100/06-21-056-19W5/00:     LOCATION
 CNTY.                                                :     COUNTY
 STAT.                                         Alberta:     STATE
 CTRY.                                          Canada:     COUNTRY
 SRVC.                                                :     SERVICE COMPANY
 DATE.                                      03/28/2025:     DATE
 API .                                100062105619W500:     API NUMBER
 UWI .                                100062105619W500:     UWI NUMBER
 TVD .                                              NO:     TVD flag
 WSTA.                                             LOC:     Well status
#
~Curve Information Block
#MNEM.UNIT       API CODE      Curve Description
#----------    -------------   -------------------
 DEPT.M                    :   Depth in Meters
 GR  .GAPI     35 310 01 01:   Gamma Ray
 CALI.mm       70 280 01 01:   Caliper
 RHOB.kg/m3     42 350 01 01:   Bulk Density
#
~Parameter Information Block
#MNEM.UNIT            Value               Description
#----------    --------------------    -------------------
 RUN .                         ONE:    Run Number
 PDAT.                         UNK:    Permanent Datum
 EPD .M                 -9999.5000:    Elevation Of Perm. Datum
 TD  .M                  2300.0000:    Total Depth
 WSTA.                         LOC:    
 LATB.M                     0.0000:    
 LONB.M                     0.0000:    
#
~Other Information Block
<DescLogPlotStart>   NEURALOG PLOT DEFINITION
PLOTDEFVERSION: 3
LASFILE: C:\Users\wadet\Desktop\Alphabow Evaluation\well_info\second_white_spec
DEPTHSCALE: 600.000000
RESOLUTION: 200
DEPTHLABELFREQ: 100.000000
HEAVYGRIDFREQ: 50.000000
MEDIUMGRIDFREQ: 25.000000
LIGHTGRIDFREQ: 25.000000
#
#   TRACK 1
#
STARTTRACK: 
 LEFTX: 0.500000 inch
 RIGHTX: 3.000000 inch
 SCALETYPE: Linear
 NUMCHARTDIVISIONS: 10
CURVE: GR    0.000000   150.000000 (0,0,255)      Solid             2     N    
CURVE: CALI  125.000000 375.000000 (0,131,131)    Dot               2     N    
ENDTRACK: 
#
#   TRACK 2
#
STARTTRACK: 
 LEFTX: 3.500000 inch
 RIGHTX: 8.500000 inch
 SCALETYPE: Linear
 NUMCHARTDIVISIONS: 17
CURVE: RHOB  2000.000000 3000.000000 (255,0,255)    Solid             2     N  
ENDTRACK: 
<DescLogPlotEnd>
~A DEPTH     GR               CALI             RHOB            
# ...
   1838.1000 118.50081179     252.54953691     2293.99291069   
   1838.2524 118.49544305     253.04303275     2309.71465022   
   1838.4048 119.72719560     253.04936155     2327.67734683   
   1838.5572 120.00917186     253.04604593     2340.53973687   
   1838.7096 118.82418735     253.04552678     2286.22546643   
   1838.8620 117.87527116     255.57846609     2303.43322386   
   1839.0144 116.40489548     258.61105433     2285.94735896   
   1839.1668 116.96029816     258.61990612     2293.18483794   
   1839.3192 117.33012275     258.15486345     2322.99310744   
   1839.4716 118.47925740     258.25495580     2361.33221411   
   1839.6240 119.15972243     258.34740267     2397.13947523   
   1839.7764 119.68960212     258.45068566     2426.38003094   
   1839.9288 120.05997251     258.54388480     2427.83164729   
   1840.0812 120.33326315     258.64457588     2423.77218307   
   1840.2336 120.67154868     258.73787985     2420.22374521   
   1840.3860 120.60489120     258.83684623     2402.88857881   
   1840.5384 120.66917113     258.93229266     2393.72676999   
   1840.6908 120.31356542     259.03096141     2376.10061985   
   1840.8432 118.23263005     259.12693946     2361.74988806   
   1840.9956 117.28714501     259.22426108     2365.79578288   
   1841.1480 115.48535519     259.32153553     2376.18063105   
   1841.3004 117.29778175     259.42197057     2388.49250537   
   1841.4528 120.03018947     259.51988625     2391.66725498   
   1841.6052 121.86528814     259.61607866     2384.35963034   
   1841.7576 123.66571464     259.71311800     2376.21962711   
   1841.9100 122.17691391     259.80847272     2362.69679459   
   1842.0624 121.22861488     259.90579952     2332.91525533   
   1842.2148 119.44859102     260.00202226     2310.09069737   
   1842.3672 119.10270008     260.10027469     2293.95984897   
   1842.5196 119.75522354     260.19555749     2297.67278226   
   1842.6720 121.23239154     260.29471133     2309.42806099   
   1842.8244 123.09310733     260.38918379     2328.52682252   
   1842.9768 125.18699875     260.48900792     2337.23316408   
   1843.1292 126.73181929     260.58299247     2360.58018938   
   1843.2816 126.71108713     260.68308915     2370.14610332   
   1843.4340 126.72260855     260.77703798     2378.12338941   
   1843.5864 127.32306188     260.87692512     2394.85094964   
   1843.7388 127.93545033     260.97132342     2410.13832169   
   1843.8912 127.63677324     261.07054006     2421.64315223   
   1844.0436 126.72492408     261.15297714     2421.51173934   
   1844.1960 125.51491858     260.14162940     2419.56007593   
   1844.3484 124.60367904     259.14092595     2410.15692752   
   1844.5008 124.90838140     259.16209480     2418.47246030   
   1844.6532 126.73663793     259.18368816     2430.73904104   
   1844.8056 127.93761897     259.20380419     2443.20680978   
   1844.9580 128.56254937     259.22632416     2464.22000769   
   1845.1104 128.53268268     259.24568405     2476.06282809   
   1845.2628 128.26438755     259.26875570     2488.46018727   
   1845.4152 128.82585058     259.28779022     2477.25828668   
   1845.5676 129.18447202     259.31095231     2455.45013750   
   1845.7200 129.12196055     259.33089847     2433.96341863   
   1845.8724 129.18955242     259.34883677     2423.49291507   
   1846.0248 129.42102358     259.37195204     2435.01541870   
   1846.1772 130.70998713     259.38694852     2450.29580680   
   1846.3296 133.37107351     259.41525588     2464.89575794   
   1846.4820 134.35380067     259.42599922     2471.95363726   
   1846.6344 138.54201660     259.46295074     2458.70300964   
   1846.7868 142.24853308     259.46253629     2442.08167787   
   1846.9392 144.93396226     259.51017872     2431.91856512   
   1847.0916 143.76386552     259.49959436     2436.99209156   
   1847.2440 139.78077638     259.55807794     2447.37425850   
   1847.3964 136.16367154     259.53636414     2452.46934374   
   1847.5488 131.58627003     259.60383418     2437.05225528   
   1847.7012 128.86392705     259.57262189     2410.20823275   
   1847.8536 127.33641168     259.64839118     2382.38732125   
   1848.0060 127.34099721     260.10921972     2362.76737201   
   1848.1584 126.72806123     257.63533841     2362.78077050   
   1848.3108 125.51605263     256.03317751     2362.78744875   
   1848.4632 124.90470980     254.90228206     2345.26373077   
   1848.6156 125.22026011     253.53388877     2325.67556415   
   1848.7680 127.03333854     254.08499599     2326.68818491   
   1848.9204 129.17564239     256.14203749     2333.91824522   
   1849.0728 131.89748473     256.37032958     2350.38533271   
   1849.2252 134.34982481     256.54597650     2374.12439675   
   1849.3776 135.85213233     256.75835556     2382.35319016   
   1849.5300 136.17621957     256.94975279     2379.30726735   
   1849.6824 137.67320252     257.10278006     2359.70220897   
   1849.8348 137.99627035     256.09151130     2343.22734410   
   1849.9872 136.39332691     255.24732684     2349.46777862   
   1850.1396 135.09623115     254.58133559     2354.75263068   
   1850.2920 134.02008550     255.27637307     2359.97496920   
   1850.4444 132.83046183     255.89848615     2374.09377387   
   1850.5968 130.97745005     256.47886600     2399.82074283   
   1850.7492 131.61244446     257.10146639     2416.40263186   
   1850.9016 133.70498364     257.68468566     2406.00581435   
   1851.0540 134.65139175     258.30360021     2380.33661348   
   1851.2064 135.22304206     258.89441395     2359.57443860   
   1851.3588 135.26595588     259.50987935     2350.45715996   
   1851.5112 136.44422526     260.10383377     2349.26841943   
   1851.6636 138.30978921     260.71377071     2361.85484364   
   1851.8160 141.61036426     261.31246824     2370.95331852   
   1851.9684 144.38050962     261.61937155     2385.51820314   
   1852.1208 146.47355155     261.52359932     2386.39164988   
   1852.2732 147.71812390     261.42910313     2342.17901129   
   1852.4256 148.59886565     261.33469937     2315.26272932   
   1852.5780 148.62238550     261.24003248     2305.06052776   
   1852.7304 148.60004165     261.14772201     2325.62086337   
   1852.8828 147.62785837     261.05307177     2344.25304531   
   1853.0352 144.96066203     260.96050047     2370.03469499   
   1853.1876 143.45953342     260.86617238     2409.22306179   
   1853.3400 141.62535540     260.77323323     2415.42663407   
   1853.4924 141.02497107     260.67930077     2399.88083010   
   1853.6448 142.23365715     260.58595743     2383.44067451   
   1853.7972 144.06378422     260.49241830     2390.55235034   
   1853.9496 145.58363118     260.39871095     2405.08114892   
   1854.1020 144.36981757     260.30549002     2418.39680551   
   1854.2544 141.94641458     260.21152390     2405.07409260   
   1854.4068 140.11419311     260.14324330     2383.38113050   
   1854.5592 139.82160357     260.14249737     2369.99613295   
   1854.7116 137.68064476     260.14282750     2381.31939055   
   1854.8640 137.00430111     260.14211556     2407.11019121   
   1855.0164 136.74826578     260.14240160     2431.24173197   
   1855.1688 136.47544980     260.14174037     2461.32102320   
   1855.3212 141.64139854     260.14197279     2491.43349509   
   1855.4736 145.27281161     260.14136442     2521.50651529   
   1855.6260 147.11755464     260.14154818     2517.53066308   
   1855.7784 143.73436475     260.14098130     2494.79933454   
   1855.9308 142.56822058     260.14113302     2463.89321770   
   1856.0832 145.23608075     260.14058726     2428.77002637   
   1856.2356 146.53025141     260.14072936     2399.93514337   
   1856.3880 149.48202538     260.14018205     2390.60655666   
   1856.5404 148.05701579     260.14033567     2407.17287101   
   1856.6928 146.73903975     260.06918359     2425.68085964   
   1856.8452 143.49777296     259.90135582     2444.31642701   
   1856.9976 141.26930908     259.73281644     2459.71187634   
