~Version Information Block
 VERS.                2.00:     CWLS LOG ASCII STANDARD - VERSION 2.000000
 WRAP.                  NO:     One Line Per Depth Step
#
~Well Information Block
#MNEM.UNIT                     Data                         Information
#----------   ------------------------------------------   ----------------
 STRT.M                                      1900.0000:     START DEPTH
 STOP.M                                      2299.8976:     STOP DEPTH
 STEP.M                                         0.1524:     STEP
 NULL.                                       -999.2500:     NULL VALUE
 COMP.                                        Alphabow:     COMPANY
 WELL.                   SOC PINE CK 6-21-56-19 #97328:     WELL
 FLD .                                                :     FIELD
 LOC .                                                :     LOCATION
 CNTY.                                                :     COUNTY
 STAT.                                                :     STATE
 CTRY.                                                :     COUNTRY
 SRVC.                                                :     SERVICE COMPANY
 DATE.                                      03/29/2025:     DATE
 API .                                100062105619W500:     API NUMBER
 UWI .                                100062105619W500:     UWI NUMBER
 TVD .                                              NO:     TVD flag
 WSTA.                                             LOC:     Well status
#
~Curve Information Block
#MNEM.UNIT       API CODE      Curve Description
#----------    -------------   -------------------
 DEPT.M                    :   Depth in Meters
 SP  .MV       01 010 01 01:   Spontaneous Potential
 SFLU.OHMM     10 220 01 01:   SFL Resistivity (Unaveraged)
 ILD .OHMM     05 120 46 01:   Deep Induction Standard Processed Resistivity
#
~Parameter Information Block
#MNEM.UNIT            Value               Description
#----------    --------------------    -------------------
 RUN .                         ONE:    Run Number
 PDAT.                         UNK:    Permanent Datum
 EPD .M                 -9999.5000:    Elevation Of Perm. Datum
 WSTA.                         LOC:    
 E   .M                 -9999.5000:    E (Stretch Coefficient Of The Cable)
 TD  .M                  2300.0000:    Total Depth
#
~Other Information Block
<DescLogPlotStart>   NEURALOG PLOT DEFINITION
PLOTDEFVERSION: 3
LASFILE: C:\Users\wadet\Desktop\Alphabow Evaluation\well_info\second_white_spec
DEPTHSCALE: 240.000000
RESOLUTION: 200
DEPTHLABELFREQ: 50.000000
HEAVYGRIDFREQ: 50.000000
MEDIUMGRIDFREQ: 25.000000
LIGHTGRIDFREQ: 5.000000
#
#   TRACK 1
#
STARTTRACK: 
 LEFTX: 0.500000 inch
 RIGHTX: 3.000000 inch
 SCALETYPE: Linear
 NUMCHARTDIVISIONS: 10
CURVE: SP    0.000000   150.000000 (0,0,255)      Solid             2     N    
ENDTRACK: 
#
#   TRACK 2
#
STARTTRACK: 
 LEFTX: 3.500000 inch
 RIGHTX: 8.500000 inch
 SCALETYPE: Linear
 NUMCHARTDIVISIONS: 34
CURVE: SFLU  0.200000   2000.000000 (0,131,131)    Solid             2     N   
CURVE: ILD   0.200000   2000.000000 (255,0,255)    Dot               2     N   
ENDTRACK: 
<DescLogPlotEnd>
~A DEPTH     SP               SFLU             ILD             
# ...
   1995.2500 119.76618981     888.90057039     855.26024500    
   1995.4024 119.54390710     886.32727441     855.37030425    
   1995.5548 119.31295990     886.37372804     855.61114591    
   1995.7072 119.29967717     888.56157826     853.67594140    
   1995.8596 119.21143238     884.64612307     847.17441495    
   1996.0120 119.31122222     874.39891163     842.22185073    
   1996.1644 119.62789259     856.79605869     838.88547346    
   1996.3168 119.60332796     851.00722763     838.92933763    
   1996.4692 119.59630623     849.68246722     838.92415482    
   1996.6216 119.65401294     853.26062611     838.92860021    
   1996.7740 119.64728511     866.19416977     839.00498589    
   1996.9264 119.93109309     876.82639045     836.67209916    
   1997.0788 119.98044666     875.79751388     834.06857046    
   1997.2312 120.05925702     875.49049681     831.33935015    
   1997.3836 120.12820684     871.73835290     828.50168333    
   1997.5360 119.95396929     869.15135780     831.30108121    
   1997.6884 119.65620373     867.42452149     835.94984900    
   1997.8408 119.59304860     865.28048861     838.31581002    
   1997.9932 119.60477178     856.57621898     841.00316047    
   1998.1456 119.72037453     854.66782551     843.67842645    
   1998.2980 119.83271497     864.17594067     846.41061144    
   1998.4504 119.94459222     874.50952006     849.12849298    
   1998.6028 120.05627902     890.60602705     851.87780527    
   1998.7552 120.16762494     905.89138261     854.83834686    
   1998.9076 120.28418074     915.09682871     856.96300594    
   1999.0600 120.40376036     918.11810491     861.99658477    
   1999.2124 120.39842451     917.56451226     860.10387496    
   1999.3648 120.18740208     909.85973171     857.77830197    
   1999.5172 120.21813657     905.02545342     855.53843343    
   1999.6696 120.55110879     901.11430581     856.72129935    
   1999.8220 120.52307921     898.43932302     862.16332282    
   1999.9744 120.52165554     901.62543458     863.57212221    
   2000.1268 120.52507192     904.15631736     865.20214545    
   2000.2792 120.44019707     906.73717791     865.66447637    
   2000.4316 119.98317693     912.40409502     865.62835625    
   2000.5840 119.56517644     917.67368378     865.61488104    
   2000.7364 119.59479383     923.80730927     865.71024388    
   2000.8888 119.60291550     929.58631282     867.24572166    
   2001.0412 119.49578439     929.33928655     867.66320557    
   2001.1936 119.19792103     927.05018208     872.84317065    
   2001.3460 118.89726548     923.50003401     875.93448359    
   2001.4984 118.37075067     921.07003873     875.91672292    
   2001.6508 118.14595739     918.99183648     873.79326513    
   2001.8032 117.48963280     918.74220243     870.78961456    
   2001.9556 117.69020842     918.71321318     867.76974073    
   2002.1080 118.18651936     919.01214966     864.75243545    
   2002.2604 119.14256982     917.11618507     863.58062810    
   2002.4128 119.28264696     911.39362974     865.76581319    
   2002.5652 119.53616608     908.39946008     863.80832902    
   2002.7176 119.62829556     914.31400237     858.20953861    
   2002.8700 119.88270905     920.46501979     853.37812206    
   2003.0224 119.62154996     923.44945462     853.29675095    
   2003.1748 119.68637496     922.93784039     853.43909871    
   2003.3272 119.73884285     909.51116757     849.76262507    
   2003.4796 119.79928469     893.51843884     843.55468094    
   2003.6320 119.85857509     880.74269543     839.86052525    
   2003.7844 119.89611830     874.96149587     836.94655663    
   2003.9368 119.66339081     873.82260839     836.81838967    
   2004.0892 119.55615109     873.87866309     836.77389253    
   2004.2416 119.50248294     874.03760221     832.95517873    
   2004.3940 119.44766692     871.76556116     832.83684711    
   2004.5464 119.39003032     871.80211871     826.68047216    
   2004.6988 119.33290696     871.78637714     822.88108818    
   2004.8512 119.29762455     869.05194804     820.41379416    
   2005.0036 119.29672288     865.20620978     820.36053662    
   2005.1560 119.29712433     849.33723621     818.88826440    
   2005.3084 119.31122602     854.76515664     819.10788219    
   2005.4608 119.54012887     851.52925898     819.84753602    
   2005.6132 119.72721901     843.62917237     820.92618754    
   2005.7656 119.88002034     841.13747055     826.07745857    
   2005.9180 120.03480194     869.16042512     831.41785858    
   2006.0704 120.19264211     891.50276018     834.65253853    
   2006.2228 120.35027664     904.60495480     838.17424712    
   2006.3752 120.50766170     905.34792161     842.86493912    
   2006.5276 120.66447031     904.27027347     849.51090521    
   2006.6800 120.82966840     902.27721938     855.89316375    
   2006.8324 121.18833391     900.20144681     858.71926135    
   2006.9848 121.55765514     898.52680337     861.06549548    
   2007.1372 121.92708914     898.52490171     863.74008893    
   2007.2896 122.29731848     895.87614428     863.52847702    
   2007.4420 122.64683695     886.37099235     859.27885503    
   2007.5944 122.60664700     874.63220218     851.79201334    
   2007.7468 122.55247462     865.66124779     844.58227113    
   2007.8992 122.50153317     861.53878397     830.01852605    
   2008.0516 122.44795393     858.15935413     821.47268889    
   2008.2040 122.36806812     863.19610739     814.09058856    
   2008.3564 121.86557095     865.65822365     814.16487391    
   2008.5088 121.73390099     864.16528372     810.36775447    
   2008.6612 122.07162651     853.15543807     812.61372625    
   2008.8136 122.37389107     849.68111584     814.72849524    
   2008.9660 122.10879344     847.14993209     816.78923501    
   2009.1184 122.03959709     847.76970498     818.83376453    
   2009.2708 122.05133800     848.37991204     820.35304127    
   2009.4232 122.04323643     848.82964514     820.44783477    
   2009.5756 122.34824040     851.04226533     820.45114373    
   2009.7280 122.63205437     853.26472761     820.30022886    
   2009.8804 122.95809384     853.24962787     819.38075879    
   2010.0328 122.96225794     852.70441398     818.43679140    
   2010.1852 122.96042860     851.60066136     818.38272986    
   2010.3376 123.30023256     850.49235229     818.35364757    
   2010.4900 123.29235628     849.35254102     818.38913041    
   2010.6424 123.51191444     848.21237252     816.10823830    
   2010.7948 123.92141814     847.66902575     814.76370517    
   2010.9472 123.88524271     850.73502951     814.51046984    
   2011.0996 123.51231925     849.72476427     812.18280926    
   2011.2520 123.03479287     844.06460757     811.03018801    
   2011.4044 122.95583871     833.36689151     806.43105222    
   2011.5568 122.96060631     820.89638975     803.63474350    
   2011.7092 122.96811567     819.72822631     802.08461866    
   2011.8616 122.95740746     834.88140846     801.94289536    
   2012.0140 123.36724871     842.39517281     801.80890753    
   2012.1664 123.24352194     848.32698367     805.47437301    
   2012.3188 123.27276230     856.11326236     809.96914231    
   2012.4712 123.29589415     870.80663394     814.74545686    
   2012.6236 123.29275779     875.78875053     817.48218112    
   2012.7760 123.35350690     868.51202009     824.49861190    
   2012.9284 123.79767241     851.33294195     828.65875831    
   2013.0808 124.11166714     840.84152813     827.36696615    
   2013.2332 124.88395990     837.31610574     821.58259487    
   2013.3856 125.79376192     839.11314793     820.47393047    
   2013.5380 126.86271752     847.28056905     820.45647838    
   2013.6904 127.30415843     851.44657203     820.40832607    
   2013.8428 127.52598292     850.80239280     818.45600521    
   2013.9952 127.54438886     838.28055861     815.93996495    
   2014.1476 127.55910525     831.36454596     803.98395804    
