~Version Information Block
 VERS.                2.00:     CWLS LOG ASCII STANDARD - VERSION 2.000000
 WRAP.                  NO:     One Line Per Depth Step
#
~Well Information Block
#MNEM.UNIT                     Data                         Information
#----------   ------------------------------------------   ----------------
 STRT.M                                      1900.0000:     START DEPTH
 STOP.M                                      2299.8976:     STOP DEPTH
 STEP.M                                         0.1524:     STEP
 NULL.                                       -999.2500:     NULL VALUE
 COMP.                                        Alphabow:     COMPANY
 WELL.                   SOC PINE CK 6-21-56-19 #97328:     WELL
 FLD .                                                :     FIELD
 LOC .                                                :     LOCATION
 CNTY.                                                :     COUNTY
 STAT.                                                :     STATE
 CTRY.                                                :     COUNTRY
 SRVC.                                                :     SERVICE COMPANY
 DATE.                                      03/29/2025:     DATE
 API .                                100062105619W500:     API NUMBER
 UWI .                                100062105619W500:     UWI NUMBER
 TVD .                                              NO:     TVD flag
 WSTA.                                             LOC:     Well status
#
~Curve Information Block
#MNEM.UNIT       API CODE      Curve Description
#----------    -------------   -------------------
 DEPT.M                    :   Depth in Meters
 SP  .MV       01 010 01 01:   Spontaneous Potential
 SFLU.OHMM     10 220 01 01:   SFL Resistivity (Unaveraged)
 ILD .OHMM     05 120 46 01:   Deep Induction Standard Processed Resistivity
#
~Parameter Information Block
#MNEM.UNIT            Value               Description
#----------    --------------------    -------------------
 RUN .                         ONE:    Run Number
 PDAT.                         UNK:    Permanent Datum
 EPD .M                 -9999.5000:    Elevation Of Perm. Datum
 WSTA.                         LOC:    
 E   .M                 -9999.5000:    E (Stretch Coefficient Of The Cable)
 TD  .M                  2300.0000:    Total Depth
#
~Other Information Block
<DescLogPlotStart>   NEURALOG PLOT DEFINITION
PLOTDEFVERSION: 3
LASFILE: C:\Users\wadet\Desktop\Alphabow Evaluation\well_info\second_white_spec
DEPTHSCALE: 240.000000
RESOLUTION: 200
DEPTHLABELFREQ: 50.000000
HEAVYGRIDFREQ: 50.000000
MEDIUMGRIDFREQ: 25.000000
LIGHTGRIDFREQ: 5.000000
#
#   TRACK 1
#
STARTTRACK: 
 LEFTX: 0.500000 inch
 RIGHTX: 3.000000 inch
 SCALETYPE: Linear
 NUMCHARTDIVISIONS: 10
CURVE: SP    0.000000   150.000000 (0,0,255)      Solid             2     N    
ENDTRACK: 
#
#   TRACK 2
#
STARTTRACK: 
 LEFTX: 3.500000 inch
 RIGHTX: 8.500000 inch
 SCALETYPE: Linear
 NUMCHARTDIVISIONS: 34
CURVE: SFLU  0.200000   2000.000000 (0,131,131)    Solid             2     N   
CURVE: ILD   0.200000   2000.000000 (255,0,255)    Dot               2     N   
ENDTRACK: 
<DescLogPlotEnd>
~A DEPTH     SP               SFLU             ILD             
# ...
   2071.4500 108.04833537     1187.42836782    1067.55648124   
   2071.6024 109.25238856     1158.42667647    1063.43476142   
   2071.7548 110.82619089     1130.27444080    1060.31966346   
   2071.9072 111.95715686     1121.44414706    1057.62161555   
   2072.0596 113.36340081     1142.07996288    1054.44168053   
   2072.2120 114.17656285     1146.92167412    1026.29392877   
   2072.3644 114.35029642     1121.20389560    995.29561372    
   2072.5168 114.52894491     1073.20835519    982.18253152    
   2072.6692 114.68942157     1013.21488430    965.09975345    
   2072.8216 114.72499438     959.27834311     987.06081421    
   2072.9740 114.92319008     947.63832272     935.78400305    
   2073.1264 114.73323405     913.23366416     912.95118724    
   2073.2788 114.66244114     910.97165964     910.87652107    
   2073.4312 114.36147981     900.16426757     900.16662812    
   2073.5836 114.12547853     897.98665395     897.98221350    
   2073.7360 113.69175296     892.69490568     892.69490568    
   2073.8884 113.25719010     892.22557250     892.22557250    
   2074.0408 112.92650091     893.15917836     893.15917836    
   2074.1932 112.51000011     894.55186023     894.55186023    
   2074.3456 112.08029277     892.31207271     892.31207271    
   2074.4980 111.58175579     892.55122427     892.55122427    
   2074.6504 111.07059900     891.50812501     891.50812501    
   2074.8028 110.35133870     894.74133355     894.74133355    
   2074.9552 109.91574782     896.45136146     896.45136146    
   2075.1076 109.42064333     900.34183795     900.34183795    
   2075.2600 108.90413264     902.36477616     902.36477616    
   2075.4124 108.92373098     904.77833804     904.77833804    
   2075.5648 108.60876120     905.87732321     905.87732321    
   2075.7172 108.24061210     904.29853538     904.29853538    
   2075.8696 107.61978149     901.21046119     901.21046119    
   2076.0220 107.13293471     897.76838286     897.76838286    
   2076.1744 106.74336742     890.29848236     890.29848236    
   2076.3268 107.13248286     888.23183248     888.23183248    
   2076.4792 107.66022555     887.96634823     887.96634823    
   2076.6316 108.04948212     881.89747320     881.89747320    
   2076.7840 108.33279787     882.64975255     882.64975255    
   2076.9364 108.65044343     881.99723407     881.99723407    
   2077.0888 108.89973268     880.50066902     880.50066902    
   2077.2412 108.90847505     876.51319261     876.51319261    
   2077.3936 108.87863068     873.87342899     873.87342899    
   2077.5460 109.20477301     873.47688316     873.47688316    
   2077.6984 109.00041428     871.44683048     871.44683048    
   2077.8508 108.19039266     870.04847815     870.04847815    
   2078.0032 107.13627623     873.38953683     873.38953683    
   2078.1556 105.93068086     869.78873015     869.78873015    
   2078.3080 105.30157272     867.67059382     867.67059382    
   2078.4604 104.90538190     869.32704300     869.32704300    
   2078.6128 104.92789112     869.77711480     869.77711480    
   2078.7652 104.92426061     873.66720561     873.66929383    
   2078.9176 105.50000526     885.14652355     885.13739388    
   2079.0700 106.02279350     902.78293534     902.66907043    
   2079.2224 106.99489397     922.06247423     921.88925038    
   2079.3748 107.75279468     961.22454304     952.79311821    
   2079.5272 108.24799789     1039.41981273    962.47966773    
   2079.6796 108.28690153     1081.87437611    972.89521254    
   2079.8320 108.36552750     1116.95329619    983.55223730    
   2079.9844 108.61588630     1131.88167725    994.21558496    
   2080.1368 108.53091685     1125.88263153    1005.02075124   
   2080.2892 108.64565791     1099.91313225    1007.69999064   
   2080.4416 108.68201999     1073.62157172    1009.09709199   
   2080.5940 108.84167230     1047.22325683    1010.38947762   
   2080.7464 108.91523325     1040.54849151    1011.83661952   
   2080.8988 108.80819970     1041.95956873    1012.17703176   
   2081.0512 108.45665936     1051.64756613    1010.54142097   
   2081.2036 108.30144350     1062.99628838    1008.80372757   
   2081.3560 108.29911027     1065.92407250    1007.04408839   
   2081.5084 108.29886087     1060.70830613    1005.29650975   
   2081.6608 108.28926631     1050.74236119    1005.22059225   
   2081.8132 108.07407366     1044.63322791    1005.26379786   
   2081.9656 107.43200700     1044.22972903    1003.66510797   
   2082.1180 106.15216096     1042.36631985    1001.44573700   
   2082.2704 105.59418308     1038.29303009    999.22036523    
   2082.4228 104.92866296     1031.44731785    997.01595724    
   2082.5752 104.37267381     1027.70736418    994.94363795    
   2082.7276 104.08312709     1029.99509527    997.22958173    
   2082.8800 103.57924191     1032.59856591    994.69873736    
   2083.0324 103.25774947     1034.69322131    994.09108056    
   2083.1848 102.46864486     1037.18991697    993.37550916    
   2083.3372 102.08683044     1034.76552487    992.92491496    
   2083.4896 101.65964722     1029.72703043    992.98100599    
   2083.6420 101.01614531     1023.88826595    992.74129228    
   2083.7944 100.64398096     1017.74412100    989.05007279    
   2083.9468 100.56161228     1011.11795030    985.34529166    
   2084.0992 100.41639175     1012.93089389    982.21064884    
   2084.2516 100.33132237     1017.64875764    977.53765371    
   2084.4040 100.94241695     1023.28179089    974.28751465    
   2084.5564 101.88283137     1023.34641313    971.10587287    
   2084.7088 103.18140785     1015.37601705    967.89167315    
   2084.8612 104.10658880     1007.46967180    964.74337886    
   2085.0136 104.97039727     987.67106807     962.26733270    
   2085.1660 105.80900597     960.07280376     960.25757456    
   2085.3184 105.94258665     956.19554550     958.05050921    
   2085.4708 106.70538981     957.78121648     957.35915751    
   2085.6232 107.11992732     954.32205083     956.13792234    
   2085.7756 107.91205338     953.58007001     954.90043648    
   2085.9280 108.38434277     953.65066188     954.61800975    
   2086.0804 109.32730135     947.19720784     961.53097468    
   2086.2328 110.17763284     948.42081938     962.12527680    
   2086.3852 111.13046621     949.33812440     962.15516977    
   2086.5376 111.35063186     947.77253804     961.42634480    
   2086.6900 111.32259467     950.36945235     960.41296063    
   2086.8424 110.46963940     951.78412899     959.39233408    
   2086.9948 109.51531850     949.61871235     958.32672583    
   2087.1472 108.32072999     953.70432380     958.04081728    
   2087.2996 106.15261660     953.70447088     958.05533979    
   2087.4520 105.63046314     953.52624732     957.58456129    
   2087.6044 105.24515579     955.94413694     955.21667675    
   2087.7568 105.24780016     955.43578149     951.59604890    
   2087.9092 105.24325119     952.36672783     948.16935485    
   2088.0616 105.09327800     951.75457755     945.15378716    
   2088.2140 104.80062839     949.72730860     941.94155369    
   2088.3664 104.63332592     947.75088202     938.25991761    
   2088.5188 105.03620670     944.07346778     931.60865920    
   2088.6712 105.57533403     941.16192126     927.07642777    
   2088.8236 105.88392628     936.55363945     924.67871988    
   2088.9760 106.21904691     927.39854409     921.40328971    
   2089.1284 107.38697393     928.08389209     917.91703808    
   2089.2808 108.27147925     923.79692619     916.97994000    
   2089.4332 109.16100247     919.03959758     916.94115086    
   2089.5856 109.20490683     924.61311540     916.92195337    
   2089.7380 109.60953872     922.76106356     918.26303621    
   2089.8904 110.21662578     940.30834584     919.91870308    
   2090.0428 110.87519082     939.38813506     923.12439593    
   2090.1952 111.36218505     947.52592000     925.90197557    
   2090.3476 111.36345824     948.32548483     930.46130157    
