~Version Information Block
 VERS.                2.00:     CWLS LOG ASCII STANDARD - VERSION 2.000000
 WRAP.                  NO:     One Line Per Depth Step
#
~Well Information Block
#MNEM.UNIT                     Data                         Information
#----------   ------------------------------------------   ----------------
 STRT.M                                      1900.0000:     START DEPTH
 STOP.M                                      2299.8976:     STOP DEPTH
 STEP.M                                         0.1524:     STEP
 NULL.                                       -999.2500:     NULL VALUE
 COMP.                                        Alphabow:     COMPANY
 WELL.                   SOC PINE CK 6-21-56-19 #97328:     WELL
 FLD .                                                :     FIELD
 LOC .                                                :     LOCATION
 CNTY.                                                :     COUNTY
 STAT.                                                :     STATE
 CTRY.                                                :     COUNTRY
 SRVC.                                                :     SERVICE COMPANY
 DATE.                                      03/29/2025:     DATE
 API .                                100062105619W500:     API NUMBER
 UWI .                                100062105619W500:     UWI NUMBER
 TVD .                                              NO:     TVD flag
 WSTA.                                             LOC:     Well status
#
~Curve Information Block
#MNEM.UNIT       API CODE      Curve Description
#----------    -------------   -------------------
 DEPT.M                    :   Depth in Meters
 SP  .MV       01 010 01 01:   Spontaneous Potential
 SFLU.OHMM     10 220 01 01:   SFL Resistivity (Unaveraged)
 ILD .OHMM     05 120 46 01:   Deep Induction Standard Processed Resistivity
#
~Parameter Information Block
#MNEM.UNIT            Value               Description
#----------    --------------------    -------------------
 RUN .                         ONE:    Run Number
 PDAT.                         UNK:    Permanent Datum
 EPD .M                 -9999.5000:    Elevation Of Perm. Datum
 WSTA.                         LOC:    
 E   .M                 -9999.5000:    E (Stretch Coefficient Of The Cable)
 TD  .M                  2300.0000:    Total Depth
#
~Other Information Block
<DescLogPlotStart>   NEURALOG PLOT DEFINITION
PLOTDEFVERSION: 3
LASFILE: C:\Users\wadet\Desktop\Alphabow Evaluation\well_info\second_white_spec
DEPTHSCALE: 240.000000
RESOLUTION: 200
DEPTHLABELFREQ: 50.000000
HEAVYGRIDFREQ: 50.000000
MEDIUMGRIDFREQ: 25.000000
LIGHTGRIDFREQ: 5.000000
#
#   TRACK 1
#
STARTTRACK: 
 LEFTX: 0.500000 inch
 RIGHTX: 3.000000 inch
 SCALETYPE: Linear
 NUMCHARTDIVISIONS: 10
CURVE: SP    0.000000   150.000000 (0,0,255)      Solid             2     N    
ENDTRACK: 
#
#   TRACK 2
#
STARTTRACK: 
 LEFTX: 3.500000 inch
 RIGHTX: 8.500000 inch
 SCALETYPE: Linear
 NUMCHARTDIVISIONS: 34
CURVE: SFLU  0.200000   2000.000000 (0,131,131)    Solid             2     N   
CURVE: ILD   0.200000   2000.000000 (255,0,255)    Dot               2     N   
ENDTRACK: 
<DescLogPlotEnd>
~A DEPTH     SP               SFLU             ILD             
# ...
   2128.6000 109.83490727     874.17116566     874.17116566    
   2128.7524 110.12482318     882.02907291     882.02907291    
   2128.9048 110.81525773     887.96071069     887.96071069    
   2129.0572 111.69729398     895.97619020     895.97619020    
   2129.2096 112.14733633     904.65970410     904.65970410    
   2129.3620 113.15627968     912.99720315     912.99720315    
   2129.5144 114.15738304     916.65934609     916.65934609    
   2129.6668 115.36815611     908.27845342     908.27845342    
   2129.8192 116.51804293     900.61349282     900.61349282    
   2129.9716 117.57334188     894.54606688     894.54606688    
   2130.1240 118.94876500     894.32977422     894.32977422    
   2130.2764 119.28026338     893.92956240     893.92956240    
   2130.4288 119.60757103     890.31523855     890.31523855    
   2130.5812 119.93542165     882.86515840     882.86515840    
   2130.7336 120.07269059     880.17534809     880.17534809    
   2130.8860 119.67466603     886.24346942     886.24346942    
   2131.0384 119.41396040     892.71833951     892.71833951    
   2131.1908 118.72203115     896.47807973     896.47807973    
   2131.3432 118.25578584     896.08508930     896.08508930    
   2131.4956 117.18167179     892.25895142     892.25895142    
   2131.6480 116.88556239     892.79096211     892.79096211    
   2131.8004 116.58972782     895.68486101     895.68486101    
   2131.9528 115.86995749     898.27296465     898.27296465    
   2132.1052 115.08631797     898.68415222     898.68415222    
   2132.2576 114.71679586     900.45072265     900.45072265    
   2132.4100 114.70634978     900.25781282     900.25781282    
   2132.5624 115.08613796     902.61065994     902.61065994    
   2132.7148 115.89700351     902.77694398     902.77694398    
   2132.8672 116.75119027     900.51964143     900.51964143    
   2133.0196 118.56743569     903.31029822     903.31029822    
   2133.1720 119.64582891     906.22501319     906.22501319    
   2133.3244 120.51570073     912.80006371     912.80006371    
   2133.4768 122.42272856     914.77099593     914.77099593    
   2133.6292 123.60006876     913.09820360     913.09820360    
   2133.7816 124.26499042     910.85373918     910.85373918    
   2133.9340 124.48137641     910.45360188     910.45360188    
   2134.0864 124.48876436     907.41337245     907.41337245    
   2134.2388 124.49733217     902.10085448     902.10085448    
   2134.3912 124.52615970     897.15185695     897.15185695    
   2134.5436 124.13265445     894.37288923     894.37288923    
   2134.6960 123.48947813     896.62440595     896.62440595    
   2134.8484 123.03120157     899.10841903     899.10841903    
   2135.0008 122.89219181     903.59874943     903.59874943    
   2135.1532 122.65567678     907.15306047     907.15306047    
   2135.3056 122.99703384     910.32169249     910.32169249    
   2135.4580 122.98073289     910.86577088     910.86577088    
   2135.6104 122.41404190     910.40618782     910.40618782    
   2135.7628 121.96046460     908.93270614     908.93270614    
   2135.9152 121.34542758     910.40954059     910.40954059    
   2136.0676 120.98475936     913.12950852     913.12950852    
   2136.2200 120.52173793     919.24955482     919.24955482    
   2136.3724 119.89198163     923.13652148     923.13652148    
   2136.5248 119.04526031     923.73605119     923.73605119    
   2136.6772 117.57452103     919.12831513     919.12831513    
   2136.8296 117.11123654     908.66320192     908.66320192    
   2136.9820 116.86645911     902.38847757     902.38847757    
   2137.1344 116.49179685     895.96051792     895.96051792    
   2137.2868 116.04549373     894.85257449     894.85257449    
   2137.4392 115.56516118     897.93381079     897.93381079    
   2137.5916 115.33916708     901.81477575     901.81477575    
   2137.7440 115.29187995     902.99738251     902.99738251    
   2137.8964 115.61084550     904.25056802     904.25056802    
   2138.0488 116.20406707     904.62342717     904.62342717    
   2138.2012 117.08370291     904.99074165     904.99074165    
   2138.3536 118.80114863     909.33510456     909.33510456    
   2138.5060 119.21615946     912.35580239     912.35580239    
   2138.6584 120.20284095     912.92904513     912.92904513    
   2138.8108 121.20324207     910.20061767     910.20061767    
   2138.9632 122.70259791     908.80698784     908.80698784    
   2139.1156 123.85673485     905.49006962     905.49006962    
   2139.2680 123.90960382     902.66981799     902.66981799    
   2139.4204 123.24857779     904.09512396     904.09512396    
   2139.5728 121.33800871     910.81711162     910.81711162    
   2139.7252 120.72327889     918.85182020     918.85182020    
   2139.8776 120.20303584     925.08015795     925.08015795    
   2140.0300 119.51355423     900.51189272     900.51189272    
   2140.1824 118.66841175     868.54428795     868.54428795    
   2140.3348 118.07721310     867.63394591     867.63394591    
   2140.4872 118.56884581     869.79712201     869.79712201    
   2140.6396 118.73756416     869.88802008     869.88802008    
   2140.7920 117.82926965     867.65656386     867.65795759    
   2140.9444 118.23197884     867.75128006     867.74652963    
   2141.0968 117.87586670     865.92271197     865.88681627    
   2141.2492 118.02726791     865.61035377     865.62215139    
   2141.4016 119.02070162     867.87895853     866.05394263    
   2141.5540 119.82458983     867.66908308     867.13454073    
   2141.7064 120.85041525     867.57335333     868.20574180    
   2141.8588 122.68117920     871.39592201     869.27804115    
   2142.0112 124.59941618     875.40859564     870.35105990    
   2142.1636 126.57601194     883.17756779     871.42400083    
   2142.3160 127.89866194     891.04494018     872.49368584    
   2142.4684 128.40903817     898.94983349     873.57791355    
   2142.6208 128.44196532     906.85346219     874.71871206    
   2142.7732 128.22671952     914.75051225     875.70835506    
   2142.9256 127.76323350     922.65425543     880.72299368    
   2143.0780 127.04497342     930.60263896     881.89112991    
   2143.2304 126.37585052     936.97660005     883.31810654    
   2143.3828 125.33821413     943.79215540     884.83424578    
   2143.5352 124.31038994     951.57150522     886.34127434    
   2143.6876 123.23654748     954.15611469     887.83997976    
   2143.8400 122.38475553     951.69383184     889.33131399    
   2143.9924 121.06336170     951.87053088     890.88938385    
   2144.1448 121.22346527     951.49992430     892.74853596    
   2144.2972 122.25921801     949.49834608     892.62033729    
   2144.4496 122.90179857     947.83691379     894.48452715    
   2144.6020 123.27381940     947.64066126     894.15032473    
   2144.7544 123.58177218     946.08924238     889.92765375    
   2144.9068 123.56621692     945.66297036     888.41187637    
   2145.0592 123.75695684     944.06807869     885.77926766    
   2145.2116 123.80422858     939.28605476     883.65605945    
   2145.3640 123.34092993     933.71732900     882.39663513    
   2145.5164 123.27587080     929.64310072     875.50100239    
   2145.6688 123.51106592     928.89653638     875.36443719    
   2145.8212 123.58068896     926.78641800     872.29947502    
   2145.9736 123.58031735     923.12821770     871.74205420    
   2146.1260 123.57941740     919.21572518     871.66664127    
   2146.2784 123.50939653     916.93933027     870.00453703    
   2146.4308 123.06820625     918.48065152     872.37036735    
   2146.5832 122.55671378     923.23678101     874.67367919    
   2146.7356 121.33035583     926.63331359     876.19405571    
   2146.8880 120.73694660     930.84965734     881.42425624    
   2147.0404 120.21437481     937.67368074     885.66711616    
   2147.1928 119.58679306     947.40578223     889.91323888    
   2147.3452 119.57029001     952.10024552     892.62179681    
   2147.4976 119.97146399     956.48968118     896.25054172    
