~Version Information Block
 VERS.                2.00:     CWLS LOG ASCII STANDARD - VERSION 2.000000
 WRAP.                  NO:     One Line Per Depth Step
#
~Well Information Block
#MNEM.UNIT                     Data                         Information
#----------   ------------------------------------------   ----------------
 STRT.M                                      1800.0000:     START DEPTH
 STOP.M                                      2299.8720:     STOP DEPTH
 STEP.M                                         0.1524:     STEP
 NULL.                                       -999.2500:     NULL VALUE
 COMP.                                        Alphabow:     COMPANY
 WELL.                   ABE PINE CK 6-21-56-19 #97328:     WELL
 FLD .                                      Pine Creek:     FIELD
 LOC .                           100/06-21-056-19W5/00:     LOCATION
 CNTY.                                                :     COUNTY
 STAT.                                         Alberta:     STATE
 CTRY.                                          Canada:     COUNTRY
 SRVC.                                                :     SERVICE COMPANY
 DATE.                                      03/28/2025:     DATE
 API .                                100062105619W500:     API NUMBER
 UWI .                                100062105619W500:     UWI NUMBER
 TVD .                                              NO:     TVD flag
 WSTA.                                             LOC:     Well status
#
~Curve Information Block
#MNEM.UNIT       API CODE      Curve Description
#----------    -------------   -------------------
 DEPT.M                    :   Depth in Meters
 GR  .GAPI     35 310 01 01:   Gamma Ray
 CALI.mm       70 280 01 01:   Caliper
 RHOB.kg/m3     42 350 01 01:   Bulk Density
#
~Parameter Information Block
#MNEM.UNIT            Value               Description
#----------    --------------------    -------------------
 RUN .                         ONE:    Run Number
 PDAT.                         UNK:    Permanent Datum
 EPD .M                 -9999.5000:    Elevation Of Perm. Datum
 TD  .M                  2300.0000:    Total Depth
 WSTA.                         LOC:    
 LATB.M                     0.0000:    
 LONB.M                     0.0000:    
#
~Other Information Block
<DescLogPlotStart>   NEURALOG PLOT DEFINITION
PLOTDEFVERSION: 3
LASFILE: C:\Users\wadet\Desktop\Alphabow Evaluation\well_info\second_white_spec
DEPTHSCALE: 600.000000
RESOLUTION: 200
DEPTHLABELFREQ: 100.000000
HEAVYGRIDFREQ: 50.000000
MEDIUMGRIDFREQ: 25.000000
LIGHTGRIDFREQ: 25.000000
#
#   TRACK 1
#
STARTTRACK: 
 LEFTX: 0.500000 inch
 RIGHTX: 3.000000 inch
 SCALETYPE: Linear
 NUMCHARTDIVISIONS: 10
CURVE: GR    0.000000   150.000000 (0,0,255)      Solid             2     N    
CURVE: CALI  125.000000 375.000000 (0,131,131)    Dot               2     N    
ENDTRACK: 
#
#   TRACK 2
#
STARTTRACK: 
 LEFTX: 3.500000 inch
 RIGHTX: 8.500000 inch
 SCALETYPE: Linear
 NUMCHARTDIVISIONS: 17
CURVE: RHOB  2000.000000 3000.000000 (255,0,255)    Solid             2     N  
ENDTRACK: 
<DescLogPlotEnd>
~A DEPTH     GR               CALI             RHOB            
# ...
   2276.2500 132.62647498     224.46479135     2554.78889907   
   2276.4024 132.87733793     224.60983172     2552.54312241   
   2276.5548 132.74974714     225.17206839     2562.99963869   
   2276.7072 132.00110382     225.12607293     2564.94650115   
   2276.8596 130.28335134     224.15394344     2565.03763893   
   2277.0120 130.20999226     224.12008538     2562.91572518   
   2277.1644 131.76999601     224.65477246     2558.83984825   
   2277.3168 132.66610464     225.14299995     2562.97167361   
   2277.4692 132.66291076     223.63181383     2569.12674615   
   2277.6216 132.68121419     222.61987705     2568.15177712   
   2277.7740 140.25344755     222.60890239     2559.81456339   
   2277.9264 141.18836236     223.13560120     2564.05383718   
   2278.0788 147.24879320     222.59422048     2567.03805232   
   2278.2312 148.76597770     222.13385336     2555.84824084   
   2278.3836 148.48352635     221.57032600     2538.16448047   
   2278.5360 148.73978504     219.10883356     2518.74658795   
   2278.6884 148.51343749     219.02838505     2521.69254916   
   2278.8408 149.01160383     220.13227146     2533.16410144   
   2278.9932 148.84626549     222.05981319     2541.28348293   
   2279.1456 148.97481117     222.67393609     2539.31069932   
   2279.2980 148.86800533     223.06494310     2544.41111037   
   2279.4504 148.94869074     223.18417310     2554.75616283   
   2279.6028 148.89616892     223.56945939     2570.20611874   
   2279.7552 148.93768500     223.69564813     2580.47057178   
   2279.9076 148.91089761     223.56797810     2571.42334263   
   2280.0600 148.93210396     222.76588693     2562.40286058   
   2280.2124 148.92644554     221.83983302     2554.79054645   
   2280.3648 148.93069605     219.13724404     2562.89283858   
   2280.5172 148.93871261     218.50303640     2576.43583016   
   2280.6696 148.92894787     218.62945938     2590.67162759   
   2280.8220 148.94321067     219.12865684     2610.39237204   
   2280.9744 148.92426447     219.45075203     2625.67499274   
   2281.1268 148.64491098     219.51364419     2625.84482509   
   2281.2792 146.48892072     220.64919009     2611.28360123   
   2281.4316 143.78929242     222.55984068     2596.99123109   
   2281.5840 140.71239684     222.16807444     2605.11963021   
   2281.7364 140.14732970     222.05637087     2620.69436618   
   2281.8888 143.74783536     222.16349947     2620.60738399   
   2282.0412 145.92071818     224.08572497     2604.22458708   
   2282.1936 148.30470435     225.19929733     2589.70864494   
   2282.3460 148.95743014     225.10218137     2584.63672112   
   2282.4984 148.91471946     224.68776121     2586.59846304   
   2282.6508 148.94872855     224.09199933     2587.74457206   
   2282.8032 148.92514892     223.66696171     2575.28780227   
   2282.9556 148.94061431     223.58755297     2556.88310825   
   2283.1080 148.93645278     223.15646176     2535.12756489   
   2283.2604 149.22693350     222.57974257     2520.84505375   
   2283.4128 149.25400124     220.61851945     2522.75174371   
   2283.5652 149.20632478     221.06530286     2527.01552767   
   2283.7176 149.27084660     223.14960458     2535.09967038   
   2283.8700 149.18368087     224.11252921     2538.33567996   
   2284.0224 149.29125590     223.64977599     2543.36019138   
   2284.1748 149.16482559     222.59930790     2546.55668514   
   2284.3272 149.31381221     222.63027205     2549.54057246   
   2284.4796 149.15240112     223.62394875     2554.73022852   
   2284.6320 149.33136443     223.63587607     2555.75048186   
   2284.7844 149.14165775     223.63641095     2555.71981611   
   2284.9368 145.99149650     223.62433175     2569.24220296   
   2285.0892 149.13305168     223.64216122     2587.26090397   
   2285.2416 149.32197517     222.60036271     2608.40866616   
   2285.3940 149.13172483     222.63849015     2626.70825911   
   2285.5464 147.18088022     222.59254786     2622.86794064   
   2285.6988 144.88608558     220.61716755     2608.10210461   
   2285.8512 144.41153606     221.06565560     2594.04376584   
   2286.0036 144.28969937     222.13774644     2596.73200130   
   2286.1560 145.59249909     223.60118818     2600.25719198   
   2286.3084 149.17152803     223.15251727     2595.71357114   
   2286.4608 149.22564348     223.09751689     2575.55136919   
   2286.6132 149.21860057     223.14957879     2555.57333932   
   2286.7656 149.22082893     223.60975574     2542.58951009   
   2286.9180 149.22938523     224.16155809     2548.41410049   
   2287.0704 149.22127676     225.64346291     2555.91287073   
   2287.2228 144.69483522     225.68015294     2560.79748769   
   2287.3752 142.11859174     222.60683470     2559.91991463   
   2287.5276 134.92842847     222.63878894     2561.91389463   
   2287.6800 130.06693897     222.60568906     2566.04416447   
   2287.8324 128.55997572     222.63585632     2575.43172939   
   2287.9848 121.85992177     222.60554514     2579.34042146   
   2288.1372 112.44303644     221.11088151     2574.46298554   
   2288.2896 104.23200274     221.08812511     2566.84164383   
   2288.4420 98.75916446      221.10879110     2565.26873060   
   2288.5944 95.41981690      223.11921629     2581.22480108   
   2288.7468 95.71672918      223.12735015     2595.22541455   
   2288.8992 98.18348349      224.64286427     2625.57576462   
   2289.0516 102.41531426     226.15974512     2651.83129247   
   2289.2040 108.20852141     226.67569871     2660.59643292   
   2289.3564 114.87597029     230.71066351     2639.45329432   
   2289.5088 119.44622671     231.74938850     2605.99717368   
   2289.6612 120.65074017     231.20556384     2557.98809672   
   2289.8136 119.43678915     230.31152146     2546.23591751   
   2289.9660 119.53712265     229.34915329     2546.43387831   
   2290.1184 119.62870504     228.46046455     2547.80948426   
   2290.2708 119.73674617     227.49764165     2549.67001150   
   2290.4232 122.44634315     226.60924257     2537.10386905   
   2290.5756 125.19307541     225.63885214     2521.81239055   
   2290.7280 127.29342439     225.16838882     2516.58703736   
   2290.8804 126.70700058     225.13948720     2535.19402232   
   2291.0328 124.86403027     224.15678890     2548.59612747   
   2291.1852 122.15361333     223.62147620     2547.49555080   
   2291.3376 119.71139356     224.16112345     2535.20607315   
   2291.4900 118.51134263     224.12809531     2520.65307658   
   2291.6424 118.50846371     224.16506187     2520.81308375   
   2291.7948 118.81488297     225.14294655     2524.72266902   
   2291.9472 119.73254852     225.68896883     2528.03575694   
   2292.0996 120.63100511     225.13863535     2516.38467094   
   2292.2520 120.95157973     224.67778922     2502.26560776   
   2292.4044 120.62467752     224.12223343     2500.89379020   
   2292.5568 118.52252571     224.17171934     2527.04496630   
   2292.7092 116.36564993     226.14518064     2568.94075750   
   2292.8616 113.66441802     226.19572152     2588.99852371   
   2293.0140 112.41651506     228.16972040     2654.55177900   
   2293.1664 113.66562180     230.75046049     2674.52373730   
   2293.3188 117.27834539     230.70346529     2661.82780312   
   2293.4712 121.86646990     230.74596252     2640.45674382   
   2293.6236 126.38781572     231.71904979     2616.49059641   
   2293.7760 128.24075661     231.72217040     2603.25757269   
   2293.9284 127.60261857     231.57876903     2601.07038370   
   2294.0808 125.19851859     231.49506528     2601.10802977   
   2294.2332 122.44253842     231.36151640     2591.84719579   
   2294.3856 120.94381980     231.24155081     2566.98658845   
   2294.5380 120.31883017     231.22536738     2548.58644231   
   2294.6904 119.42032064     231.23789194     2559.20299175   
   2294.8428 117.48348988     231.22678323     2564.95477589   
   2294.9952 115.70353108     231.23650779     2568.97899746   
   2295.1476 114.23818390     231.23079818     2583.75699430   
