~Version Information Block
 VERS.                2.00:     CWLS LOG ASCII STANDARD - VERSION 2.000000
 WRAP.                  NO:     One Line Per Depth Step
#
~Well Information Block
#MNEM.UNIT                     Data                         Information
#----------   ------------------------------------------   ----------------
 STRT.M                                      1800.0000:     START DEPTH
 STOP.M                                      2299.8720:     STOP DEPTH
 STEP.M                                         0.1524:     STEP
 NULL.                                       -999.2500:     NULL VALUE
 COMP.                                        Alphabow:     COMPANY
 WELL.                   ABE PINE CK 6-21-56-19 #97328:     WELL
 FLD .                                      Pine Creek:     FIELD
 LOC .                           100/06-21-056-19W5/00:     LOCATION
 CNTY.                                                :     COUNTY
 STAT.                                         Alberta:     STATE
 CTRY.                                          Canada:     COUNTRY
 SRVC.                                                :     SERVICE COMPANY
 DATE.                                      03/28/2025:     DATE
 API .                                100062105619W500:     API NUMBER
 UWI .                                100062105619W500:     UWI NUMBER
 TVD .                                              NO:     TVD flag
 WSTA.                                             LOC:     Well status
#
~Curve Information Block
#MNEM.UNIT       API CODE      Curve Description
#----------    -------------   -------------------
 DEPT.M                    :   Depth in Meters
 GR  .GAPI     35 310 01 01:   Gamma Ray
 CALI.mm       70 280 01 01:   Caliper
 RHOB.kg/m3     42 350 01 01:   Bulk Density
#
~Parameter Information Block
#MNEM.UNIT            Value               Description
#----------    --------------------    -------------------
 RUN .                         ONE:    Run Number
 PDAT.                         UNK:    Permanent Datum
 EPD .M                 -9999.5000:    Elevation Of Perm. Datum
 TD  .M                  2300.0000:    Total Depth
 WSTA.                         LOC:    
 LATB.M                     0.0000:    
 LONB.M                     0.0000:    
#
~Other Information Block
<DescLogPlotStart>   NEURALOG PLOT DEFINITION
PLOTDEFVERSION: 3
LASFILE: C:\Users\wadet\Desktop\Alphabow Evaluation\well_info\second_white_spec
DEPTHSCALE: 600.000000
RESOLUTION: 200
DEPTHLABELFREQ: 100.000000
HEAVYGRIDFREQ: 50.000000
MEDIUMGRIDFREQ: 25.000000
LIGHTGRIDFREQ: 25.000000
#
#   TRACK 1
#
STARTTRACK: 
 LEFTX: 0.500000 inch
 RIGHTX: 3.000000 inch
 SCALETYPE: Linear
 NUMCHARTDIVISIONS: 10
CURVE: GR    0.000000   150.000000 (0,0,255)      Solid             2     N    
CURVE: CALI  125.000000 375.000000 (0,131,131)    Dot               2     N    
ENDTRACK: 
#
#   TRACK 2
#
STARTTRACK: 
 LEFTX: 3.500000 inch
 RIGHTX: 8.500000 inch
 SCALETYPE: Linear
 NUMCHARTDIVISIONS: 17
CURVE: RHOB  2000.000000 3000.000000 (255,0,255)    Solid             2     N  
ENDTRACK: 
<DescLogPlotEnd>
~A DEPTH     GR               CALI             RHOB            
# ...
   2028.6000 119.39026430     226.24137638     2603.13374801   
   2028.7524 117.31235940     226.60330037     2605.37636031   
   2028.9048 116.96609182     226.24594876     2605.14666449   
   2029.0572 115.49130420     224.57678224     2605.39365096   
   2029.2096 115.45046359     222.70153491     2608.18981926   
   2029.3620 114.87767589     224.57997592     2614.70664828   
   2029.5144 113.01809904     225.22791966     2609.16689730   
   2029.6668 111.83464787     227.11903886     2604.45458421   
   2029.8192 112.10674741     228.14380250     2612.21886626   
   2029.9716 113.91764628     229.07595262     2614.02963457   
   2030.1240 115.50887191     229.91139619     2614.60869999   
   2030.2764 117.17239405     230.17662951     2616.37971749   
   2030.4288 118.76142099     230.76000696     2611.14780789   
   2030.5812 119.44124607     230.69454198     2593.23990829   
   2030.7336 118.77427089     230.24171221     2595.67523558   
   2030.8860 118.84990166     229.69497336     2603.51187860   
   2031.0384 119.36654575     228.71244947     2606.02312386   
   2031.1908 119.77081155     228.69269409     2596.25280264   
   2031.3432 119.34456161     228.82313073     2598.88207788   
   2031.4956 117.65294989     228.97926718     2600.29110246   
   2031.6480 116.29522522     229.13821363     2604.11762229   
   2031.8004 114.02018274     229.21125414     2607.41204645   
   2031.9528 113.55456865     229.19637473     2608.31403775   
   2032.1052 111.59349681     228.71123383     2615.56604776   
   2032.2576 109.90749405     228.68874277     2622.83557827   
   2032.4100 105.21143519     228.71415952     2635.08586032   
   2032.5624 102.62486009     229.19403576     2643.50923707   
   2032.7148 103.07764320     229.22206692     2650.49517412   
   2032.8672 105.98088849     229.19559092     2642.49899445   
   2033.0196 108.22869413     228.71525252     2628.80669208   
   2033.1720 110.65414011     228.69008098     2619.83897671   
   2033.3244 111.55432245     228.71243070     2617.48119277   
   2033.4768 109.65706305     228.69081126     2620.87261780   
   2033.6292 105.76757840     228.71021994     2623.68024331   
   2033.7816 103.29007692     228.18670272     2619.84090629   
   2033.9340 104.53775381     228.20238848     2615.45146656   
   2034.0864 106.63927836     228.18836612     2607.45811751   
   2034.2388 109.08326805     227.69432505     2604.12460906   
   2034.3912 109.98578289     227.67966956     2605.38437963   
   2034.5436 108.77223413     227.69652806     2609.28418197   
   2034.6960 107.55496738     227.17218657     2615.69449692   
   2034.8484 107.19710386     226.68511593     2618.56899107   
   2035.0008 107.04583053     226.97512433     2616.91182829   
   2035.1532 106.88897112     227.39933206     2614.24033385   
   2035.3056 106.73873386     227.66810620     2612.02977074   
   2035.4580 106.58336292     227.70786940     2609.33830283   
   2035.6104 106.43258620     227.66108299     2607.14318232   
   2035.7628 106.28140726     227.71516071     2613.39846583   
   2035.9152 106.12217929     227.65672567     2623.96688507   
   2036.0676 105.97310824     227.71759763     2631.93896240   
   2036.2200 105.80511645     227.65177418     2628.08506401   
   2036.3724 105.66650998     227.71961873     2622.66093269   
   2036.5248 105.49203705     227.14368693     2616.73354088   
   2036.6772 105.36643795     225.18394091     2612.36151551   
   2036.8296 105.18003907     227.14892176     2607.45679315   
   2036.9820 105.06628715     227.20135050     2604.14151483   
   2037.1344 104.86509908     226.14641939     2601.26785927   
   2037.2868 104.76414088     226.17744389     2601.06307788   
   2037.4392 104.55235139     225.65398647     2604.32485966   
   2037.5916 103.33920322     224.64511552     2611.37719112   
   2037.7440 102.36246292     225.16405180     2620.78442938   
   2037.8964 102.73452213     224.63395630     2625.81728860   
   2038.0488 105.40093992     225.17740361     2623.85026925   
   2038.2012 107.59312054     226.64181225     2619.66703092   
   2038.3536 110.26341558     224.17487186     2614.57229318   
   2038.5060 109.10757867     224.60845618     2615.58730475   
   2038.6584 106.62246611     224.18303052     2616.60967186   
   2038.8108 105.15017787     223.08223889     2615.61461922   
   2038.9632 104.49845519     222.66785262     2617.62403169   
   2039.1156 106.05108823     222.56785247     2620.80417644   
   2039.2680 108.45472853     222.67518514     2623.79501471   
   2039.4204 109.99723311     223.07042032     2622.88922301   
   2039.5728 110.58949890     224.19635252     2617.56690356   
   2039.7252 111.81864030     224.08191540     2608.45999431   
   2039.8776 113.18232527     224.19702013     2605.16492132   
   2040.0300 114.19916733     225.43344321     2603.41274133   
   2040.1824 115.20181191     226.96931963     2601.13184311   
   2040.3348 115.76020714     227.62447577     2601.27705552   
   2040.4872 115.45096861     223.18195431     2601.04177962   
   2040.6396 114.85906260     223.57869797     2602.30013883   
   2040.7920 114.84755494     224.18784120     2608.25556889   
   2040.9444 114.55956247     224.09176445     2610.53308893   
   2041.0968 113.32101014     224.18430993     2619.61072533   
   2041.2492 110.91231679     223.08322208     2630.10423001   
   2041.4016 108.45306124     223.16191010     2643.35313466   
   2041.5540 109.08890010     223.08908539     2656.89263255   
   2041.7064 111.19755340     223.15611194     2659.87618164   
   2041.8588 113.03748242     223.60029893     2647.58065212   
   2042.0112 115.43179639     224.16725575     2631.01539712   
   2042.1636 114.56247270     224.61627524     2616.62819561   
   2042.3160 112.39787154     223.66020173     2606.31376532   
   2042.4684 110.01308838     223.09961252     2605.28992939   
   2042.6208 108.44868174     223.15727770     2606.32561833   
   2042.7732 109.71239865     223.10218174     2610.42072228   
   2042.9256 112.08908656     223.15170314     2611.47677677   
   2043.0780 114.57573424     223.61217559     2611.43907461   
   2043.2304 116.33680269     224.16121898     2612.50641847   
   2043.3828 115.79421794     226.65548531     2613.53338151   
   2043.5352 114.20309238     225.67365517     2623.87825345   
   2043.6876 111.84436751     224.12942658     2635.19114069   
   2043.8400 108.12318926     224.14728398     2645.51565384   
   2043.9924 104.25414071     223.62999208     2651.70052815   
   2044.1448 101.13842612     223.63440493     2641.38746233   
   2044.2972 98.78686784      223.63629294     2626.95963948   
   2044.4496 100.84155214     224.64306472     2622.81444964   
   2044.6020 103.03421912     224.65303702     2633.14501246   
   2044.7544 105.70880909     224.63899868     2643.41834811   
   2044.9068 106.36218906     225.39689607     2643.43034759   
   2045.0592 105.73331232     226.55975761     2636.83606578   
   2045.2116 105.23618829     227.75144705     2631.07158948   
   2045.3640 104.70697762     228.18455609     2625.27324994   
   2045.5164 104.18081315     228.19493425     2619.70265857   
   2045.6688 103.67618619     228.18828197     2640.33646833   
   2045.8212 103.12132321     228.19561194     2659.91371135   
   2045.9736 102.64099014     228.14138935     2654.81384200   
   2046.1260 104.49136012     228.06276764     2643.42458778   
   2046.2784 105.46141434     227.97941502     2638.33355567   
   2046.4308 105.39331641     227.89862362     2639.26864045   
   2046.5832 104.85075513     227.81665293     2639.33931339   
   2046.7356 105.08639644     227.73589983     2645.92968928   
   2046.8880 105.76376588     227.65503711     2656.85647189   
   2047.0404 107.22042667     227.57316941     2663.97772812   
   2047.1928 106.97985745     227.49210682     2647.59966428   
   2047.3452 106.92209049     227.41145002     2625.84703673   
   2047.4976 106.97427004     227.33103690     2611.51581959   
