~Version Information Block
 VERS.                2.00:     CWLS LOG ASCII STANDARD - VERSION 2.000000
 WRAP.                  NO:     One Line Per Depth Step
#
~Well Information Block
#MNEM.UNIT                     Data                         Information
#----------   ------------------------------------------   ----------------
 STRT.M                                      1900.0000:     START DEPTH
 STOP.M                                      2299.8976:     STOP DEPTH
 STEP.M                                         0.1524:     STEP
 NULL.                                       -999.2500:     NULL VALUE
 COMP.                                        Alphabow:     COMPANY
 WELL.                   SOC PINE CK 6-21-56-19 #97328:     WELL
 FLD .                                                :     FIELD
 LOC .                                                :     LOCATION
 CNTY.                                                :     COUNTY
 STAT.                                                :     STATE
 CTRY.                                                :     COUNTRY
 SRVC.                                                :     SERVICE COMPANY
 DATE.                                      03/29/2025:     DATE
 API .                                100062105619W500:     API NUMBER
 UWI .                                100062105619W500:     UWI NUMBER
 TVD .                                              NO:     TVD flag
 WSTA.                                             LOC:     Well status
#
~Curve Information Block
#MNEM.UNIT       API CODE      Curve Description
#----------    -------------   -------------------
 DEPT.M                    :   Depth in Meters
 SP  .MV       01 010 01 01:   Spontaneous Potential
 SFLU.OHMM     10 220 01 01:   SFL Resistivity (Unaveraged)
 ILD .OHMM     05 120 46 01:   Deep Induction Standard Processed Resistivity
#
~Parameter Information Block
#MNEM.UNIT            Value               Description
#----------    --------------------    -------------------
 RUN .                         ONE:    Run Number
 PDAT.                         UNK:    Permanent Datum
 EPD .M                 -9999.5000:    Elevation Of Perm. Datum
 WSTA.                         LOC:    
 E   .M                 -9999.5000:    E (Stretch Coefficient Of The Cable)
 TD  .M                  2300.0000:    Total Depth
#
~Other Information Block
<DescLogPlotStart>   NEURALOG PLOT DEFINITION
PLOTDEFVERSION: 3
LASFILE: C:\Users\wadet\Desktop\Alphabow Evaluation\well_info\second_white_spec
DEPTHSCALE: 240.000000
RESOLUTION: 200
DEPTHLABELFREQ: 50.000000
HEAVYGRIDFREQ: 50.000000
MEDIUMGRIDFREQ: 25.000000
LIGHTGRIDFREQ: 5.000000
#
#   TRACK 1
#
STARTTRACK: 
 LEFTX: 0.500000 inch
 RIGHTX: 3.000000 inch
 SCALETYPE: Linear
 NUMCHARTDIVISIONS: 10
CURVE: SP    0.000000   150.000000 (0,0,255)      Solid             2     N    
ENDTRACK: 
#
#   TRACK 2
#
STARTTRACK: 
 LEFTX: 3.500000 inch
 RIGHTX: 8.500000 inch
 SCALETYPE: Linear
 NUMCHARTDIVISIONS: 34
CURVE: SFLU  0.200000   2000.000000 (0,131,131)    Solid             2     N   
CURVE: ILD   0.200000   2000.000000 (255,0,255)    Dot               2     N   
ENDTRACK: 
<DescLogPlotEnd>
~A DEPTH     SP               SFLU             ILD             
# ...
   2185.7500 137.19221267     995.10592522     922.67065292    
   2185.9024 135.83996260     994.53302076     919.31320112    
   2186.0548 135.78484964     992.91331128     921.66068587    
   2186.2072 135.79169627     993.42081557     924.32134356    
   2186.3596 135.79547281     994.31062913     923.12927705    
   2186.5120 135.80719177     996.42377869     926.83473425    
   2186.6644 136.02105982     999.55281488     927.20980309    
   2186.8168 137.05512564     1003.29172283    927.22561646    
   2186.9692 137.72425769     1003.15873926    927.21228946    
   2187.1216 138.22662706     999.63235769     927.21201232    
   2187.2740 138.58292460     999.09308032     927.21201232    
   2187.4264 138.25239192     996.81370512     927.20561658    
   2187.5788 137.61459776     996.94160756     927.20846922    
   2187.7312 137.11425055     996.87146622     927.30437739    
   2187.8836 136.14584276     1001.16010187    928.87072978    
   2188.0360 135.65287355     1003.68192910    929.49799560    
   2188.1884 135.25574911     1005.25674343    930.12421735    
   2188.3408 134.77274449     1005.25540808    930.73050464    
   2188.4932 134.36721316     1002.56465795    931.35603495    
   2188.6456 133.92640862     998.92898533     931.98158358    
   2188.7980 133.05544233     999.42991627     932.60718347    
   2188.9504 133.54357760     1003.23255963    933.23319255    
   2189.1028 133.96788554     1006.60006036    933.85824716    
   2189.2552 134.03264154     1005.18949879    934.47658132    
   2189.4076 134.25155710     1003.00944565    935.09795363    
   2189.5600 134.60526214     1003.28022359    934.62590128    
   2189.7124 134.57343632     1004.84194777    933.04103600    
   2189.8648 134.54158712     1007.71989747    931.46011060    
   2190.0172 135.01329900     1002.57301009    929.87254263    
   2190.1696 135.38711109     996.35219968     928.28396736    
   2190.3220 135.79957454     993.37394601     926.69579667    
   2190.4744 136.37145549     993.18598425     925.10762599    
   2190.6268 136.74499883     993.01725003     923.51945530    
   2190.7792 136.48356225     994.37428190     921.93033916    
   2190.9316 135.74202225     994.72629885     920.34416859    
   2191.0840 135.46304077     985.82970921     918.76290807    
   2191.2364 135.49365631     980.07236573     917.10712992    
   2191.3888 135.48970282     978.58050453     911.63111716    
   2191.5412 135.48803601     978.56942323     908.53572748    
   2191.6936 135.50196891     978.74699041     908.69803177    
   2191.8460 135.73913527     976.46286842     908.74745113    
   2191.9984 135.94488152     976.46528975     908.77289625    
   2192.1508 136.49939023     976.85919600     908.62313772    
   2192.3032 137.04544263     978.84774793     906.68623943    
   2192.4556 137.59202499     980.36075744     906.70131961    
   2192.6080 136.76793566     978.90776049     904.41475620    
   2192.7604 135.81273703     976.35692509     904.67124206    
   2192.9128 134.85797859     976.05184628     904.81192587    
   2193.0652 133.90719804     972.37605200     903.40125375    
   2193.2176 133.04482884     970.04537920     900.51064395    
   2193.3700 132.82116988     967.98718557     898.87140395    
   2193.5224 132.61946975     966.29280851     898.39066265    
   2193.6748 132.41742387     966.20493462     898.36811127    
   2193.8272 132.21299685     966.69840979     898.95946804    
   2193.9796 132.23162395     972.12310546     899.73223929    
   2194.1320 132.39982871     974.29523319     899.03410752    
   2194.2844 132.56814897     978.23111203     900.09319094    
   2194.4368 132.74829992     978.80318915     898.16595681    
   2194.5892 133.22063341     975.74442609     896.26877132    
   2194.7416 133.71569894     970.19724511     895.81436849    
   2194.8940 134.20315186     963.68143281     895.46702867    
   2195.0464 134.43114104     957.04755737     895.11898328    
   2195.1988 134.68014077     952.41313388     894.77659868    
   2195.3512 134.88364837     948.08819930     894.50715290    
   2195.5036 134.87788431     947.66363247     891.77690755    
   2195.6560 134.87740904     948.02100300     888.66156951    
   2195.8084 134.87787021     953.16793212     885.51625403    
   2195.9608 134.87773189     958.41564322     882.54338516    
   2196.1132 134.87563412     962.41052790     881.96313119    
   2196.2656 134.87484444     960.04303973     888.92782265    
   2196.4180 134.57264307     960.10009328     890.51742605    
   2196.5704 133.99940437     959.94744433     892.33360542    
   2196.7228 133.43482333     958.31457957     895.05374330    
   2196.8752 133.00879340     958.39843505     902.80493671    
   2197.0276 132.18493860     960.14324520     901.75472370    
   2197.1800 131.62747228     968.10062525     899.93433879    
   2197.3324 131.01188494     976.21307257     898.49866263    
   2197.4848 131.47206586     974.67480040     895.22803796    
   2197.6372 131.75045149     968.78787648     890.94851269    
   2197.7896 131.45149363     959.61584444     889.84691422    
   2197.9420 130.98505843     952.13777377     888.89489235    
   2198.0944 130.43845829     951.93538558     887.68221148    
   2198.2468 129.96285199     953.71752437     887.02937334    
   2198.3992 129.99171724     952.12218289     886.21332437    
   2198.5516 129.93134316     950.05202373     885.40619417    
   2198.7040 129.69890500     947.77055447     884.61557559    
   2198.8564 129.68563751     947.78191321     884.08892497    
   2199.0088 129.78034864     948.17657447     884.23323102    
   2199.1612 129.99626527     950.88219234     885.11461807    
   2199.3136 130.00443893     954.14153345     886.00656638    
   2199.4660 130.08922975     956.20703798     886.90712573    
   2199.6184 130.36790392     959.98224741     887.71278932    
   2199.7708 129.99270326     962.19239574     890.55983770    
   2199.9232 129.94886600     961.97816126     889.67696653    
   2200.0756 129.75272951     959.15380366     890.26221080    
   2200.2280 129.68582699     958.02964423     890.18521283    
   2200.3804 129.68475539     958.01040439     888.59466657    
   2200.5328 129.67290637     957.99760561     888.21476958    
   2200.6852 129.44500429     958.04162729     888.40300200    
   2200.8376 129.31648464     958.24275513     885.53149507    
   2200.9900 129.06842850     955.84454436     886.33750074    
   2201.1424 128.44627196     952.42802584     884.43333815    
   2201.2948 128.80585378     951.26560262     884.30868553    
   2201.4472 128.81148119     949.66603939     884.34596718    
   2201.5996 128.38653001     949.68520849     883.80734488    
   2201.7520 127.91621010     950.19758661     882.08123691    
   2201.9044 127.59936366     951.76116753     884.07476014    
   2202.0568 127.53541595     951.85326299     883.85712891    
   2202.2092 127.54107067     951.85286033     881.99809759    
   2202.3616 127.54746404     951.85930548     884.30063885    
   2202.5140 127.57930254     951.91123640     884.09946846    
   2202.6664 126.83010756     953.25674462     884.03828452    
   2202.8188 126.06263759     956.02026214     884.58402647    
   2202.9712 126.02125486     953.66804531     887.71577874    
   2203.1236 126.31005823     953.78678345     888.95682925    
   2203.2760 126.63506617     954.08317355     889.71943007    
   2203.4284 127.22569977     958.28318111     890.25749377    
   2203.5808 128.05979468     962.64603800     892.92022268    
   2203.7332 128.45938771     966.06838055     896.53828350    
   2203.8856 128.76400441     967.95525132     896.22582308    
   2204.0380 128.91398527     969.95264103     900.80240379    
   2204.1904 128.77706221     973.90540442     904.21426609    
   2204.3428 128.21598184     978.04730543     906.74536682    
   2204.4952 128.17695141     980.52070882     910.69302360    
   2204.6476 128.39047620     982.22202420     913.06372636    
