~Version Information Block
 VERS.                2.00:     CWLS LOG ASCII STANDARD - VERSION 2.000000
 WRAP.                  NO:     One Line Per Depth Step
#
~Well Information Block
#MNEM.UNIT                     Data                         Information
#----------   ------------------------------------------   ----------------
 STRT.M                                      1800.0000:     START DEPTH
 STOP.M                                      2299.8720:     STOP DEPTH
 STEP.M                                         0.1524:     STEP
 NULL.                                       -999.2500:     NULL VALUE
 COMP.                                        Alphabow:     COMPANY
 WELL.                   ABE PINE CK 6-21-56-19 #97328:     WELL
 FLD .                                      Pine Creek:     FIELD
 LOC .                           100/06-21-056-19W5/00:     LOCATION
 CNTY.                                                :     COUNTY
 STAT.                                         Alberta:     STATE
 CTRY.                                          Canada:     COUNTRY
 SRVC.                                                :     SERVICE COMPANY
 DATE.                                      03/28/2025:     DATE
 API .                                100062105619W500:     API NUMBER
 UWI .                                100062105619W500:     UWI NUMBER
 TVD .                                              NO:     TVD flag
 WSTA.                                             LOC:     Well status
#
~Curve Information Block
#MNEM.UNIT       API CODE      Curve Description
#----------    -------------   -------------------
 DEPT.M                    :   Depth in Meters
 GR  .GAPI     35 310 01 01:   Gamma Ray
 CALI.mm       70 280 01 01:   Caliper
 RHOB.kg/m3     42 350 01 01:   Bulk Density
#
~Parameter Information Block
#MNEM.UNIT            Value               Description
#----------    --------------------    -------------------
 RUN .                         ONE:    Run Number
 PDAT.                         UNK:    Permanent Datum
 EPD .M                 -9999.5000:    Elevation Of Perm. Datum
 TD  .M                  2300.0000:    Total Depth
 WSTA.                         LOC:    
 LATB.M                     0.0000:    
 LONB.M                     0.0000:    
#
~Other Information Block
<DescLogPlotStart>   NEURALOG PLOT DEFINITION
PLOTDEFVERSION: 3
LASFILE: C:\Users\wadet\Desktop\Alphabow Evaluation\well_info\second_white_spec
DEPTHSCALE: 600.000000
RESOLUTION: 200
DEPTHLABELFREQ: 100.000000
HEAVYGRIDFREQ: 50.000000
MEDIUMGRIDFREQ: 25.000000
LIGHTGRIDFREQ: 25.000000
#
#   TRACK 1
#
STARTTRACK: 
 LEFTX: 0.500000 inch
 RIGHTX: 3.000000 inch
 SCALETYPE: Linear
 NUMCHARTDIVISIONS: 10
CURVE: GR    0.000000   150.000000 (0,0,255)      Solid             2     N    
CURVE: CALI  125.000000 375.000000 (0,131,131)    Dot               2     N    
ENDTRACK: 
#
#   TRACK 2
#
STARTTRACK: 
 LEFTX: 3.500000 inch
 RIGHTX: 8.500000 inch
 SCALETYPE: Linear
 NUMCHARTDIVISIONS: 17
CURVE: RHOB  2000.000000 3000.000000 (255,0,255)    Solid             2     N  
ENDTRACK: 
<DescLogPlotEnd>
~A DEPTH     GR               CALI             RHOB            
# ...
   2142.9000 115.76087359     222.80388975     2621.82504711   
   2143.0524 115.77776959     223.10098339     2627.87926996   
   2143.2048 116.05999810     224.15972989     2632.12865465   
   2143.3572 115.47894825     224.11771854     2636.12356936   
   2143.5096 113.63206545     223.14150829     2635.23213984   
   2143.6620 112.14371450     223.10773100     2629.94345134   
   2143.8144 112.41829159     223.13792225     2626.99649110   
   2143.9668 112.75012511     223.11044692     2626.86198491   
   2144.1192 112.11048895     223.13485786     2633.18485602   
   2144.2716 110.61620099     223.11370765     2641.29406955   
   2144.4240 109.06630508     223.13298387     2644.51558373   
   2144.5764 108.78903228     223.11488966     2641.29485168   
   2144.7288 110.28333651     223.13254183     2636.24636709   
   2144.8812 111.52293903     223.11459195     2635.11228458   
   2145.0336 112.64681590     223.13267399     2625.92520194   
   2145.1860 113.86626001     223.11410101     2618.80602082   
   2145.3384 114.23261933     223.13352943     2611.60968700   
   2145.4908 113.03437202     223.61965973     2604.25142636   
   2145.6432 112.11251492     224.14895774     2605.30442727   
   2145.7956 113.33949994     223.61996890     2609.43434045   
   2145.9480 116.06597378     223.13556708     2614.56932609   
   2146.1004 117.28655906     223.61847125     2620.77406834   
   2146.2528 116.67778219     223.13479648     2627.94959427   
   2146.4052 114.85573650     223.11342784     2630.05689866   
   2146.5576 111.21346618     223.13307929     2628.99830856   
   2146.7100 108.47037664     223.11548753     2626.97656329   
   2146.8624 107.87225891     223.13078947     2622.83139219   
   2147.0148 108.46566459     223.11788447     2612.52503984   
   2147.1672 108.48605449     223.12841158     2606.33930360   
   2147.3196 106.64080613     223.12012157     2606.32329217   
   2147.4720 104.54092919     223.12642540     2609.42210303   
   2147.6244 102.38477795     223.12176475     2614.54433963   
   2147.7768 102.41702353     223.12519406     2617.65799009   
   2147.9292 105.11456928     223.12339976     2623.81483946   
   2148.0816 107.88495369     224.13814602     2627.96029591   
   2148.2340 111.19234567     224.13518698     2634.13437403   
   2148.3864 112.39873353     223.12533311     2634.13728149   
   2148.5388 113.32198675     223.12242408     2632.07708426   
   2148.6912 114.56993472     223.12547022     2636.88047042   
   2148.8436 115.75464700     223.12165131     2640.33991843   
   2148.9960 115.77767810     223.12605357     2644.43724673   
   2149.1484 115.14611965     223.12128296     2644.47036154   
   2149.3008 114.85839551     223.12619376     2639.28414758   
   2149.4532 114.84227687     223.12137102     2631.06450029   
   2149.6056 114.85298072     223.12589020     2628.98693874   
   2149.7580 113.93333001     223.12186551     2625.92252242   
   2149.9104 113.03000763     223.12523950     2621.79058930   
   2150.0628 112.67573685     223.12262990     2624.44455432   
   2150.2152 112.39553581     223.12440899     2626.70547514   
   2150.3676 112.11270515     223.12347689     2628.99870607   
   2150.5200 112.43571662     223.12530912     2628.96371934   
   2150.6724 112.41770044     223.12373225     2626.96024975   
   2150.8248 112.44155227     223.12373225     2615.87849422   
   2150.9772 113.02065974     223.12373225     2608.46379206   
   2151.1296 114.57023449     223.12373225     2615.55304025   
   2151.2820 115.75458919     223.12373225     2622.94122048   
   2151.4344 114.87778965     223.12373225     2628.91876185   
   2151.5868 113.34112633     223.12373225     2633.24837342   
   2151.7392 109.71585618     223.12373225     2637.11105901   
   2151.8916 108.77799732     223.12373225     2645.64685638   
   2152.0440 110.62060496     223.12373225     2655.64635001   
   2152.1964 113.33691993     223.12373225     2659.03861636   
   2152.3488 115.47200094     223.12373225     2657.70102043   
   2152.5012 116.68526699     223.12373225     2643.55714769   
   2152.6536 117.89305446     223.12373225     2628.88669629   
   2152.8060 118.21134019     223.12369748     2610.54677907   
   2152.9584 118.79628174     223.12369764     2609.36150956   
   2153.1108 118.52186262     223.12364883     2620.79352607   
   2153.2632 116.96259181     223.12367095     2636.18753912   
   2153.4156 115.18692852     223.12359272     2648.53916919   
   2153.5680 115.13312321     223.12365078     2652.73885455   
   2153.7204 117.32421484     223.12353144     2655.71637097   
   2153.8728 120.89943311     223.12363409     2649.70034633   
   2154.0252 124.31734973     223.12346866     2643.32149811   
   2154.1776 125.44506271     223.12361678     2639.43054376   
   2154.3300 124.02224007     223.12340866     2644.35377637   
   2154.4824 122.70665539     223.12359461     2642.54384259   
   2154.6348 121.60815833     223.12335538     2636.12292065   
   2154.7872 121.79044812     223.12356415     2631.18955589   
   2154.9396 120.91983866     223.12331155     2631.99392862   
   2155.0920 120.54269868     223.10119224     2633.34235783   
   2155.2444 120.41382511     223.07510197     2634.52738753   
   2155.3968 119.34521002     223.04945234     2636.27068499   
   2155.5492 117.38060328     223.02338811     2632.04006840   
   2155.7016 116.29732301     222.99770469     2626.99023244   
   2155.8540 114.95322715     222.97168031     2626.90898498   
   2156.0064 116.60092235     222.94595292     2629.03315964   
   2156.1588 117.99619632     222.91997451     2628.98364092   
   2156.3112 119.03582738     222.89420133     2627.98450631   
   2156.4636 119.81937329     222.86826644     2630.01449549   
   2156.6160 121.46798821     222.84245388     2632.09987650   
   2156.7684 121.93699158     222.81655267     2634.15439583   
   2156.9208 124.51015206     222.79071334     2635.19901488   
   2157.0732 124.96613262     222.76483121     2633.13230467   
   2157.2256 124.82729856     222.73898078     2629.03231947   
   2157.3780 125.87031103     222.71310194     2626.97586972   
   2157.5304 126.05701149     222.68721762     2630.05785092   
   2157.6828 124.94525828     222.66133330     2634.17179410   
   2157.8352 123.94140000     222.63544899     2635.18487405   
   2157.9876 122.49736474     222.60956467     2628.98813133   
   2158.1400 123.64945794     222.58368035     2618.66765909   
   2158.2924 125.22082856     222.55779604     2612.49742012   
   2158.4448 125.49184463     222.53191172     2611.46132373   
   2158.5972 124.60893895     222.50602740     2611.48829534   
   2158.7496 122.77165795     222.48014309     2613.53301107   
   2158.9020 120.65282245     222.45425877     2616.64879409   
   2159.0544 119.43501380     222.42837445     2620.73315203   
   2159.2068 119.43431278     222.40249014     2631.05637234   
   2159.3592 119.74204150     222.37660582     2640.30088761   
   2159.5116 122.47287314     222.35072150     2656.80362137   
   2159.6640 125.51104823     222.32483719     2673.27656565   
   2159.8164 127.64192757     222.29895287     2667.08335255   
   2159.9688 127.09869304     222.27306855     2655.27600079   
   2160.1212 126.61343808     222.24718424     2637.55400468   
   2160.2736 126.09915452     222.22129992     2619.91232555   
   2160.4260 125.82872192     222.19541560     2607.29254415   
   2160.5784 129.13315663     222.16953129     2601.17751402   
   2160.7308 131.91779942     222.14364697     2608.28914816   
   2160.8832 135.20518898     222.11776265     2617.66155993   
   2161.0356 137.08704742     222.09187834     2629.92231424   
   2161.1880 136.41044599     222.06599402     2630.03317268   
   2161.3404 134.95838117     222.04010970     2620.67661074   
   2161.4928 133.97636673     222.01422539     2607.36308824   
   2161.6452 133.13859234     221.98834107     2596.99796275   
   2161.7976 132.45994742     221.96245676     2596.02934161   
