~Version Information Block
 VERS.                2.00:     CWLS LOG ASCII STANDARD - VERSION 2.000000
 WRAP.                  NO:     One Line Per Depth Step
#
~Well Information Block
#MNEM.UNIT                     Data                         Information
#----------   ------------------------------------------   ----------------
 STRT.M                                      1800.0000:     START DEPTH
 STOP.M                                      2299.8720:     STOP DEPTH
 STEP.M                                         0.1524:     STEP
 NULL.                                       -999.2500:     NULL VALUE
 COMP.                                        Alphabow:     COMPANY
 WELL.                   ABE PINE CK 6-21-56-19 #97328:     WELL
 FLD .                                      Pine Creek:     FIELD
 LOC .                           100/06-21-056-19W5/00:     LOCATION
 CNTY.                                                :     COUNTY
 STAT.                                         Alberta:     STATE
 CTRY.                                          Canada:     COUNTRY
 SRVC.                                                :     SERVICE COMPANY
 DATE.                                      03/28/2025:     DATE
 API .                                100062105619W500:     API NUMBER
 UWI .                                100062105619W500:     UWI NUMBER
 TVD .                                              NO:     TVD flag
 WSTA.                                             LOC:     Well status
#
~Curve Information Block
#MNEM.UNIT       API CODE      Curve Description
#----------    -------------   -------------------
 DEPT.M                    :   Depth in Meters
 GR  .GAPI     35 310 01 01:   Gamma Ray
 CALI.mm       70 280 01 01:   Caliper
 RHOB.kg/m3     42 350 01 01:   Bulk Density
#
~Parameter Information Block
#MNEM.UNIT            Value               Description
#----------    --------------------    -------------------
 RUN .                         ONE:    Run Number
 PDAT.                         UNK:    Permanent Datum
 EPD .M                 -9999.5000:    Elevation Of Perm. Datum
 TD  .M                  2300.0000:    Total Depth
 WSTA.                         LOC:    
 LATB.M                     0.0000:    
 LONB.M                     0.0000:    
#
~Other Information Block
<DescLogPlotStart>   NEURALOG PLOT DEFINITION
PLOTDEFVERSION: 3
LASFILE: C:\Users\wadet\Desktop\Alphabow Evaluation\well_info\second_white_spec
DEPTHSCALE: 600.000000
RESOLUTION: 200
DEPTHLABELFREQ: 100.000000
HEAVYGRIDFREQ: 50.000000
MEDIUMGRIDFREQ: 25.000000
LIGHTGRIDFREQ: 25.000000
#
#   TRACK 1
#
STARTTRACK: 
 LEFTX: 0.500000 inch
 RIGHTX: 3.000000 inch
 SCALETYPE: Linear
 NUMCHARTDIVISIONS: 10
CURVE: GR    0.000000   150.000000 (0,0,255)      Solid             2     N    
CURVE: CALI  125.000000 375.000000 (0,131,131)    Dot               2     N    
ENDTRACK: 
#
#   TRACK 2
#
STARTTRACK: 
 LEFTX: 3.500000 inch
 RIGHTX: 8.500000 inch
 SCALETYPE: Linear
 NUMCHARTDIVISIONS: 17
CURVE: RHOB  2000.000000 3000.000000 (255,0,255)    Solid             2     N  
ENDTRACK: 
<DescLogPlotEnd>
~A DEPTH     GR               CALI             RHOB            
# ...
   2047.6500 107.53250840     227.25028257     2604.20036431   
   2047.8024 107.57242956     227.16883302     2610.47376154   
   2047.9548 105.70770454     227.08738649     2625.84054724   
   2048.1072 105.44141486     227.00594204     2648.63368967   
   2048.2596 105.70933196     226.92448487     2662.96553022   
   2048.4120 106.65468796     226.84297496     2663.05934092   
   2048.5644 109.05413296     226.76146506     2648.51809939   
   2048.7168 109.52695802     226.67995515     2626.98716505   
   2048.8692 109.33377689     226.59844525     2612.44344645   
   2049.0216 109.39588230     226.51693534     2599.12211469   
   2049.1740 109.60470450     226.43542543     2598.01384424   
   2049.3264 110.31537656     226.35391553     2602.19273765   
   2049.4788 110.79241122     226.27240562     2606.28649201   
   2049.6312 110.96247851     226.19089571     2606.25626054   
   2049.7836 110.77026899     226.10938581     2605.28936051   
   2049.9360 110.34806306     226.02787590     2605.44107895   
   2050.0884 107.26463979     225.94636600     2605.99277457   
   2050.2408 103.97458742     225.86485609     2606.06806985   
   2050.3932 103.79265542     225.78334618     2606.77708303   
   2050.5456 103.97890551     225.70183628     2606.73062671   
   2050.6980 103.79485020     225.62032637     2607.55487893   
   2050.8504 103.97560951     225.53881646     2607.36757539   
   2051.0028 111.40058286     225.45730656     2608.19939019   
   2051.1552 98.18301053      225.37579665     2608.03939512   
   2051.3076 87.54463473      225.29428675     2576.56194503   
   2051.4600 77.15356221      225.21277684     2565.84801940   
   2051.6124 66.16727052      225.13126693     2550.74599135   
   2051.7648 65.92150676      225.04975703     2544.33010568   
   2051.9172 71.36439998      224.96824712     2548.54725455   
   2052.0696 78.65851610      224.88673721     2554.76649444   
   2052.2220 79.74628789      224.80522731     2552.00671549   
   2052.3744 78.94046590      224.72371740     2544.62104900   
   2052.5268 72.02260182      224.64220750     2538.97968005   
   2052.6792 66.76669093      224.56069759     2531.35890935   
   2052.8316 65.95621907      224.47918768     2531.69624864   
   2052.9840 68.58719367      224.39767778     2532.50928137   
   2053.1364 68.39005372      224.31616787     2519.32259775   
   2053.2888 64.03820950      224.23465796     2469.65012877   
   2053.4412 60.18873632      224.15314806     2484.30756315   
   2053.5936 63.42842893      224.07163815     2494.95430026   
   2053.7460 66.77783414      223.99012825     2513.21793172   
   2053.8984 70.41473230      223.90861834     2541.57550625   
   2054.0508 72.30573726      223.82710843     2545.28070046   
   2054.2032 72.54838817      223.74559853     2537.31935584   
   2054.3556 73.51986239      223.66408862     2525.88145686   
   2054.5080 74.07835848      223.58257871     2523.81814023   
   2054.6604 77.16240393      223.50106881     2531.14884239   
   2054.8128 81.98281819      223.41955890     2536.06197615   
   2054.9652 84.14783473      223.33804900     2540.36033632   
   2055.1176 85.90844528      223.25653909     2569.90706377   
   2055.2700 87.78924762      223.17502918     2598.87561882   
   2055.4224 90.18504179      223.09351928     2628.88165398   
   2055.5748 94.47262934      223.01200937     2625.65841888   
   2055.7272 99.90563782      222.93049946     2622.00660098   
   2055.8796 102.36966100     222.84898956     2618.58908848   
   2056.0320 101.88700597     222.76747965     2615.01260359   
   2056.1844 100.85852774     222.68596975     2611.52243571   
   2056.3368 100.83670675     222.60445984     2607.32662228   
   2056.4892 100.25365902     222.52294993     2624.43833689   
   2056.6416 98.70777905      222.44144003     2645.98540194   
   2056.7940 96.60200313      222.35993012     2667.31501045   
   2056.9464 95.05498102      222.27842021     2662.02643962   
   2057.0988 95.08393342      222.19691031     2652.58510603   
   2057.2512 95.66357649      222.11540040     2640.39204399   
   2057.4036 96.00231823      222.03389050     2629.77712051   
   2057.5560 95.35408838      221.95238059     2626.05782093   
   2057.7084 95.40358325      221.87087068     2623.64788242   
   2057.8608 96.56920686      221.78936078     2620.90801037   
   2058.0132 97.54324146      221.70785087     2619.52378509   
   2058.1656 99.91580754      221.62634096     2618.80055841   
   2058.3180 102.71652765     221.54483106     2616.46014185   
   2058.4704 106.29333439     221.46332115     2614.64210603   
   2058.6228 109.40138874     221.38181125     2613.41414602   
   2058.7752 110.54754629     221.30030675     2601.20018331   
   2058.9276 107.88153618     221.22207103     2599.06306203   
   2059.0800 103.25816798     221.14003849     2597.05514294   
   2059.2324 97.85047137      221.06083922     2598.11848909   
   2059.3848 94.75613603      220.97611695     2601.10877823   
   2059.5372 92.37763718      220.89521212     2608.46579763   
   2059.6896 91.42309390      220.81251591     2611.31858817   
   2059.8420 92.06897345      220.73204492     2612.66419512   
   2059.9944 92.69357847      220.65094726     2619.51812060   
   2060.1468 93.60151751      220.56832958     2602.14993879   
   2060.2992 94.46452047      220.49358382     2589.61083827   
   2060.4516 95.36200719      220.40139057     2577.66904498   
   2060.6040 96.23596808      220.33568900     2579.30695171   
   2060.7564 97.12672107      220.22878549     2583.80722590   
   2060.9088 98.00958937      220.17972848     2589.64845642   
   2061.0612 98.89025811      220.06112963     2596.12510620   
   2061.2136 99.77437366      222.13624183     2596.91547674   
   2061.3660 100.64552504     224.10168172     2600.17661117   
   2061.5184 101.53427213     224.68104169     2601.10827760   
   2061.6708 102.39864762     224.59819403     2598.06846565   
   2061.8232 103.29789563     222.15985608     2596.00657938   
   2061.9756 104.15167855     222.05237479     2598.02324475   
   2062.1280 105.06267959     222.16966233     2602.22547652   
   2062.2804 105.90750755     222.04250781     2610.37440075   
   2062.4328 106.83410554     223.19139788     2618.74276150   
   2062.5852 107.66627191     224.56722441     2618.59167266   
   2062.7376 108.60534376     224.71683835     2611.50742906   
   2062.8900 109.42531258     224.56175673     2606.21055962   
   2063.0424 110.37520074     222.18760322     2596.04294649   
   2063.1948 112.37645677     222.02911121     2595.91619309   
   2063.3472 111.54193939     222.18550521     2602.24120552   
   2063.4996 110.55000703     222.03303426     2608.30692904   
   2063.6520 110.32990984     222.18276852     2618.70988009   
   2063.8044 111.46210714     224.06883977     2623.78843688   
   2063.9568 113.06480433     224.70618864     2621.79737631   
   2064.1092 114.19630192     224.58925328     2615.55006848   
   2064.2616 113.67247025     222.15871357     2608.37842324   
   2064.4140 112.37941506     222.06790687     2607.30296445   
   2064.5664 111.54764830     222.14341265     2611.45777480   
   2064.7188 112.68982693     222.08323586     2617.62362321   
   2064.8712 113.67500852     223.14390812     2620.74575338   
   2065.0236 114.38918293     222.90394558     2618.84888392   
   2065.1760 115.30471875     222.70110137     2616.83180327   
   2065.3284 115.73770493     222.46320740     2614.54009483   
   2065.4808 114.88795096     222.24037938     2610.42065796   
   2065.6332 113.91759036     222.10865320     2610.42157983   
   2065.7856 112.44978153     222.11050987     2614.54201255   
   2065.9380 112.39407225     222.10662876     2619.70873686   
   2066.0904 112.74555130     222.11611297     2625.87269348   
   2066.2428 112.09064983     222.10115050     2630.02426225   
   2066.3952 110.91923047     224.66252102     2628.94194335   
   2066.5476 110.87456502     224.62037345     2621.79713124   
