~Version Information Block
 VERS.                2.00:     CWLS LOG ASCII STANDARD - VERSION 2.000000
 WRAP.                  NO:     One Line Per Depth Step
#
~Well Information Block
#MNEM.UNIT                     Data                         Information
#----------   ------------------------------------------   ----------------
 STRT.M                                      1800.0000:     START DEPTH
 STOP.M                                      2299.8720:     STOP DEPTH
 STEP.M                                         0.1524:     STEP
 NULL.                                       -999.2500:     NULL VALUE
 COMP.                                        Alphabow:     COMPANY
 WELL.                   ABE PINE CK 6-21-56-19 #97328:     WELL
 FLD .                                      Pine Creek:     FIELD
 LOC .                           100/06-21-056-19W5/00:     LOCATION
 CNTY.                                                :     COUNTY
 STAT.                                         Alberta:     STATE
 CTRY.                                          Canada:     COUNTRY
 SRVC.                                                :     SERVICE COMPANY
 DATE.                                      03/28/2025:     DATE
 API .                                100062105619W500:     API NUMBER
 UWI .                                100062105619W500:     UWI NUMBER
 TVD .                                              NO:     TVD flag
 WSTA.                                             LOC:     Well status
#
~Curve Information Block
#MNEM.UNIT       API CODE      Curve Description
#----------    -------------   -------------------
 DEPT.M                    :   Depth in Meters
 GR  .GAPI     35 310 01 01:   Gamma Ray
 CALI.mm       70 280 01 01:   Caliper
 RHOB.kg/m3     42 350 01 01:   Bulk Density
#
~Parameter Information Block
#MNEM.UNIT            Value               Description
#----------    --------------------    -------------------
 RUN .                         ONE:    Run Number
 PDAT.                         UNK:    Permanent Datum
 EPD .M                 -9999.5000:    Elevation Of Perm. Datum
 TD  .M                  2300.0000:    Total Depth
 WSTA.                         LOC:    
 LATB.M                     0.0000:    
 LONB.M                     0.0000:    
#
~Other Information Block
<DescLogPlotStart>   NEURALOG PLOT DEFINITION
PLOTDEFVERSION: 3
LASFILE: C:\Users\wadet\Desktop\Alphabow Evaluation\well_info\second_white_spec
DEPTHSCALE: 600.000000
RESOLUTION: 200
DEPTHLABELFREQ: 100.000000
HEAVYGRIDFREQ: 50.000000
MEDIUMGRIDFREQ: 25.000000
LIGHTGRIDFREQ: 25.000000
#
#   TRACK 1
#
STARTTRACK: 
 LEFTX: 0.500000 inch
 RIGHTX: 3.000000 inch
 SCALETYPE: Linear
 NUMCHARTDIVISIONS: 10
CURVE: GR    0.000000   150.000000 (0,0,255)      Solid             2     N    
CURVE: CALI  125.000000 375.000000 (0,131,131)    Dot               2     N    
ENDTRACK: 
#
#   TRACK 2
#
STARTTRACK: 
 LEFTX: 3.500000 inch
 RIGHTX: 8.500000 inch
 SCALETYPE: Linear
 NUMCHARTDIVISIONS: 17
CURVE: RHOB  2000.000000 3000.000000 (255,0,255)    Solid             2     N  
ENDTRACK: 
<DescLogPlotEnd>
~A DEPTH     GR               CALI             RHOB            
# ...
   1952.4000 111.19750284     228.17167040     2608.56544550   
   1952.5524 113.35084471     228.14261844     2617.45683239   
   1952.7048 115.45435987     228.13612295     2627.08681000   
   1952.8572 116.38970322     228.12801656     2625.71483577   
   1953.0096 116.06717168     228.12062402     2616.74098998   
   1953.1620 116.08107508     228.11328860     2606.17022934   
   1953.3144 117.59282516     228.10591121     2598.18235549   
   1953.4668 118.19901011     228.09856351     2599.00018745   
   1953.6192 118.81172371     228.09119516     2603.32773151   
   1953.7716 119.40170368     228.08384184     2606.23660891   
   1953.9240 119.11850122     228.07647571     2611.56327779   
   1954.0764 118.47997625     228.06911021     2614.48645780   
   1954.2288 119.12473703     228.06174471     2614.65419870   
   1954.3812 119.38526809     228.05437922     2616.19310633   
   1954.5336 117.30477165     228.04701372     2615.67010793   
   1954.6860 115.12568963     228.03964822     2612.39507681   
   1954.8384 111.83959968     228.03228272     2613.62371675   
   1954.9908 111.57515660     228.02491722     2620.67454345   
   1955.1432 112.21617036     228.01755172     2620.88426795   
   1955.2956 112.69078459     228.01018622     2620.70419566   
   1955.4480 114.26239916     228.00282072     2620.92798714   
   1955.6004 115.42341980     227.99545522     2622.78315076   
   1955.7528 115.47118292     227.98808972     2623.97101506   
   1955.9052 115.12882583     227.98072422     2621.70635360   
   1956.0576 114.25068406     227.97335872     2617.73772255   
   1956.2100 113.30437949     227.96599322     2619.61468548   
   1956.3624 112.11811105     227.95862772     2620.84333922   
   1956.5148 110.88001838     227.95126222     2618.56374574   
   1956.6672 109.38322313     227.94389672     2616.71829265   
   1956.8196 107.84693856     227.93653122     2615.44931340   
   1956.9720 106.95031020     227.92916572     2615.71959501   
   1957.1244 106.93793341     227.92180022     2622.63576854   
   1957.2768 104.51978743     227.91443472     2642.53876967   
   1957.4292 101.16921800     227.90706922     2661.65035418   
   1957.5816 98.42452419      227.89970372     2682.75190587   
   1957.7340 95.39446369      227.89233822     2722.58955201   
   1957.8864 92.97955551      227.88497272     2742.53454628   
   1958.0388 90.83154695      227.87760722     2735.99559607   
   1958.1912 89.95319818      227.87024172     2693.05876838   
   1958.3436 87.78882909      227.86287622     2648.40854647   
   1958.4960 85.40588661      227.85551072     2630.16739093   
   1958.6484 84.43333754      227.84814522     2626.79398957   
   1958.8008 85.10477223      227.84077972     2619.83240324   
   1958.9532 87.15233012      227.83341423     2614.46399696   
   1959.1056 88.45351277      227.82604873     2611.55703064   
   1959.2580 91.09344861      227.81868323     2609.37625576   
   1959.4104 93.62599893      227.81131773     2608.55396422   
   1959.5628 98.07522768      227.80395223     2608.38429207   
   1959.7152 101.22111408     227.79658673     2610.65010076   
   1959.8676 102.62772241     227.78922123     2613.51302818   
   1960.0200 102.10248170     227.78185573     2616.00638692   
   1960.1724 100.38475311     227.77449023     2617.95309038   
   1960.3248 98.47962622      227.76712473     2621.18071322   
   1960.4772 98.98117616      227.75975923     2620.53516199   
   1960.6296 100.89964811     227.75239373     2623.17334480   
   1960.7820 102.32101790     227.74502823     2623.43321250   
   1960.9344 100.28376054     227.73766273     2623.26542530   
   1961.0868 96.85674667      227.73029723     2623.33046200   
   1961.2392 94.51038923      227.72293173     2628.50815819   
   1961.3916 94.73454510      227.71556623     2633.56089471   
   1961.5440 96.33595713      227.70820073     2657.41919351   
   1961.6964 97.77844007      227.70083523     2748.98932945   
   1961.8488 97.86279658      227.69346973     2754.32978758   
   1962.0012 98.08887117      227.68610423     2754.17089703   
   1962.1536 99.69067920      227.67873873     2746.28995825   
   1962.3060 101.73356689     227.67137323     2762.48896770   
   1962.4584 103.94166158     227.66400773     2761.41034703   
   1962.6108 104.76861411     227.65664223     2721.33970176   
   1962.7632 102.42122450     227.64927673     2682.58265567   
   1962.9156 100.21368367     227.64191123     2642.41597800   
   1963.0680 97.55957279      227.63454573     2614.77656975   
   1963.2204 97.78486580      227.62718023     2614.36980237   
   1963.3728 98.76291832      227.61981473     2619.81864538   
   1963.5252 98.99304343      227.61244924     2623.74043322   
   1963.6776 98.75447064      227.60508374     2624.90803483   
   1963.8300 99.60506843      227.59771824     2621.74151533   
   1963.9824 101.18833709     227.59035274     2623.87218317   
   1964.1348 102.95067931     227.58298724     2629.06998276   
   1964.2872 103.91963121     227.57562174     2634.18169041   
   1964.4396 102.94612392     227.56825624     2634.23622527   
   1964.5920 102.09862102     227.56089074     2633.15253022   
   1964.7444 100.51338055     227.55352524     2628.07289254   
   1964.8968 100.58937775     227.54615974     2621.02929163   
   1965.0492 102.03296576     227.53879424     2613.44917775   
   1965.2016 101.45811628     227.53142874     2605.78307314   
   1965.3540 100.76153207     227.52406324     2598.09593544   
   1965.5064 98.16828814      227.51669774     2593.93065909   
   1965.6588 95.04286490      227.50933224     2589.82210041   
   1965.8112 91.18687483      227.50196674     2588.80178684   
   1965.9636 90.48633361      227.49460124     2593.92005957   
   1966.1160 91.18508678      227.48723574     2596.03015106   
   1966.2684 93.22069574      227.47987024     2594.92667291   
   1966.4208 93.91917988      227.47250474     2595.01861292   
   1966.5732 91.40625400      227.46513924     2598.02193036   
   1966.7256 89.36168125      227.45777374     2606.36048693   
   1966.8780 87.15545076      227.45040824     2615.54048538   
   1967.0304 85.70918056      227.44304274     2619.76020501   
   1967.1828 87.45875856      227.43567724     2626.91221331   
   1967.3352 89.95707076      227.42831174     2628.01542720   
   1967.4876 93.53878962      227.42094624     2626.93687191   
   1967.6400 96.03000199      227.41358074     2622.85511973   
   1967.7924 98.10036659      227.40621524     2618.71418248   
   1967.9448 100.27817958     227.39884974     2615.64972681   
   1968.0972 102.04954533     227.39148425     2608.36079826   
   1968.2496 102.39575093     227.38411875     2605.31699275   
   1968.4020 101.74990853     227.37675325     2600.06039916   
   1968.5544 99.96349214      227.36938775     2599.14088149   
   1968.7068 99.93480714      227.36202225     2601.02210896   
   1968.8592 101.78447207     227.35465675     2603.33287129   
   1969.0116 102.66727654     227.34729125     2602.00441896   
   1969.1640 102.68947648     227.33992575     2600.33875725   
   1969.3164 101.44678944     227.33256025     2610.21286566   
   1969.4688 100.25597122     227.32519475     2632.35170127   
   1969.6212 99.01372969      227.31782925     2656.59045400   
   1969.7736 98.13740056      227.31046375     2669.65999557   
   1969.9260 99.09249618      227.30309825     2681.64927761   
   1970.0784 100.60328977     227.29573275     2694.60482629   
   1970.2308 102.35177153     227.28758292     2709.16849771   
   1970.3832 103.01771021     227.27956335     2679.66304640   
   1970.5356 103.25579401     227.27199184     2653.55018491   
   1970.6880 104.23852607     227.26405767     2629.58932887   
   1970.8404 104.76454692     227.26213993     2604.14751970   
   1970.9928 105.15257676     227.24978896     2596.04474876   
   1971.1452 105.97661684     227.25135551     2601.13699810   
   1971.2976 105.15831333     227.23159928     2611.77321223   
