~Version Information Block
 VERS.                2.00:     CWLS LOG ASCII STANDARD - VERSION 2.000000
 WRAP.                  NO:     One Line Per Depth Step
#
~Well Information Block
#MNEM.UNIT                     Data                         Information
#----------   ------------------------------------------   ----------------
 STRT.M                                      1900.0000:     START DEPTH
 STOP.M                                      2299.8976:     STOP DEPTH
 STEP.M                                         0.1524:     STEP
 NULL.                                       -999.2500:     NULL VALUE
 COMP.                                        Alphabow:     COMPANY
 WELL.                   SOC PINE CK 6-21-56-19 #97328:     WELL
 FLD .                                                :     FIELD
 LOC .                                                :     LOCATION
 CNTY.                                                :     COUNTY
 STAT.                                                :     STATE
 CTRY.                                                :     COUNTRY
 SRVC.                                                :     SERVICE COMPANY
 DATE.                                      03/29/2025:     DATE
 API .                                100062105619W500:     API NUMBER
 UWI .                                100062105619W500:     UWI NUMBER
 TVD .                                              NO:     TVD flag
 WSTA.                                             LOC:     Well status
#
~Curve Information Block
#MNEM.UNIT       API CODE      Curve Description
#----------    -------------   -------------------
 DEPT.M                    :   Depth in Meters
 SP  .MV       01 010 01 01:   Spontaneous Potential
 SFLU.OHMM     10 220 01 01:   SFL Resistivity (Unaveraged)
 ILD .OHMM     05 120 46 01:   Deep Induction Standard Processed Resistivity
#
~Parameter Information Block
#MNEM.UNIT            Value               Description
#----------    --------------------    -------------------
 RUN .                         ONE:    Run Number
 PDAT.                         UNK:    Permanent Datum
 EPD .M                 -9999.5000:    Elevation Of Perm. Datum
 WSTA.                         LOC:    
 E   .M                 -9999.5000:    E (Stretch Coefficient Of The Cable)
 TD  .M                  2300.0000:    Total Depth
#
~Other Information Block
<DescLogPlotStart>   NEURALOG PLOT DEFINITION
PLOTDEFVERSION: 3
LASFILE: C:\Users\wadet\Desktop\Alphabow Evaluation\well_info\second_white_spec
DEPTHSCALE: 240.000000
RESOLUTION: 200
DEPTHLABELFREQ: 50.000000
HEAVYGRIDFREQ: 50.000000
MEDIUMGRIDFREQ: 25.000000
LIGHTGRIDFREQ: 5.000000
#
#   TRACK 1
#
STARTTRACK: 
 LEFTX: 0.500000 inch
 RIGHTX: 3.000000 inch
 SCALETYPE: Linear
 NUMCHARTDIVISIONS: 10
CURVE: SP    0.000000   150.000000 (0,0,255)      Solid             2     N    
ENDTRACK: 
#
#   TRACK 2
#
STARTTRACK: 
 LEFTX: 3.500000 inch
 RIGHTX: 8.500000 inch
 SCALETYPE: Linear
 NUMCHARTDIVISIONS: 34
CURVE: SFLU  0.200000   2000.000000 (0,131,131)    Solid             2     N   
CURVE: ILD   0.200000   2000.000000 (255,0,255)    Dot               2     N   
ENDTRACK: 
<DescLogPlotEnd>
~A DEPTH     SP               SFLU             ILD             
# ...
   2261.9500 -999.25000000    896.35493491     826.73230360    
   2262.1024 -999.25000000    896.45281342     824.96195380    
   2262.2548 -999.25000000    894.20541579     824.59097319    
   2262.4072 -999.25000000    893.91231106     826.18885510    
   2262.5596 -999.25000000    892.25589716     826.68778245    
   2262.7120 -999.25000000    895.80229283     826.61838091    
   2262.8644 -999.25000000    898.86355292     828.85734550    
   2263.0168 -999.25000000    902.74409010     828.63575260    
   2263.1692 -999.25000000    904.24134495     828.71760644    
   2263.3216 -999.25000000    905.06353599     835.91749078    
   2263.4740 -999.25000000    909.09262497     840.30208864    
   2263.6264 -999.25000000    913.01279184     842.95639960    
   2263.7788 -999.25000000    915.47926326     841.09175556    
   2263.9312 -999.25000000    918.92969282     841.35434062    
   2264.0836 -999.25000000    921.08188640     843.47973517    
   2264.2360 -999.25000000    920.91721297     844.41443837    
   2264.3884 -999.25000000    919.40624108     845.24824467    
   2264.5408 -999.25000000    918.92839811     846.08293432    
   2264.6932 -999.25000000    918.73919581     846.97126791    
   2264.8456 -999.25000000    921.02425572     847.11791320    
   2264.9980 -999.25000000    926.35175825     849.37959791    
   2265.1504 -999.25000000    927.67642897     849.26995955    
   2265.3028 -999.25000000    932.06976643     848.87613134    
   2265.4552 -999.25000000    933.41261110     849.19596762    
   2265.6076 -999.25000000    931.79088341     849.20549039    
   2265.7600 -999.25000000    931.32272964     849.19177194    
   2265.9124 -999.25000000    931.24184673     849.18954455    
   2266.0648 -999.25000000    932.46251592     849.19568583    
   2266.2172 -999.25000000    931.71974222     849.21829006    
   2266.3696 -999.25000000    933.65333754     849.17761802    
   2266.5220 -999.25000000    935.44281975     851.60502723    
   2266.6744 -999.25000000    937.07658765     853.05218091    
   2266.8268 -999.25000000    937.02579802     853.52163093    
   2266.9792 -999.25000000    936.55870342     856.62157001    
   2267.1316 -999.25000000    935.00579253     861.52427608    
   2267.2840 -999.25000000    938.08111186     869.59038303    
   2267.4364 -999.25000000    944.44107142     874.40472512    
   2267.5888 -999.25000000    952.47448540     880.54708951    
   2267.7412 -999.25000000    964.61595375     885.91066335    
   2267.8936 -999.25000000    975.96551173     892.45548352    
   2268.0460 -999.25000000    989.73889994     897.16866208    
   2268.1984 -999.25000000    993.13934352     900.20251318    
   2268.3508 -999.25000000    994.71631755     902.33132940    
   2268.5032 -999.25000000    993.33167262     904.32939777    
   2268.6556 -999.25000000    990.61949691     904.28164104    
   2268.8080 -999.25000000    990.84476647     902.68485680    
   2268.9604 -999.25000000    990.78564097     902.63312693    
   2269.1128 -999.25000000    986.70951258     900.56643852    
   2269.2652 -999.25000000    982.54297397     900.51462485    
   2269.4176 -999.25000000    988.39621361     900.39399207    
   2269.5700 -999.25000000    991.37498344     898.86932523    
   2269.7224 -999.25000000    994.43820271     896.07917857    
   2269.8748 -999.25000000    992.24850868     896.57874315    
   2270.0272 -999.25000000    984.54237260     899.66425513    
   2270.1796 -999.25000000    974.43451745     899.69581284    
   2270.3320 -999.25000000    983.12048429     908.30677890    
   2270.4844 -999.25000000    1009.52008514    910.93295987    
   2270.6368 -999.25000000    1039.53314205    914.23960045    
   2270.7892 -999.25000000    1050.40594763    919.66788861    
   2270.9416 -999.25000000    1051.94404879    924.31878293    
   2271.0940 -999.25000000    1050.96804353    931.19663019    
   2271.2464 -999.25000000    1054.63153223    931.67908607    
   2271.3988 -999.25000000    1054.31694665    933.34325907    
   2271.5512 -999.25000000    1046.63805335    933.91397903    
   2271.7036 -999.25000000    1037.95926480    936.37692845    
   2271.8560 -999.25000000    1042.06767256    941.01601938    
   2272.0084 -999.25000000    1056.39411411    946.01756137    
   2272.1608 -999.25000000    1074.11599036    949.72261264    
   2272.3132 -999.25000000    1083.24274252    952.18044479    
   2272.4656 -999.25000000    1083.51220382    956.23358023    
   2272.6180 -999.25000000    1081.22442113    964.45793123    
   2272.7704 -999.25000000    1081.18246810    972.30234889    
   2272.9228 -999.25000000    1083.59895765    981.13051979    
   2273.0752 -999.25000000    1094.80729360    991.25592279    
   2273.2276 -999.25000000    1109.75650551    1002.42872680   
   2273.3800 -999.25000000    1139.04652820    1008.56703356   
   2273.5324 -999.25000000    1178.38128686    1027.81171152   
   2273.6848 -999.25000000    1202.49079119    1013.45280200   
   2273.8372 -999.25000000    1195.31621083    1018.96048438   
   2273.9896 -999.25000000    1166.57442206    1015.48094083   
   2274.1420 -999.25000000    1158.35461827    1011.72669284   
   2274.2944 -999.25000000    1150.34388728    1003.59042448   
   2274.4468 -999.25000000    1142.53275543    999.00743796    
   2274.5992 -999.25000000    1134.71734386    991.60924021    
   2274.7516 -999.25000000    1126.90154248    987.86424583    
   2274.9040 -999.25000000    1119.06942414    985.54567059    
   2275.0564 -999.25000000    1111.14084923    978.54198139    
   2275.2088 -999.25000000    1100.92050343    969.01647420    
   2275.3612 -999.25000000    1089.63931892    966.15904151    
   2275.5136 -999.25000000    1083.24388855    960.22424597    
   2275.6660 -999.25000000    1076.21133485    953.86896141    
   2275.8184 -999.25000000    1070.43488852    951.91335182    
   2275.9708 -999.25000000    1062.96628357    947.62810809    
   2276.1232 -999.25000000    1058.77389930    946.20042446    
   2276.2756 -999.25000000    1054.43620746    941.04213368    
   2276.4280 -999.25000000    1048.71323845    939.30643070    
   2276.5804 -999.25000000    1044.43123466    933.90362730    
   2276.7328 -999.25000000    1048.18028974    931.21715964    
   2276.8852 -999.25000000    1058.84213046    930.72127284    
   2277.0376 -999.25000000    1071.40128700    924.63984356    
   2277.1900 -999.25000000    1072.18101600    924.90660921    
   2277.3424 -999.25000000    1057.25372263    921.55710986    
   2277.4948 -999.25000000    1035.95955404    921.09436392    
   2277.6472 -999.25000000    1017.71142072    927.14969623    
   2277.7996 -999.25000000    1005.10739381    927.75696512    
   2277.9520 -999.25000000    1008.56766546    940.79338129    
   2278.1044 -999.25000000    1040.13486620    957.10630071    
   2278.2568 -999.25000000    1091.93391631    972.31196764    
   2278.4092 -999.25000000    1132.58969745    985.20254968    
   2278.5616 -999.25000000    1157.67703120    992.44953400    
   2278.7140 -999.25000000    1153.66987796    998.70149085    
   2278.8664 -999.25000000    1145.11284148    1005.52753127   
   2279.0188 -999.25000000    1131.00525178    1008.57263886   
   2279.1712 -999.25000000    1113.69696109    1015.89446979   
   2279.3236 -999.25000000    1107.53582660    1005.94143917   
   2279.4760 -999.25000000    1122.16346293    1001.81958666   
   2279.6284 -999.25000000    1133.21520945    995.45491100    
   2279.7808 -999.25000000    1118.36141707    991.23211286    
   2279.9332 -999.25000000    1097.13324319    992.72725410    
   2280.0856 -999.25000000    1085.17728576    986.99928997    
   2280.2380 -999.25000000    1075.79920863    984.96407795    
   2280.3904 -999.25000000    1084.84106195    978.64872408    
   2280.5428 -999.25000000    1096.85544898    978.45150281    
   2280.6952 -999.25000000    1098.00971646    976.28134080    
   2280.8476 -999.25000000    1097.04639805    976.12993857    
