~Version Information Block
 VERS.                2.00:     CWLS LOG ASCII STANDARD - VERSION 2.000000
 WRAP.                  NO:     One Line Per Depth Step
#
~Well Information Block
#MNEM.UNIT                     Data                         Information
#----------   ------------------------------------------   ----------------
 STRT.M                                      1800.0000:     START DEPTH
 STOP.M                                      2299.8720:     STOP DEPTH
 STEP.M                                         0.1524:     STEP
 NULL.                                       -999.2500:     NULL VALUE
 COMP.                                        Alphabow:     COMPANY
 WELL.                   ABE PINE CK 6-21-56-19 #97328:     WELL
 FLD .                                      Pine Creek:     FIELD
 LOC .                           100/06-21-056-19W5/00:     LOCATION
 CNTY.                                                :     COUNTY
 STAT.                                         Alberta:     STATE
 CTRY.                                          Canada:     COUNTRY
 SRVC.                                                :     SERVICE COMPANY
 DATE.                                      03/28/2025:     DATE
 API .                                100062105619W500:     API NUMBER
 UWI .                                100062105619W500:     UWI NUMBER
 TVD .                                              NO:     TVD flag
 WSTA.                                             LOC:     Well status
#
~Curve Information Block
#MNEM.UNIT       API CODE      Curve Description
#----------    -------------   -------------------
 DEPT.M                    :   Depth in Meters
 GR  .GAPI     35 310 01 01:   Gamma Ray
 CALI.mm       70 280 01 01:   Caliper
 RHOB.kg/m3     42 350 01 01:   Bulk Density
#
~Parameter Information Block
#MNEM.UNIT            Value               Description
#----------    --------------------    -------------------
 RUN .                         ONE:    Run Number
 PDAT.                         UNK:    Permanent Datum
 EPD .M                 -9999.5000:    Elevation Of Perm. Datum
 TD  .M                  2300.0000:    Total Depth
 WSTA.                         LOC:    
 LATB.M                     0.0000:    
 LONB.M                     0.0000:    
#
~Other Information Block
<DescLogPlotStart>   NEURALOG PLOT DEFINITION
PLOTDEFVERSION: 3
LASFILE: C:\Users\wadet\Desktop\Alphabow Evaluation\well_info\second_white_spec
DEPTHSCALE: 600.000000
RESOLUTION: 200
DEPTHLABELFREQ: 100.000000
HEAVYGRIDFREQ: 50.000000
MEDIUMGRIDFREQ: 25.000000
LIGHTGRIDFREQ: 25.000000
#
#   TRACK 1
#
STARTTRACK: 
 LEFTX: 0.500000 inch
 RIGHTX: 3.000000 inch
 SCALETYPE: Linear
 NUMCHARTDIVISIONS: 10
CURVE: GR    0.000000   150.000000 (0,0,255)      Solid             2     N    
CURVE: CALI  125.000000 375.000000 (0,131,131)    Dot               2     N    
ENDTRACK: 
#
#   TRACK 2
#
STARTTRACK: 
 LEFTX: 3.500000 inch
 RIGHTX: 8.500000 inch
 SCALETYPE: Linear
 NUMCHARTDIVISIONS: 17
CURVE: RHOB  2000.000000 3000.000000 (255,0,255)    Solid             2     N  
ENDTRACK: 
<DescLogPlotEnd>
~A DEPTH     GR               CALI             RHOB            
# ...
   2085.7500 107.56155074     223.10733459     2586.72755703   
   2085.9024 107.85021987     223.64463853     2589.78974559   
   2086.0548 108.46326606     224.12879570     2598.08680034   
   2086.2072 108.15942345     221.60755151     2607.31130557   
   2086.3596 107.54467716     221.60585746     2615.63767743   
   2086.5120 106.64807472     221.59322978     2615.57172133   
   2086.6644 106.63161419     221.61785578     2609.46811486   
   2086.8168 106.65672357     221.58061976     2606.30012543   
   2086.9692 105.42293466     221.63132961     2608.41771143   
   2087.1216 102.10813379     224.09732353     2625.87975660   
   2087.2740 101.78154395     224.17836840     2647.56282144   
   2087.4264 101.79454985     223.58165236     2659.88730779   
   2087.5788 102.69439931     221.65739216     2651.65990136   
   2087.7312 106.33927106     222.05014656     2626.91751527   
   2087.8836 108.77614449     222.67843833     2605.27140581   
   2088.0360 109.66950465     222.54972309     2593.94593776   
   2088.1884 109.39180318     223.19095120     2595.98806889   
   2088.3408 108.44289016     224.06439566     2604.27536824   
   2088.4932 107.88603561     224.20657307     2614.54460738   
   2088.6456 108.12904430     223.55189790     2621.81411236   
   2088.7980 109.10883226     221.67734924     2622.79394726   
   2088.9504 110.55076413     221.52722172     2615.63628605   
   2089.1028 112.15257045     221.67736080     2606.28877018   
   2089.2552 115.40777436     222.03476045     2606.36450179   
   2089.4076 118.23059364     222.18114129     2611.43810527   
   2089.5600 118.44092502     224.06825977     2612.58052190   
   2089.7124 114.58193558     224.20388235     2609.39576884   
   2089.8648 112.67959244     224.07525061     2609.51516557   
   2090.0172 110.59100755     222.05237418     2616.63981674   
   2090.1696 108.34367640     221.63839992     2624.85504399   
   2090.3220 106.24251911     221.43479647     2632.89465973   
   2090.4744 104.01015123     221.03792437     2641.11145748   
   2090.6268 103.63267551     220.81903583     2650.59831659   
   2090.7792 104.80820395     220.04677589     2650.62048229   
   2090.9316 104.83112938     220.11984295     2650.64318349   
   2091.0840 104.81758238     220.55463253     2650.54758989   
   2091.2364 104.81814843     221.63496935     2650.71238279   
   2091.3888 104.82845768     221.57018984     2649.41929785   
   2091.5412 105.11411245     221.63403158     2650.77648863   
   2091.6936 106.36084361     221.57279686     2650.39620260   
   2091.8460 106.93977753     221.63104954     2650.84357227   
   2091.9984 105.45722639     224.11208349     2650.37357863   
   2092.1508 105.11376166     224.16011910     2650.87110559   
   2092.3032 103.93667150     223.61339328     2650.39675918   
   2092.4556 105.11211404     221.61602495     2626.10025982   
   2092.6080 107.57482302     222.10079256     2648.38083873   
   2092.7604 110.27554559     222.61888144     2660.10310974   
   2092.9128 111.81827598     222.61483944     2650.56945344   
   2093.0652 110.88633017     222.10478994     2635.22764261   
   2093.2176 108.77918426     219.58085470     2611.49179276   
   2093.3700 106.33421956     220.08052878     2607.31907308   
   2093.5224 104.82910235     220.08777984     2598.17152209   
   2093.6748 103.29658227     221.60167578     2594.88138001   
   2093.8272 102.70247993     221.59903683     2596.17687795   
   2093.9796 103.29518743     221.61119951     2604.12010113   
   2094.1320 106.05016043     221.58740594     2609.61942752   
   2094.2844 109.06295256     221.62424667     2615.45903205   
   2094.4368 111.21772373     224.10962251     2628.16874961   
   2094.5892 112.70583662     224.16580274     2638.17414807   
   2094.7416 112.13559227     223.59219041     2621.97033136   
   2094.8940 111.79640033     222.14472861     2610.33073525   
   2095.0464 110.55562302     221.99320811     2611.28535331   
   2095.1988 109.29424573     221.91924450     2614.16393517   
   2095.3512 108.80155671     221.70783517     2617.42868892   
   2095.5036 109.67327975     221.62742462     2619.64819296   
   2095.6560 110.61751268     224.11337681     2619.74198819   
   2095.8084 111.49403528     224.14177139     2618.63629565   
   2095.9608 111.21848332     222.10540629     2619.69885248   
   2096.1132 110.58342972     221.59355786     2624.81609889   
   2096.2656 110.91027838     221.61946190     2632.04472437   
   2096.4180 111.19038849     221.57598031     2641.31955933   
   2096.5704 110.91138179     221.63617024     2654.72244249   
   2096.7228 110.88791437     221.55994916     2669.16438207   
   2096.8752 113.04310048     220.13092667     2686.70480832   
   2097.0276 115.44667251     220.02923752     2686.69393232   
   2097.1800 117.60463789     220.13893711     2664.03142298   
   2097.3324 118.78746871     222.04660712     2640.28575767   
   2097.4848 118.51600031     222.67245220     2619.72201235   
   2097.6372 118.18016892     222.55329938     2606.25428918   
   2097.7896 117.30201460     222.16142672     2608.38458505   
   2097.9420 117.27629373     221.54736199     2614.49276810   
   2098.0944 115.78034578     220.13028682     2613.55655085   
   2098.2468 115.46090276     220.04161160     2607.28077056   
   2098.3992 115.46419524     219.60839663     2592.95931572   
   2098.5516 114.55646376     221.06756646     2586.68549357   
   2098.7040 112.71504082     221.11150934     2582.66972557   
   2098.8564 110.61830640     221.08310606     2582.59195863   
   2099.0088 109.36101305     220.58972999     2592.99485965   
   2099.1612 109.11151058     218.05992794     2598.97309326   
   2099.3136 110.86614423     218.04204504     2605.38367862   
   2099.4660 112.46421961     218.07317584     2612.51944989   
   2099.6184 113.89700325     218.03041390     2608.41646939   
   2099.7708 113.99263963     217.83677599     2604.22917075   
   2099.9232 115.68659899     217.57211207     2593.71353714   
   2100.0756 117.81430193     217.43827476     2580.78789716   
   2100.2280 119.72447753     217.16169716     2582.91120292   
   2100.3804 120.38294001     217.08071606     2590.21390403   
   2100.5328 119.65996242     218.51992127     2597.62281968   
   2100.6852 117.64627221     218.59933150     2604.87295083   
   2100.8376 116.01805979     218.51954892     2612.28002477   
   2100.9900 113.39304638     218.09389690     2619.55800618   
   2101.1424 112.37621587     218.01524069     2626.95896003   
   2101.2948 113.08253948     218.09283146     2634.24938552   
   2101.4472 112.68170239     218.01536565     2641.65507037   
   2101.5996 109.12206901     218.08769629     2648.99835390   
   2101.7520 106.91452809     218.52315163     2641.75926941   
   2101.9044 106.37719116     218.08496337     2626.53264440   
   2102.0568 106.31589070     218.01981716     2611.11016289   
   2102.2092 106.67173082     218.08105584     2607.62632490   
   2102.3616 109.06283457     218.02345973     2611.13186603   
   2102.5140 111.51736266     217.57017846     2615.01103837   
   2102.6664 113.02502487     217.52200842     2618.45076063   
   2102.8188 112.41501714     217.06776496     2622.40780800   
   2102.9712 111.51583782     217.02212428     2610.63628657   
   2103.1236 113.01590510     216.55938566     2587.97090208   
   2103.2760 115.47836029     216.51535338     2594.78485505   
   2103.4284 117.55759966     217.06658291     2581.76774727   
   2103.5808 117.91270983     217.01758675     2573.17797025   
   2103.7332 116.95534570     217.07166244     2573.55558431   
   2103.8856 113.66489275     216.90784775     2581.44535726   
   2104.0380 110.57678820     216.77609949     2601.32726344   
   2104.1904 107.27456495     216.49595174     2621.62979540   
   2104.3428 105.72370383     216.58042526     2644.58180583   
   2104.4952 106.35029903     216.48761123     2661.82851603   
   2104.6476 105.73976337     216.58709677     2662.07302854   
