~Version Information Block
 VERS.                2.00:     CWLS LOG ASCII STANDARD - VERSION 2.000000
 WRAP.                  NO:     One Line Per Depth Step
#
~Well Information Block
#MNEM.UNIT                     Data                         Information
#----------   ------------------------------------------   ----------------
 STRT.M                                      1900.0000:     START DEPTH
 STOP.M                                      2299.8976:     STOP DEPTH
 STEP.M                                         0.1524:     STEP
 NULL.                                       -999.2500:     NULL VALUE
 COMP.                                        Alphabow:     COMPANY
 WELL.                   SOC PINE CK 6-21-56-19 #97328:     WELL
 FLD .                                                :     FIELD
 LOC .                                                :     LOCATION
 CNTY.                                                :     COUNTY
 STAT.                                                :     STATE
 CTRY.                                                :     COUNTRY
 SRVC.                                                :     SERVICE COMPANY
 DATE.                                      03/29/2025:     DATE
 API .                                100062105619W500:     API NUMBER
 UWI .                                100062105619W500:     UWI NUMBER
 TVD .                                              NO:     TVD flag
 WSTA.                                             LOC:     Well status
#
~Curve Information Block
#MNEM.UNIT       API CODE      Curve Description
#----------    -------------   -------------------
 DEPT.M                    :   Depth in Meters
 SP  .MV       01 010 01 01:   Spontaneous Potential
 SFLU.OHMM     10 220 01 01:   SFL Resistivity (Unaveraged)
 ILD .OHMM     05 120 46 01:   Deep Induction Standard Processed Resistivity
#
~Parameter Information Block
#MNEM.UNIT            Value               Description
#----------    --------------------    -------------------
 RUN .                         ONE:    Run Number
 PDAT.                         UNK:    Permanent Datum
 EPD .M                 -9999.5000:    Elevation Of Perm. Datum
 WSTA.                         LOC:    
 E   .M                 -9999.5000:    E (Stretch Coefficient Of The Cable)
 TD  .M                  2300.0000:    Total Depth
#
~Other Information Block
<DescLogPlotStart>   NEURALOG PLOT DEFINITION
PLOTDEFVERSION: 3
LASFILE: C:\Users\wadet\Desktop\Alphabow Evaluation\well_info\second_white_spec
DEPTHSCALE: 240.000000
RESOLUTION: 200
DEPTHLABELFREQ: 50.000000
HEAVYGRIDFREQ: 50.000000
MEDIUMGRIDFREQ: 25.000000
LIGHTGRIDFREQ: 5.000000
#
#   TRACK 1
#
STARTTRACK: 
 LEFTX: 0.500000 inch
 RIGHTX: 3.000000 inch
 SCALETYPE: Linear
 NUMCHARTDIVISIONS: 10
CURVE: SP    0.000000   150.000000 (0,0,255)      Solid             2     N    
ENDTRACK: 
#
#   TRACK 2
#
STARTTRACK: 
 LEFTX: 3.500000 inch
 RIGHTX: 8.500000 inch
 SCALETYPE: Linear
 NUMCHARTDIVISIONS: 34
CURVE: SFLU  0.200000   2000.000000 (0,131,131)    Solid             2     N   
CURVE: ILD   0.200000   2000.000000 (255,0,255)    Dot               2     N   
ENDTRACK: 
<DescLogPlotEnd>
~A DEPTH     SP               SFLU             ILD             
# ...
   1976.2000 112.27304895     809.92114549     760.79843613    
   1976.3524 112.49295407     813.79010463     758.21536075    
   1976.5048 112.55226252     817.63502071     764.00338994    
   1976.6572 112.90199792     821.48593518     768.26523678    
   1976.8096 112.87301415     825.54233643     770.28802049    
   1976.9620 113.41669014     823.36280959     772.03441515    
   1977.1144 113.15833290     818.70457192     776.10513885    
   1977.2668 113.49259326     814.07294433     783.17452843    
   1977.4192 113.81669786     811.57561776     791.10773491    
   1977.5716 113.85880409     820.20791257     800.54509337    
   1977.7240 113.84285629     828.73722465     809.82778413    
   1977.8764 113.77171766     833.64302279     818.39780182    
   1978.0288 114.10400586     835.10535674     824.15368777    
   1978.1812 114.43742505     833.28420107     830.77598087    
   1978.3336 114.41913413     840.21946217     837.26382915    
   1978.4860 114.34835543     844.83023776     845.32491274    
   1978.6384 114.11694944     851.85573619     852.78261332    
   1978.7908 114.10183235     856.57008377     853.56283609    
   1978.9432 114.10701977     875.10441359     854.00911152    
   1979.0956 114.13385264     889.15747171     854.43734415    
   1979.2480 113.79660173     902.22878549     854.89209068    
   1979.4004 113.81541177     910.82541644     855.33601008    
   1979.5528 114.04560913     907.39112291     855.35313344    
   1979.7052 114.17892216     899.28058584     855.35107574    
   1979.8576 114.73164505     888.45931699     855.35047983    
   1980.0100 115.30519235     885.30141486     855.35061602    
   1980.1624 115.00454797     892.33096209     855.35186209    
   1980.3148 115.10111538     900.15578162     855.33239380    
   1980.4672 115.01972806     896.30374793     855.30793338    
   1980.6196 114.68552421     880.57674478     855.75175319    
   1980.7720 114.70988459     862.32242711     857.31079246    
   1980.9244 115.04794591     845.05803762     857.40403872    
   1981.0768 115.20649104     851.77141434     857.40121498    
   1981.2292 115.38104384     845.66181034     856.74121825    
   1981.3816 115.63112694     849.18596192     855.10114440    
   1981.5340 115.89861086     843.05866887     853.47932307    
   1981.6864 116.18448565     843.10430880     851.84813168    
   1981.8388 116.55923526     843.06018903     851.14621568    
   1981.9912 116.92510492     843.09948440     848.10944136    
   1982.1436 117.16015172     842.76277047     845.00637781    
   1982.2960 117.15492527     842.82856173     842.75244727    
   1982.4484 117.13445016     836.90427902     843.80676502    
   1982.6008 117.46091155     836.83727100     838.76260728    
   1982.7532 117.79731923     827.82481574     833.84704658    
   1982.9056 117.91251916     828.67207183     828.97380035    
   1983.0580 123.26402213     822.73294097     827.45054269    
   1983.2104 119.84485168     819.07954539     822.21981573    
   1983.3628 119.39337618     816.62720687     817.45121441    
   1983.5152 118.99651486     806.01436573     814.81739615    
   1983.6676 118.92506259     801.39697569     812.36513275    
   1983.8200 118.86357665     802.78571095     812.15707657    
   1983.9724 118.79986589     803.86122815     814.23262617    
   1984.1248 118.73535542     827.15380083     814.33064837    
   1984.2772 118.65797577     856.06902694     814.32226544    
   1984.4296 118.53182971     872.45988547     813.87199914    
   1984.5820 118.40621821     871.71978802     810.52403910    
   1984.7344 118.28089984     856.18757666     807.17900125    
   1984.8868 118.15555885     836.16656227     804.89432366    
   1985.0392 118.07404276     824.20887262     809.55295381    
   1985.1916 118.07827913     812.39209349     807.81975347    
   1985.3440 118.08594777     828.54537820     806.64095112    
   1985.4964 119.34464370     844.78240461     809.58757460    
   1985.6488 119.43099422     855.84424902     816.18784470    
   1985.8012 119.18263410     864.41242819     818.66853309    
   1985.9536 118.90473343     866.01138601     818.92095277    
   1986.1060 118.73086517     872.18634326     821.62152746    
   1986.2584 119.03707588     883.13091770     824.34702010    
   1986.4108 119.29557972     885.61522896     827.02183104    
   1986.5632 119.53833756     876.66189522     833.19437014    
   1986.7156 119.66986936     856.07474208     840.65547482    
   1986.8680 119.89691760     851.50141193     840.14289393    
   1987.0204 119.89797897     844.99453642     839.35585549    
   1987.1728 119.84976266     852.89997805     838.72208684    
   1987.3252 119.80070556     883.34986730     840.98571838    
   1987.4776 119.75272378     899.68643935     840.68491378    
   1987.6300 119.70469578     898.58367031     839.07536516    
   1987.7824 119.65667757     888.80838547     837.36424658    
   1987.9348 119.60859735     873.04740673     839.26957546    
   1988.0872 119.55550304     868.27572532     837.81983842    
   1988.2396 119.50169279     870.24829413     829.50091376    
   1988.3920 119.44786948     875.57878986     824.03729197    
   1988.5444 119.39405114     875.52969600     818.75395231    
   1988.6968 119.34023329     865.70379424     815.11058873    
   1988.8492 119.28641544     852.70684645     806.85804121    
   1989.0016 119.23259759     848.59681848     804.47062962    
   1989.1540 119.17831833     845.03790785     802.28884477    
   1989.3064 119.12634754     846.63495347     804.06242897    
   1989.4588 119.08258756     850.89846932     807.05793656    
   1989.6112 119.01519461     851.14913303     810.83536109    
   1989.7636 119.66505606     849.58298727     814.20977565    
   1989.9160 119.60722231     846.69170414     815.70304102    
   1990.0684 119.74964188     854.08348457     820.76939656    
   1990.2208 119.91220265     868.28219759     826.51114791    
   1990.3732 119.90819860     886.72339171     826.04438499    
   1990.5256 119.91074580     891.41420638     828.84989032    
   1990.6780 119.91443405     885.99637121     828.75291076    
   1990.8304 119.84915330     875.45064323     829.32521065    
   1990.9828 119.62303215     867.66604711     834.04076215    
   1991.1352 119.60656203     863.18141684     822.21820267    
   1991.2876 119.93958648     859.36083113     823.76020136    
   1991.4400 120.25660379     852.59166967     825.54647129    
   1991.5924 120.16087763     851.54706401     827.56594071    
   1991.7448 119.87824944     853.39065873     832.52913306    
   1991.8972 119.89421298     866.18231084     836.00037212    
   1992.0496 119.48320317     884.26661627     841.00445680    
   1992.2020 119.29554381     900.14230073     847.05528589    
   1992.3544 119.09672418     908.34238894     851.20412664    
   1992.5068 118.99272994     905.18914380     851.20847409    
   1992.6592 118.98987879     887.97424444     851.24145126    
   1992.8116 118.98542640     868.45224234     851.40415123    
   1992.9640 119.04929705     851.12466115     844.86414992    
   1993.1164 119.03255416     843.10172979     835.94814991    
   1993.2688 119.23870472     843.13991973     830.55468396    
   1993.4212 119.30446480     846.83154380     829.12372601    
   1993.5736 119.29987731     849.53386406     821.74964139    
   1993.7260 119.29618987     853.41949982     820.56135036    
   1993.8784 119.29983603     860.13482509     824.15490124    
   1994.0308 119.04584039     864.82228513     826.97919507    
   1994.1832 119.31478566     867.35846363     831.25470141    
   1994.3356 119.05636388     871.40232711     832.27944590    
   1994.4880 118.95258555     878.03209298     839.07305297    
   1994.6404 119.63759772     887.12040368     840.72876992    
   1994.7928 119.60007483     892.35128533     843.36752775    
   1994.9452 119.85808943     894.31950742     848.75915180    
   1995.0976 119.51852778     890.99228513     853.37917387    
