~Version Information Block
 VERS.                2.00:     CWLS LOG ASCII STANDARD - VERSION 2.000000
 WRAP.                  NO:     One Line Per Depth Step
#
~Well Information Block
#MNEM.UNIT                     Data                         Information
#----------   ------------------------------------------   ----------------
 STRT.M                                      1800.0000:     START DEPTH
 STOP.M                                      2299.8720:     STOP DEPTH
 STEP.M                                         0.1524:     STEP
 NULL.                                       -999.2500:     NULL VALUE
 COMP.                                        Alphabow:     COMPANY
 WELL.                   ABE PINE CK 6-21-56-19 #97328:     WELL
 FLD .                                      Pine Creek:     FIELD
 LOC .                           100/06-21-056-19W5/00:     LOCATION
 CNTY.                                                :     COUNTY
 STAT.                                         Alberta:     STATE
 CTRY.                                          Canada:     COUNTRY
 SRVC.                                                :     SERVICE COMPANY
 DATE.                                      03/28/2025:     DATE
 API .                                100062105619W500:     API NUMBER
 UWI .                                100062105619W500:     UWI NUMBER
 TVD .                                              NO:     TVD flag
 WSTA.                                             LOC:     Well status
#
~Curve Information Block
#MNEM.UNIT       API CODE      Curve Description
#----------    -------------   -------------------
 DEPT.M                    :   Depth in Meters
 GR  .GAPI     35 310 01 01:   Gamma Ray
 CALI.mm       70 280 01 01:   Caliper
 RHOB.kg/m3     42 350 01 01:   Bulk Density
#
~Parameter Information Block
#MNEM.UNIT            Value               Description
#----------    --------------------    -------------------
 RUN .                         ONE:    Run Number
 PDAT.                         UNK:    Permanent Datum
 EPD .M                 -9999.5000:    Elevation Of Perm. Datum
 TD  .M                  2300.0000:    Total Depth
 WSTA.                         LOC:    
 LATB.M                     0.0000:    
 LONB.M                     0.0000:    
#
~Other Information Block
<DescLogPlotStart>   NEURALOG PLOT DEFINITION
PLOTDEFVERSION: 3
LASFILE: C:\Users\wadet\Desktop\Alphabow Evaluation\well_info\second_white_spec
DEPTHSCALE: 600.000000
RESOLUTION: 200
DEPTHLABELFREQ: 100.000000
HEAVYGRIDFREQ: 50.000000
MEDIUMGRIDFREQ: 25.000000
LIGHTGRIDFREQ: 25.000000
#
#   TRACK 1
#
STARTTRACK: 
 LEFTX: 0.500000 inch
 RIGHTX: 3.000000 inch
 SCALETYPE: Linear
 NUMCHARTDIVISIONS: 10
CURVE: GR    0.000000   150.000000 (0,0,255)      Solid             2     N    
CURVE: CALI  125.000000 375.000000 (0,131,131)    Dot               2     N    
ENDTRACK: 
#
#   TRACK 2
#
STARTTRACK: 
 LEFTX: 3.500000 inch
 RIGHTX: 8.500000 inch
 SCALETYPE: Linear
 NUMCHARTDIVISIONS: 17
CURVE: RHOB  2000.000000 3000.000000 (255,0,255)    Solid             2     N  
ENDTRACK: 
<DescLogPlotEnd>
~A DEPTH     GR               CALI             RHOB            
# ...
   1990.5000 113.96155938     222.62383649     2614.51180622   
   1990.6524 113.62463919     223.62405785     2610.47294530   
   1990.8048 113.35128060     224.14363649     2611.44813274   
   1990.9572 112.72705858     224.13378554     2614.56661428   
   1991.1096 111.52384643     223.12651221     2614.54994278   
   1991.2620 110.00480763     222.61707379     2612.46887856   
   1991.4144 109.68938679     222.61443830     2607.34414349   
   1991.5668 112.43914243     222.62139163     2602.14405143   
   1991.7192 115.44775656     222.60948996     2600.14299599   
   1991.8716 117.00218330     223.13382501     2603.16709312   
   1992.0240 119.69603052     224.12519873     2610.45210456   
   1992.1764 119.74197927     224.15136858     2617.60134324   
   1992.3288 118.78123320     224.12249610     2618.68828809   
   1992.4812 117.61599815     223.13840289     2615.54411892   
   1992.6336 117.56490924     223.10796863     2611.46336556   
   1992.7860 117.61220703     223.13775269     2612.49056318   
   1992.9384 117.86792653     223.10971029     2613.50585311   
   1993.0908 119.12543087     223.64361197     2612.52167126   
   1993.2432 120.30178247     224.12610184     2607.29542354   
   1993.3956 120.33709513     224.14763221     2603.27445654   
   1993.5480 118.18233759     223.62244420     2604.14163613   
   1993.7004 114.56028390     223.12852330     2606.38284231   
   1993.8528 111.20043092     222.61393982     2611.32191640   
   1994.0052 109.09287683     222.61802600     2613.63214419   
   1994.1576 109.38564914     223.12431973     2613.35980736   
   1994.3100 109.69971874     223.12140878     2608.50530242   
   1994.4624 109.39158901     224.14342867     2605.10446474   
   1994.6148 109.69811269     224.13077793     2600.28100944   
   1994.7672 109.99940571     223.13408518     2597.89132815   
   1994.9196 109.81653201     223.11159662     2598.21331375   
   1995.0720 109.57710802     222.63159647     2606.83676425   
   1995.2244 109.39040463     223.10729457     2614.34012249   
   1995.3768 108.48222029     223.14253432     2619.56793083   
   1995.5292 108.17849116     223.10340356     2620.84062888   
   1995.6816 109.69644599     224.16206218     2613.40555298   
   1995.8340 112.43029428     224.11150400     2594.00910404   
   1995.9864 113.94085372     223.15311286     2585.62353538   
   1996.1388 114.55109176     223.09384804     2591.91510280   
   1996.2912 115.14615225     223.15459987     2600.09450960   
   1996.4436 115.07464738     223.09088248     2605.27510739   
   1996.5960 114.84157882     223.15725614     2603.23147501   
   1996.7484 114.55699268     224.10274747     2599.06457795   
   1996.9008 114.84098509     224.17124274     2598.11677209   
   1997.0532 114.86528250     224.10539002     2599.02681898   
   1997.2056 114.23350933     223.15470174     2600.18676359   
   1997.3580 113.65245731     223.09667471     2603.11770125   
   1997.5104 113.93149203     223.14683879     2607.42421679   
   1997.6628 114.86955642     223.10686207     2611.34174172   
   1997.8152 115.45094915     223.14255740     2607.42151982   
   1997.9676 114.26143237     224.13541942     2606.18263944   
   1998.1200 112.41679221     224.14461118     2605.35691693   
   1998.2724 110.31149776     224.14759240     2606.13410807   
   1998.4248 108.47036134     224.13029059     2607.41026208   
   1998.5772 107.27027862     223.14880078     2606.14397036   
   1998.7296 107.56522816     223.10409856     2606.39706201   
   1998.8820 108.78617429     223.16083392     2612.31911099   
   1999.0344 110.30525578     223.09197794     2621.85593268   
   1999.1868 111.81793285     223.17283220     2628.79170699   
   1999.3392 113.04607832     224.09554029     2627.01709466   
   1999.4916 113.93756049     224.19303718     2619.50984025   
   1999.6440 114.87551908     224.08866124     2611.56789914   
   1999.7964 116.66428377     223.18440746     2609.21192779   
   1999.9488 118.21910846     224.42373492     2597.12041945   
   2000.1012 118.89141437     227.82742624     2583.14757034   
   2000.2536 119.66551854     231.17845973     2583.37532784   
   2000.4060 119.38404477     230.77736349     2585.54465399   
   2000.5584 117.62459208     230.67755765     2574.45724903   
   2000.7108 116.48211146     230.77164573     2575.26310737   
   2000.8632 115.49871967     231.19107294     2579.58000805   
   2001.0156 116.94680630     230.91280800     2577.35506424   
   2001.1680 117.62585531     230.49841828     2573.36282283   
   2001.3204 118.47064524     230.24819033     2571.22153495   
   2001.4728 118.54039760     230.19392406     2572.32150160   
   2001.6252 118.17311603     230.24135325     2573.34092902   
   2001.7776 118.53795610     230.31289768     2572.30010482   
   2001.9300 118.47888765     230.51984564     2571.30515045   
   2002.0824 119.13871931     230.66179645     2575.34786983   
   2002.2348 120.91276486     230.73760711     2582.64082503   
   2002.3872 121.25888337     230.71684112     2591.78796137   
   2002.5396 119.70127274     231.24801272     2596.02555827   
   2002.6920 117.61115079     231.73547739     2594.86795649   
   2002.8444 117.27731124     231.75330776     2589.84988140   
   2002.9968 118.21314683     232.24179744     2587.63405462   
   2003.1492 119.40929883     232.25986454     2586.76652526   
   2003.3016 119.42504798     232.24221913     2586.60119401   
   2003.4540 119.72132527     232.25961604     2586.76162621   
   2003.6064 120.94036727     232.24148358     2588.64426790   
   2003.7588 122.76170042     232.25925128     2596.04296617   
   2003.9112 123.66665073     232.24152039     2605.14405551   
   2004.0636 122.76033050     232.25905997     2613.59040219   
   2004.2160 120.92675712     232.24204668     2619.57750546   
   2004.3684 117.89957963     232.25882709     2613.59687924   
   2004.5208 115.76069246     232.24292969     2604.12088293   
   2004.6732 113.04135180     232.25816542     2597.11948970   
   2004.8256 111.51162493     232.75007943     2594.86294926   
   2004.9780 112.81307127     232.76446042     2593.54253710   
   2005.1304 114.00128867     232.75161245     2592.54691442   
   2005.2828 115.16280697     232.76367865     2591.95025506   
   2005.4352 116.98356295     232.75405830     2593.85118785   
   2005.5876 118.50007154     232.76172206     2590.87901883   
   2005.7400 119.71920726     232.75568502     2586.64258002   
   2005.8924 119.40934401     232.75960787     2582.59638451   
   2006.0448 117.29413613     232.75822057     2585.63481760   
   2006.1972 114.85579440     232.75705410     2598.04149939   
   2006.3496 111.82608922     232.76151340     2612.46739225   
   2006.5020 109.69400836     232.75417722     2622.76401348   
   2006.6544 108.49023404     232.76453130     2623.82956231   
   2006.8068 107.25965635     232.75138962     2621.71897270   
   2006.9592 107.26990579     232.76696925     2619.71087978   
   2007.1116 109.07558559     232.75019247     2619.65075847   
   2007.2640 110.91198779     232.76915170     2620.73896610   
   2007.4164 112.11455235     232.74942401     2624.80736946   
   2007.5688 111.82661952     232.76923442     2625.88002278   
   2007.7212 110.29851556     233.25716231     2619.67318060   
   2007.8736 108.49222079     232.76699698     2607.31633527   
   2008.0260 107.25518396     232.75326823     2594.96422056   
   2008.1784 107.58700852     232.76437939     2585.64002435   
   2008.3308 108.16406366     232.75660807     2581.58800008   
   2008.4832 109.71469725     232.96145876     2583.55398034   
   2008.6356 112.40549359     233.12469555     2586.78779784   
   2008.7880 115.18632624     233.26272495     2586.64682125   
   2008.9404 117.25359927     233.27118331     2587.85965064   
   2009.0928 117.01753499     233.25980590     2593.84003878   
   2009.2452 116.32929581     233.27310321     2598.17310475   
   2009.3976 114.29473912     233.76531682     2604.12443714   
