~Version Information Block
 VERS.                2.00:     CWLS LOG ASCII STANDARD - VERSION 2.000000
 WRAP.                  NO:     One Line Per Depth Step
#
~Well Information Block
#MNEM.UNIT                     Data                         Information
#----------   ------------------------------------------   ----------------
 STRT.M                                      1900.0000:     START DEPTH
 STOP.M                                      2299.8976:     STOP DEPTH
 STEP.M                                         0.1524:     STEP
 NULL.                                       -999.2500:     NULL VALUE
 COMP.                                        Alphabow:     COMPANY
 WELL.                   SOC PINE CK 6-21-56-19 #97328:     WELL
 FLD .                                                :     FIELD
 LOC .                                                :     LOCATION
 CNTY.                                                :     COUNTY
 STAT.                                                :     STATE
 CTRY.                                                :     COUNTRY
 SRVC.                                                :     SERVICE COMPANY
 DATE.                                      03/29/2025:     DATE
 API .                                100062105619W500:     API NUMBER
 UWI .                                100062105619W500:     UWI NUMBER
 TVD .                                              NO:     TVD flag
 WSTA.                                             LOC:     Well status
#
~Curve Information Block
#MNEM.UNIT       API CODE      Curve Description
#----------    -------------   -------------------
 DEPT.M                    :   Depth in Meters
 SP  .MV       01 010 01 01:   Spontaneous Potential
 SFLU.OHMM     10 220 01 01:   SFL Resistivity (Unaveraged)
 ILD .OHMM     05 120 46 01:   Deep Induction Standard Processed Resistivity
#
~Parameter Information Block
#MNEM.UNIT            Value               Description
#----------    --------------------    -------------------
 RUN .                         ONE:    Run Number
 PDAT.                         UNK:    Permanent Datum
 EPD .M                 -9999.5000:    Elevation Of Perm. Datum
 WSTA.                         LOC:    
 E   .M                 -9999.5000:    E (Stretch Coefficient Of The Cable)
 TD  .M                  2300.0000:    Total Depth
#
~Other Information Block
<DescLogPlotStart>   NEURALOG PLOT DEFINITION
PLOTDEFVERSION: 3
LASFILE: C:\Users\wadet\Desktop\Alphabow Evaluation\well_info\second_white_spec
DEPTHSCALE: 240.000000
RESOLUTION: 200
DEPTHLABELFREQ: 50.000000
HEAVYGRIDFREQ: 50.000000
MEDIUMGRIDFREQ: 25.000000
LIGHTGRIDFREQ: 5.000000
#
#   TRACK 1
#
STARTTRACK: 
 LEFTX: 0.500000 inch
 RIGHTX: 3.000000 inch
 SCALETYPE: Linear
 NUMCHARTDIVISIONS: 10
CURVE: SP    0.000000   150.000000 (0,0,255)      Solid             2     N    
ENDTRACK: 
#
#   TRACK 2
#
STARTTRACK: 
 LEFTX: 3.500000 inch
 RIGHTX: 8.500000 inch
 SCALETYPE: Linear
 NUMCHARTDIVISIONS: 34
CURVE: SFLU  0.200000   2000.000000 (0,131,131)    Solid             2     N   
CURVE: ILD   0.200000   2000.000000 (255,0,255)    Dot               2     N   
ENDTRACK: 
<DescLogPlotEnd>
~A DEPTH     SP               SFLU             ILD             
# ...
   2204.8000 128.56002591     990.75173897     918.31611226    
   2204.9524 128.85151554     996.63306070     921.21438557    
   2205.1048 129.05764235     1004.65749755    924.45619968    
   2205.2572 129.46812250     1009.83696494    927.34918068    
   2205.4096 129.66784616     1005.37742862    925.59465986    
   2205.5620 129.68938558     1003.24373582    927.27792805    
   2205.7144 129.36964977     1000.88658335    925.47397192    
   2205.8668 129.03809796     999.59785609     923.47313723    
   2206.0192 129.05357537     995.29025148     922.58863960    
   2206.1716 129.07102724     990.86959670     920.60839412    
   2206.3240 129.01414542     984.25038084     919.11551274    
   2206.4764 128.78501241     990.13392512     916.79147351    
   2206.6288 128.77327239     992.56640991     916.94828280    
   2206.7812 128.70412754     993.42982801     918.82751118    
   2206.9336 128.48061700     994.42463416     917.04044636    
   2207.0860 128.25326389     991.36239733     916.72537969    
   2207.2384 127.46522750     985.95384671     919.04415755    
   2207.3908 126.70457906     986.93788762     919.01456253    
   2207.5432 126.28827256     989.51783816     922.68767292    
   2207.6956 126.29841099     992.35933842     925.28434044    
   2207.8480 125.74171609     998.47866097     927.03771265    
   2208.0004 125.29457555     1006.96110101    935.60132636    
   2208.1528 125.32324278     1021.16489849    941.21336106    
   2208.3052 125.96931662     1033.29699222    947.39812423    
   2208.4576 125.94275342     1043.94462120    953.32722055    
   2208.6100 125.13180384     1050.26176859    960.06569479    
   2208.7624 124.54074298     1055.87907373    963.98701128    
   2208.9148 123.84034232     1059.34216955    968.13437550    
   2209.0672 123.65753338     1058.69583915    969.83104934    
   2209.2196 123.60935722     1056.83055261    970.56013450    
   2209.3720 123.61435880     1049.12822099    967.85745777    
   2209.5244 123.81993177     1043.56221319    966.40166365    
   2209.6768 124.43183334     1038.53098817    966.47947808    
   2209.8292 124.79941900     1035.78710290    963.73462398    
   2209.9816 125.02300184     1038.94631753    961.60047191    
   2210.1340 124.73704116     1043.74582966    958.17422288    
   2210.2864 124.44214834     1045.96352855    957.62666873    
   2210.4388 124.49431252     1039.63617767    955.56662588    
   2210.5912 125.17527584     1028.00587575    952.34886285    
   2210.7436 125.91232798     1021.81621797    951.39829589    
   2210.8960 126.32298370     1021.97396608    947.54402251    
   2211.0484 126.50225998     1025.18768030    945.64884122    
   2211.2008 127.03761842     1027.88532876    939.95885811    
   2211.3532 127.46494786     1027.91128621    936.94065980    
   2211.5056 127.31157339     1027.46952718    931.50914323    
   2211.6580 127.17801395     1012.48572799    925.29893203    
   2211.8104 126.94643073     993.98004563     927.06053300    
   2211.9628 126.92977398     984.57463128     923.49256598    
   2212.1152 126.91731222     978.31659732     927.71817752    
   2212.2676 127.49633183     988.36255162     939.78903881    
   2212.4200 127.55031724     1013.78412435    956.11619592    
   2212.5724 127.81717332     1061.27336980    972.35169378    
   2212.7248 127.35369940     1111.75149251    991.44113886    
   2212.8772 126.87000526     1152.65176811    996.79609938    
   2213.0296 126.67728055     1166.27543389    1009.89851891   
   2213.1820 126.31792037     1155.23604259    1008.24307971   
   2213.3344 126.29727991     1112.14107981    1009.39267449   
   2213.4868 126.64688888     1081.24642939    1006.86180121   
   2213.6392 126.86492660     1071.23419685    1002.72909417   
   2213.7916 126.90408145     1068.75880019    992.85400541    
   2213.9440 127.25245006     1068.82791041    990.67529952    
   2214.0964 127.88828043     1068.84359555    984.59065336    
   2214.2488 128.38694164     1069.27486299    981.24306615    
   2214.4012 128.52594963     1070.87730252    978.89698593    
   2214.5536 128.72628016     1071.14231652    980.68238161    
   2214.7060 129.07513833     1068.54172756    978.93562388    
   2214.8584 129.07265543     1066.37375501    980.50879558    
   2215.0108 128.96051646     1066.96809473    979.34367107    
   2215.1632 129.10836268     1072.86501999    976.46063659    
   2215.3156 129.08384389     1070.48246512    970.50653945    
   2215.4680 129.40056244     1064.70035363    968.29988876    
   2215.6204 129.67980185     1052.70120876    963.77175500    
   2215.7728 130.04702042     1040.04148080    957.62769964    
   2215.9252 130.32138045     1027.58315161    950.14504673    
   2216.0776 130.81856756     1020.94114111    946.63048836    
   2216.2300 131.45926551     1015.59170381    945.23027561    
   2216.3824 131.50441113     1011.36255071    939.85821809    
   2216.5348 131.27047576     1009.03775795    939.05631520    
   2216.6872 131.21369294     1013.95589452    938.67032257    
   2216.8396 130.81605689     1019.59402433    941.16952024    
   2216.9920 130.58641494     1023.25556583    941.69590925    
   2217.1444 129.98436187     1025.75774767    943.70938434    
   2217.2968 130.00114513     1023.51628859    943.62823857    
   2217.4492 129.42917518     1024.10475435    943.16690034    
   2217.6016 128.80736426     1029.87079792    945.10613286    
   2217.7540 128.20440209     1040.16898221    945.69457318    
   2217.9064 127.81938499     1050.52903040    945.74291554    
   2218.0588 128.04107473     1055.12547149    945.81414702    
   2218.2112 128.16161080     1053.57781627    946.68202840    
   2218.3636 128.18784786     1040.54243904    946.14966725    
   2218.5160 127.79590879     1028.55060608    950.07206458    
   2218.6684 127.26005694     1025.93223583    952.00968380    
   2218.8208 126.93056249     1034.09960913    953.91441729    
   2218.9732 126.93426886     1043.74870837    955.89616895    
   2219.1256 126.64352240     1047.96768253    952.24166041    
   2219.2780 126.61859556     1044.16576213    950.04814117    
   2219.4304 126.42434123     1034.26207382    947.59699183    
   2219.5828 125.98208755     1023.65220439    943.37298326    
   2219.7352 125.42284159     1015.62496579    938.98586144    
   2219.8876 125.41337337     1006.50149531    933.75652029    
   2220.0400 125.40684083     1003.90171777    929.78262764    
   2220.1924 125.40710533     1001.09355930    925.18094420    
   2220.3448 125.40733198     1003.04150817    921.02828116    
   2220.4972 125.40724509     999.17213023     919.01323568    
   2220.6496 125.40768816     996.46775345     919.05492599    
   2220.8020 125.40863379     996.53474351     919.00503117    
   2220.9544 125.39698944     996.91426491     918.99510311    
   2221.1068 125.11180176     999.42528023     918.98864674    
   2221.2592 125.10043312     1000.97955060    919.02560212    
   2221.4116 125.12197924     999.58246452     919.23055716    
   2221.5640 125.35377677     995.35157607     917.00186308    
   2221.7164 125.74596789     995.15389329     916.53800145    
   2221.8688 126.02785512     992.88488267     912.93117279    
   2222.0212 126.45055318     992.89381777     910.25180885    
   2222.1736 126.57609355     988.44701208     907.21319195    
   2222.3260 126.66825374     980.82250934     903.16659674    
   2222.4784 126.37251772     974.35758409     900.34804361    
   2222.6308 125.97620286     968.16774071     898.54278876    
   2222.7832 126.01631402     964.65268357     896.23347163    
   2222.9356 126.17189741     964.08269984     896.40221628    
   2223.0880 126.53254816     966.93696572     896.37878924    
   2223.2404 127.02392342     970.51312302     899.09853005    
   2223.3928 127.24216918     978.26096150     900.40375098    
   2223.5452 127.47977293     987.03379238     903.16869387    
   2223.6976 127.61822950     992.79600592     904.56203601    
