~Version Information Block
 VERS.                2.00:     CWLS LOG ASCII STANDARD - VERSION 2.000000
 WRAP.                  NO:     One Line Per Depth Step
#
~Well Information Block
#MNEM.UNIT                     Data                         Information
#----------   ------------------------------------------   ----------------
 STRT.M                                      1900.0000:     START DEPTH
 STOP.M                                      2299.8976:     STOP DEPTH
 STEP.M                                         0.1524:     STEP
 NULL.                                       -999.2500:     NULL VALUE
 COMP.                                        Alphabow:     COMPANY
 WELL.                   SOC PINE CK 6-21-56-19 #97328:     WELL
 FLD .                                                :     FIELD
 LOC .                                                :     LOCATION
 CNTY.                                                :     COUNTY
 STAT.                                                :     STATE
 CTRY.                                                :     COUNTRY
 SRVC.                                                :     SERVICE COMPANY
 DATE.                                      03/29/2025:     DATE
 API .                                100062105619W500:     API NUMBER
 UWI .                                100062105619W500:     UWI NUMBER
 TVD .                                              NO:     TVD flag
 WSTA.                                             LOC:     Well status
#
~Curve Information Block
#MNEM.UNIT       API CODE      Curve Description
#----------    -------------   -------------------
 DEPT.M                    :   Depth in Meters
 SP  .MV       01 010 01 01:   Spontaneous Potential
 SFLU.OHMM     10 220 01 01:   SFL Resistivity (Unaveraged)
 ILD .OHMM     05 120 46 01:   Deep Induction Standard Processed Resistivity
#
~Parameter Information Block
#MNEM.UNIT            Value               Description
#----------    --------------------    -------------------
 RUN .                         ONE:    Run Number
 PDAT.                         UNK:    Permanent Datum
 EPD .M                 -9999.5000:    Elevation Of Perm. Datum
 WSTA.                         LOC:    
 E   .M                 -9999.5000:    E (Stretch Coefficient Of The Cable)
 TD  .M                  2300.0000:    Total Depth
#
~Other Information Block
<DescLogPlotStart>   NEURALOG PLOT DEFINITION
PLOTDEFVERSION: 3
LASFILE: C:\Users\wadet\Desktop\Alphabow Evaluation\well_info\second_white_spec
DEPTHSCALE: 240.000000
RESOLUTION: 200
DEPTHLABELFREQ: 50.000000
HEAVYGRIDFREQ: 50.000000
MEDIUMGRIDFREQ: 25.000000
LIGHTGRIDFREQ: 5.000000
#
#   TRACK 1
#
STARTTRACK: 
 LEFTX: 0.500000 inch
 RIGHTX: 3.000000 inch
 SCALETYPE: Linear
 NUMCHARTDIVISIONS: 10
CURVE: SP    0.000000   150.000000 (0,0,255)      Solid             2     N    
ENDTRACK: 
#
#   TRACK 2
#
STARTTRACK: 
 LEFTX: 3.500000 inch
 RIGHTX: 8.500000 inch
 SCALETYPE: Linear
 NUMCHARTDIVISIONS: 34
CURVE: SFLU  0.200000   2000.000000 (0,131,131)    Solid             2     N   
CURVE: ILD   0.200000   2000.000000 (255,0,255)    Dot               2     N   
ENDTRACK: 
<DescLogPlotEnd>
~A DEPTH     SP               SFLU             ILD             
# ...
   2223.8500 127.83586989     992.90302257     904.71416436    
   2224.0024 128.11095295     991.72235354     906.27695530    
   2224.1548 127.84954204     982.38834459     906.65355941    
   2224.3072 127.84856637     976.72519233     906.68121048    
   2224.4596 127.84890818     976.79964991     905.05426612    
   2224.6120 127.85673923     980.69876904     904.70709254    
   2224.7644 127.31557484     980.63562217     902.61213591    
   2224.9168 126.91776160     980.55725785     902.58109237    
   2225.0692 126.55667358     979.31801671     902.58268744    
   2225.2216 126.31241084     978.58674528     900.41678345    
   2225.3740 126.07361176     978.54290734     902.16717170    
   2225.5264 126.01383936     980.80540530     902.28925617    
   2225.6788 125.68443638     980.56335910     898.01232478    
   2225.8312 125.70923597     978.82945520     896.16414847    
   2225.9836 126.14293029     972.09112128     896.11377870    
   2226.1360 126.70317860     965.71764827     896.51250355    
   2226.2884 127.33610745     966.68129993     897.90826650    
   2226.4408 127.77804369     974.26336752     900.69075521    
   2226.5932 128.19440272     985.03274833     904.44151101    
   2226.7456 128.21893599     992.95487305     907.04117832    
   2226.8980 128.75849409     994.63406587     910.63025985    
   2227.0504 129.08310524     995.01883268     912.61695733    
   2227.2028 129.40222610     994.98261034     916.52532458    
   2227.3552 129.71787688     994.96494240     916.91005913    
   2227.5076 129.68427956     994.97389639     917.13726119    
   2227.6600 129.68848979     994.91489369     918.11580068    
   2227.8124 129.73805738     994.57927077     917.99585735    
   2227.9648 129.57032894     985.83792493     917.54217445    
   2228.1172 129.09200739     984.52679470     922.46345534    
   2228.2696 128.74442963     992.48165846     922.82453510    
   2228.4220 127.86308541     1001.96191071    925.48891228    
   2228.5744 127.20126471     1007.54060163    930.69144232    
   2228.7268 126.98396439     1021.77807249    933.81639241    
   2228.8792 126.59213061     1027.35583952    939.56233374    
   2229.0316 126.08035806     1029.49790282    942.98375394    
   2229.1840 125.43178337     1027.63708533    949.59253713    
   2229.3364 124.59743941     1022.05314221    951.83603449    
   2229.4888 124.12323657     1023.76329843    956.50053399    
   2229.6412 123.89777959     1035.78207694    961.61850821    
   2229.7936 123.84637771     1051.12146175    962.34676591    
   2229.9460 124.52637774     1058.57689937    962.68968058    
   2230.0984 124.73429062     1053.57406228    964.10467978    
   2230.2508 124.79834828     1046.69430751    966.28395249    
   2230.4032 124.73666289     1038.02082576    962.09603963    
   2230.5556 124.50555528     1029.78868817    958.22190039    
   2230.7080 124.49457683     1024.37619108    950.89769827    
   2230.8604 124.48667115     1019.36122794    949.95767460    
   2231.0128 124.72835627     1019.13635862    948.91792638    
   2231.1652 124.74396857     1017.64251775    945.40119676    
   2231.3176 124.73601370     1019.79053216    948.09853862    
   2231.4700 124.51096507     1026.99643023    957.15056326    
   2231.6224 124.16195230     1033.98311146    966.15786063    
   2231.7748 124.12693734     1038.35109743    975.26523029    
   2231.9272 123.84822229     1051.77364358    992.66544345    
   2232.0796 123.35549325     1087.15813863    1002.21613809   
   2232.2320 122.70899032     1117.58282912    1002.10676456   
   2232.3844 122.70684312     1129.23212492    1007.34071145   
   2232.5368 122.98994438     1101.10454077    1004.92668411   
   2232.6892 123.65447284     1060.43388572    1005.34318929   
   2232.8416 124.45012750     1047.54820301    1004.95264050   
   2232.9940 124.97784761     1060.16910365    999.46091040    
   2233.1464 125.48090867     1075.61609163    992.11265153    
   2233.2988 125.75346637     1083.16754588    976.90964835    
   2233.4512 125.96261103     1069.25009906    972.52216880    
   2233.6036 126.08650795     1049.30375890    962.08657360    
   2233.7560 125.93506039     1029.34750392    954.75642120    
   2233.9084 125.49185532     1017.78782067    950.03923098    
   2234.0608 124.74513282     1014.15921558    947.04571347    
   2234.2132 124.49959603     1015.94721887    940.32121182    
   2234.3656 124.52461330     1017.83598309    937.90261777    
   2234.5180 124.20369566     1019.36879539    937.74364609    
   2234.6704 123.66150738     1020.68516323    937.92677347    
   2234.8228 123.05212930     1023.03170453    941.72861530    
   2234.9752 122.45062652     1026.34874423    944.16568075    
   2235.1276 121.11309848     1029.21670633    945.03404924    
   2235.2800 120.26926612     1026.41088057    944.63872212    
   2235.4324 119.32058576     1019.47872160    945.86313475    
   2235.5848 119.23562780     1008.95166906    947.59779408    
   2235.7372 118.94730154     1005.16296841    949.52865548    
   2235.8896 118.72982460     1007.06905499    951.83669935    
   2236.0420 117.84846253     1018.81933880    957.43887568    
   2236.1944 117.22399019     1037.56055671    964.23502886    
   2236.3468 117.15588470     1050.62812778    969.76180982    
   2236.4992 117.15608705     1062.42943661    976.11065677    
   2236.6516 117.15923400     1062.70042777    981.24785064    
   2236.8040 117.16051818     1064.99875490    984.39876758    
   2236.9564 117.14974002     1065.08930735    980.61163591    
   2237.1088 116.89891903     1058.47829875    977.53854421    
   2237.2612 116.85472340     1043.26465292    968.52073083    
   2237.4136 116.85593347     1031.75067044    958.23145577    
   2237.5660 116.85122543     1024.01024717    949.91317498    
   2237.7184 116.80281808     1010.76949810    943.49530922    
   2237.8708 117.12671627     999.56974370     931.15345269    
   2238.0232 118.37611184     988.43733895     925.81078244    
   2238.1756 118.60432457     980.76959076     920.02463266    
   2238.3280 118.75845915     975.17649001     908.77757134    
   2238.4804 118.97668738     970.29759455     902.45222200    
   2238.6328 119.30364075     968.16566328     897.73466471    
   2238.7852 119.60948707     966.68683419     898.00935330    
   2238.9376 119.92797702     966.16063993     896.31753383    
   2239.0900 119.88043525     966.00546978     892.70900757    
   2239.2424 120.21376633     968.25817748     890.92117707    
   2239.3948 120.20783043     968.04204806     896.61831392    
   2239.5472 120.21376374     970.34109280     894.19182615    
   2239.6996 120.21511739     969.93835773     896.29856997    
   2239.8520 120.20634665     966.12538332     896.07180252    
   2240.0044 119.97880258     968.92073304     894.37147045    
   2240.1568 119.17754566     970.08211378     892.22663654    
   2240.3092 118.42171925     972.16555404     898.23191362    
   2240.4616 119.03143303     974.91764466     900.25109399    
   2240.6140 119.73446282     977.43355734     905.54179916    
   2240.7664 120.43379898     978.68356116     904.66286197    
   2240.9188 121.13473013     980.75935317     904.93156984    
   2241.0712 121.48262142     980.51288501     909.70739395    
   2241.2236 121.57493169     979.60273958     915.77153324    
   2241.3760 121.66787599     987.55752819     923.63098569    
   2241.5284 121.68348619     995.30819870     925.30690843    
   2241.6808 121.44528658     1002.74311275    938.52658540    
   2241.8332 121.38608765     1006.79129064    943.74426181    
   2241.9856 121.52589388     1019.68582949    951.17739422    
   2242.1380 122.31340451     1027.28099899    949.11603456    
   2242.2904 122.38802738     1029.86575696    962.12462967    
   2242.4428 122.07927325     1027.89894076    964.34828330    
   2242.5952 121.74055828     1019.39412910    969.49152682    
   2242.7476 121.68982121     1015.75653994    968.30481495    
