~Version Information Block
 VERS.                2.00:     CWLS LOG ASCII STANDARD - VERSION 2.000000
 WRAP.                  NO:     One Line Per Depth Step
#
~Well Information Block
#MNEM.UNIT                     Data                         Information
#----------   ------------------------------------------   ----------------
 STRT.M                                      1900.0000:     START DEPTH
 STOP.M                                      2299.8976:     STOP DEPTH
 STEP.M                                         0.1524:     STEP
 NULL.                                       -999.2500:     NULL VALUE
 COMP.                                        Alphabow:     COMPANY
 WELL.                   SOC PINE CK 6-21-56-19 #97328:     WELL
 FLD .                                                :     FIELD
 LOC .                                                :     LOCATION
 CNTY.                                                :     COUNTY
 STAT.                                                :     STATE
 CTRY.                                                :     COUNTRY
 SRVC.                                                :     SERVICE COMPANY
 DATE.                                      03/29/2025:     DATE
 API .                                100062105619W500:     API NUMBER
 UWI .                                100062105619W500:     UWI NUMBER
 TVD .                                              NO:     TVD flag
 WSTA.                                             LOC:     Well status
#
~Curve Information Block
#MNEM.UNIT       API CODE      Curve Description
#----------    -------------   -------------------
 DEPT.M                    :   Depth in Meters
 SP  .MV       01 010 01 01:   Spontaneous Potential
 SFLU.OHMM     10 220 01 01:   SFL Resistivity (Unaveraged)
 ILD .OHMM     05 120 46 01:   Deep Induction Standard Processed Resistivity
#
~Parameter Information Block
#MNEM.UNIT            Value               Description
#----------    --------------------    -------------------
 RUN .                         ONE:    Run Number
 PDAT.                         UNK:    Permanent Datum
 EPD .M                 -9999.5000:    Elevation Of Perm. Datum
 WSTA.                         LOC:    
 E   .M                 -9999.5000:    E (Stretch Coefficient Of The Cable)
 TD  .M                  2300.0000:    Total Depth
#
~Other Information Block
<DescLogPlotStart>   NEURALOG PLOT DEFINITION
PLOTDEFVERSION: 3
LASFILE: C:\Users\wadet\Desktop\Alphabow Evaluation\well_info\second_white_spec
DEPTHSCALE: 240.000000
RESOLUTION: 200
DEPTHLABELFREQ: 50.000000
HEAVYGRIDFREQ: 50.000000
MEDIUMGRIDFREQ: 25.000000
LIGHTGRIDFREQ: 5.000000
#
#   TRACK 1
#
STARTTRACK: 
 LEFTX: 0.500000 inch
 RIGHTX: 3.000000 inch
 SCALETYPE: Linear
 NUMCHARTDIVISIONS: 10
CURVE: SP    0.000000   150.000000 (0,0,255)      Solid             2     N    
ENDTRACK: 
#
#   TRACK 2
#
STARTTRACK: 
 LEFTX: 3.500000 inch
 RIGHTX: 8.500000 inch
 SCALETYPE: Linear
 NUMCHARTDIVISIONS: 34
CURVE: SFLU  0.200000   2000.000000 (0,131,131)    Solid             2     N   
CURVE: ILD   0.200000   2000.000000 (255,0,255)    Dot               2     N   
ENDTRACK: 
<DescLogPlotEnd>
~A DEPTH     SP               SFLU             ILD             
# ...
   2281.0000 -999.25000000    1080.69664370    972.05089973    
   2281.1524 -999.25000000    1062.34746513    967.56415618    
   2281.3048 -999.25000000    1047.11029036    967.09739080    
   2281.4572 -999.25000000    1037.93356794    958.42151564    
   2281.6096 -999.25000000    1036.64748128    964.02421684    
   2281.7620 -999.25000000    1041.70967663    959.97159806    
   2281.9144 -999.25000000    1053.90394378    956.51803704    
   2282.0668 -999.25000000    1057.92245676    954.57457766    
   2282.2192 -999.25000000    1057.22908768    950.34203462    
   2282.3716 -999.25000000    1046.27135857    949.89874147    
   2282.5240 -999.25000000    1034.04725082    946.08655508    
   2282.6764 -999.25000000    1025.33967094    943.54506124    
   2282.8288 -999.25000000    1019.60299449    942.66173878    
   2282.9812 -999.25000000    1013.88604618    933.75155972    
   2283.1336 -999.25000000    1013.29575889    937.03772887    
   2283.2860 -999.25000000    1019.29724058    933.83107836    
   2283.4384 -999.25000000    1026.06337910    934.04707634    
   2283.5908 -999.25000000    1029.59860241    938.15975209    
   2283.7432 -999.25000000    1026.02116269    934.97783377    
   2283.8956 -999.25000000    1020.12027723    931.45540852    
   2284.0480 -999.25000000    1023.62345078    939.12546202    
   2284.2004 -999.25000000    1035.55218989    957.64461935    
   2284.3528 -999.25000000    1048.66447301    963.33898508    
   2284.5052 -999.25000000    1068.71057050    977.33675567    
   2284.6576 -999.25000000    1093.35728832    989.62136623    
   2284.8100 -999.25000000    1118.93720188    996.49675776    
   2284.9624 -999.25000000    1136.39501720    1005.71037956   
   2285.1148 -999.25000000    1140.64911429    1006.67044190   
   2285.2672 -999.25000000    1140.37096883    1018.19085665   
   2285.4196 -999.25000000    1136.16560235    1015.14921113   
   2285.5720 -999.25000000    1124.69468539    1011.40062113   
   2285.7244 -999.25000000    1108.90355006    1005.09336663   
   2285.8768 -999.25000000    1088.53510750    998.89428102    
   2286.0292 -999.25000000    1074.25651722    986.10396338    
   2286.1816 -999.25000000    1064.29217906    970.10622236    
   2286.3340 -999.25000000    1057.12401514    955.64422865    
   2286.4864 -999.25000000    1031.55310062    943.05713009    
   2286.6388 -999.25000000    999.78062085     932.35759909    
   2286.7912 -999.25000000    970.50693649     921.41773807    
   2286.9436 -999.25000000    958.20071486     920.94073337    
   2287.0960 -999.25000000    976.09257754     924.18215378    
   2287.2484 -999.25000000    1001.69059347    927.51307405    
   2287.4008 -999.25000000    1025.23543409    930.85546520    
   2287.5532 -999.25000000    1025.81093610    934.20116795    
   2287.7056 -999.25000000    1020.27148845    937.54508142    
   2287.8580 -999.25000000    1017.49775610    944.71706399    
   2288.0104 -999.25000000    1013.57596270    958.15529521    
   2288.1628 -999.25000000    1003.70301996    965.76585774    
   2288.3152 -999.25000000    1000.78083245    966.89535818    
   2288.4676 -999.25000000    1007.83586833    967.63305431    
   2288.6200 -999.25000000    1042.00722475    968.62462564    
   2288.7724 -999.25000000    1070.98533832    972.85073320    
   2288.9248 -999.25000000    1091.73307874    970.13954915    
   2289.0772 -999.25000000    1090.42070077    961.00480945    
   2289.2296 -999.25000000    1070.37136218    952.26382055    
   2289.3820 -999.25000000    1033.22738116    938.86387783    
   2289.5344 -999.25000000    990.45634757     923.71599750    
   2289.6868 -999.25000000    943.71697248     905.90151835    
   2289.8392 -999.25000000    883.23270356     892.00889340    
   2289.9916 -999.25000000    863.73983701     877.36567046    
   2290.1440 -999.25000000    844.70945250     863.17903431    
   2290.2964 -999.25000000    863.46372707     848.54429648    
   2290.4488 -999.25000000    867.74297199     835.78757735    
   2290.6012 -999.25000000    870.99100725     824.29048734    
   2290.7536 -999.25000000    868.06124572     819.48448320    
   2290.9060 -999.25000000    860.40260350     816.81581648    
   2291.0584 -999.25000000    853.62597666     823.20566184    
   2291.2108 -999.25000000    852.55324261     827.64366553    
   2291.3632 -999.25000000    864.12392210     831.34539753    
   2291.5156 -999.25000000    872.37342769     834.81715987    
   2291.6680 -999.25000000    883.97040149     839.05385744    
   2291.8204 -999.25000000    900.11199793     844.97084673    
   2291.9728 -999.25000000    912.75282309     845.08083231    
   2292.1252 -999.25000000    915.14504606     845.08404195    
   2292.2776 -999.25000000    903.36631232     845.01597595    
   2292.4300 -999.25000000    883.32362314     845.27601843    
   2292.5824 -999.25000000    841.23881757     849.09488168    
   2292.7348 -999.25000000    854.24346460     849.16561302    
   2292.8872 -999.25000000    876.17726385     849.38567586    
   2293.0396 -999.25000000    915.61755146     844.84678410    
   2293.1920 -999.25000000    928.78893848     840.88501726    
   2293.3444 -999.25000000    925.25981559     836.76320244    
   2293.4968 -999.25000000    917.57982664     839.30774186    
   2293.6492 -999.25000000    909.75530074     840.79755346    
   2293.8016 -999.25000000    895.01825922     840.96356181    
   2293.9540 -999.25000000    876.17259659     836.77326250    
   2294.1064 -999.25000000    868.34684354     831.77573771    
   2294.2588 -999.25000000    863.76810193     826.87734091    
   2294.4112 -999.25000000    864.63159004     824.87122564    
   2294.5636 -999.25000000    865.39659503     822.99991283    
   2294.7160 -999.25000000    866.45774124     818.40721404    
   2294.8684 -999.25000000    867.66013385     813.32197648    
   2295.0208 -999.25000000    868.85916196     808.10008717    
   2295.1732 -999.25000000    870.04630236     802.90718192    
   2295.3256 -999.25000000    871.25276300     797.95857520    
   2295.4780 -999.25000000    870.20484448     793.81102738    
   2295.6304 -999.25000000    867.57015379     797.09050433    
   2295.7828 -999.25000000    864.92848860     802.30591771    
   2295.9352 -999.25000000    863.59337875     805.14644544    
   2296.0876 -999.25000000    864.92894459     809.38653806    
   2296.2400 -999.25000000    867.77466148     813.36215114    
   2296.3924 -999.25000000    870.63706767     816.74358927    
   2296.5448 -999.25000000    870.78045264     818.26479142    
   2296.6972 -999.25000000    868.26787174     818.34825025    
   2296.8496 -999.25000000    865.77626002     816.90072239    
   2297.0020 -999.25000000    863.58940124     812.17663134    
   2297.1544 -999.25000000    863.57379698     809.39593307    
   2297.3068 -999.25000000    865.27412132     807.61388351    
   2297.4592 -999.25000000    868.88349760     806.37605635    
   2297.6116 -999.25000000    872.44203467     814.00341865    
   2297.7640 -999.25000000    875.98293616     814.38113180    
   2297.9164 -999.25000000    872.69933242     812.30856882    
   2298.0688 -999.25000000    869.39928932     809.80602535    
   2298.2212 -999.25000000    867.68457969     807.28806275    
   2298.3736 -999.25000000    867.68325637     804.69612827    
   2298.5260 -999.25000000    867.63820383     804.02376615    
   2298.6784 -999.25000000    867.59694415     803.97618190    
   2298.8308 -999.25000000    863.66903597     804.42331916    
   2298.9832 -999.25000000    861.15509178     805.96773816    
   2299.1356 -999.25000000    859.39894620     805.54774884    
   2299.2880 -999.25000000    859.48693211     803.06624031    
   2299.4404 -999.25000000    856.22576198     795.95612494    
   2299.5928 -999.25000000    856.22576198     795.96241058    
   2299.7452 -999.25000000    856.22576198     795.96241058    
   2299.8976 -999.25000000    856.22576198     795.96241058    
