~Version Information Block
 VERS.                2.00:     CWLS LOG ASCII STANDARD - VERSION 2.000000
 WRAP.                  NO:     One Line Per Depth Step
#
~Well Information Block
#MNEM.UNIT                     Data                         Information
#----------   ------------------------------------------   ----------------
 STRT.M                                      1800.0000:     START DEPTH
 STOP.M                                      2299.8720:     STOP DEPTH
 STEP.M                                         0.1524:     STEP
 NULL.                                       -999.2500:     NULL VALUE
 COMP.                                        Alphabow:     COMPANY
 WELL.                   ABE PINE CK 6-21-56-19 #97328:     WELL
 FLD .                                      Pine Creek:     FIELD
 LOC .                           100/06-21-056-19W5/00:     LOCATION
 CNTY.                                                :     COUNTY
 STAT.                                         Alberta:     STATE
 CTRY.                                          Canada:     COUNTRY
 SRVC.                                                :     SERVICE COMPANY
 DATE.                                      03/28/2025:     DATE
 API .                                100062105619W500:     API NUMBER
 UWI .                                100062105619W500:     UWI NUMBER
 TVD .                                              NO:     TVD flag
 WSTA.                                             LOC:     Well status
#
~Curve Information Block
#MNEM.UNIT       API CODE      Curve Description
#----------    -------------   -------------------
 DEPT.M                    :   Depth in Meters
 GR  .GAPI     35 310 01 01:   Gamma Ray
 CALI.mm       70 280 01 01:   Caliper
 RHOB.kg/m3     42 350 01 01:   Bulk Density
#
~Parameter Information Block
#MNEM.UNIT            Value               Description
#----------    --------------------    -------------------
 RUN .                         ONE:    Run Number
 PDAT.                         UNK:    Permanent Datum
 EPD .M                 -9999.5000:    Elevation Of Perm. Datum
 TD  .M                  2300.0000:    Total Depth
 WSTA.                         LOC:    
 LATB.M                     0.0000:    
 LONB.M                     0.0000:    
#
~Other Information Block
<DescLogPlotStart>   NEURALOG PLOT DEFINITION
PLOTDEFVERSION: 3
LASFILE: C:\Users\wadet\Desktop\Alphabow Evaluation\well_info\second_white_spec
DEPTHSCALE: 600.000000
RESOLUTION: 200
DEPTHLABELFREQ: 100.000000
HEAVYGRIDFREQ: 50.000000
MEDIUMGRIDFREQ: 25.000000
LIGHTGRIDFREQ: 25.000000
#
#   TRACK 1
#
STARTTRACK: 
 LEFTX: 0.500000 inch
 RIGHTX: 3.000000 inch
 SCALETYPE: Linear
 NUMCHARTDIVISIONS: 10
CURVE: GR    0.000000   150.000000 (0,0,255)      Solid             2     N    
CURVE: CALI  125.000000 375.000000 (0,131,131)    Dot               2     N    
ENDTRACK: 
#
#   TRACK 2
#
STARTTRACK: 
 LEFTX: 3.500000 inch
 RIGHTX: 8.500000 inch
 SCALETYPE: Linear
 NUMCHARTDIVISIONS: 17
CURVE: RHOB  2000.000000 3000.000000 (255,0,255)    Solid             2     N  
ENDTRACK: 
<DescLogPlotEnd>
~A DEPTH     GR               CALI             RHOB            
   1800.0000 100.86206897     273.83367140     2333.84932921   
   1800.1524 100.86206897     273.83367140     2333.84932921   
   1800.3048 100.86206897     273.83367140     2333.84932921   
   1800.4572 100.86206897     273.83367140     2333.84932921   
   1800.6096 100.86206897     273.83367140     2333.84932921   
   1800.7620 100.86206897     273.83367140     2333.84932921   
   1800.9144 100.86206897     273.83367140     2333.84932921   
   1801.0668 100.86206897     273.83367140     2333.84932921   
   1801.2192 102.10766531     272.44967546     2305.32887513   
   1801.3716 104.40757606     269.89421907     2224.45820433   
   1801.5240 106.70748682     267.33876268     2252.62110892   
   1801.6764 109.00739757     264.78330629     2285.94922601   
   1801.8288 109.15316393     262.22784990     2319.27734309   
   1801.9812 106.56323511     259.67239351     2352.60546017   
   1802.1336 106.43034429     259.25394271     2349.39808923   
   1802.2860 103.94454247     258.13111271     2385.73694859   
   1802.4384 101.41221629     258.12324530     2415.44845205   
   1802.5908 98.77246861      258.13103792     2429.59236594   
   1802.7432 95.72408117      258.12343082     2442.21309974   
   1802.8956 99.93105382      258.18510943     2422.44135309   
   1803.0480 103.61769541     258.36631284     2403.52260717   
   1803.2004 104.19048267     258.56090569     2384.46259080   
   1803.3528 105.73899557     258.74310921     2365.46392760   
   1803.5052 105.41322093     258.93633075     2346.43632349   
   1803.6576 105.42976812     259.11934134     2327.41780849   
   1803.8100 105.72457418     259.30898957     2308.36806617   
   1803.9624 105.73072320     259.49184545     2293.54773420   
   1804.1148 106.64133635     259.67995803     2304.58022707   
   1804.2672 108.46478410     259.86414723     2313.57385071   
   1804.4196 108.46624377     260.05118618     2322.63723541   
   1804.5720 106.63916667     260.13762331     2331.66951496   
   1804.7244 104.81633504     260.13776309     2340.68612178   
   1804.8768 103.59552450     260.13688412     2349.70272859   
   1805.0292 103.64486472     260.13707077     2358.71933540   
   1805.1816 103.76364029     260.13127812     2367.73594221   
   1805.3340 103.89775260     260.13645210     2376.75254902   
   1805.4864 104.20377007     260.12961157     2387.51289990   
   1805.6388 104.81682460     260.13725322     2364.79233967   
   1805.7912 105.72905950     259.95371575     2336.62429014   
   1805.9436 106.03629465     259.54098454     2308.45624060   
   1806.0960 106.03394937     259.09768810     2280.28819107   
   1806.2484 105.12892800     258.68650371     2252.12014153   
   1806.4008 103.60258388     258.24232067     2223.95209199   
   1806.5532 103.30675550     257.82886529     2195.78404246   
   1806.7056 103.60275575     257.38896432     2208.97832817   
   1806.8580 104.51707924     256.95599741     2239.93808050   
   1807.0104 104.81610654     256.53258222     2277.08978328   
   1807.1628 102.38580511     256.08175295     2310.11351909   
   1807.3152 99.95995196      255.60177592     2325.59339525   
   1807.4676 97.52327706      252.00119107     2360.68111455   
   1807.6200 96.01976249      251.06213455     2415.37667699   
   1807.7724 96.91076123      250.97077482     2458.72033024   
   1807.9248 100.58301865     249.56489496     2480.39215686   
   1808.0772 104.49940112     247.92179897     2438.08049536   
   1808.2296 106.05891082     248.05827458     2387.51289990   
   1808.3820 108.13487889     252.97418181     2343.13725490   
   1808.5344 109.40278202     254.13894117     2351.39318885   
   1808.6868 109.34042727     257.81670576     2372.03302374   
   1808.8392 108.49465524     259.77212197     2410.21671827   
   1808.9916 106.60372463     261.07690484     2430.85655315   
   1809.1440 104.24822719     257.15785548     2446.33642931   
   1809.2964 103.57214709     251.97655244     2433.95252838   
   1809.4488 104.25047978     252.07573340     2416.40866873   
   1809.6012 106.00331528     251.99649087     2409.18472652   
   1809.7536 107.58229590     251.04031325     2395.76883385   
   1809.9060 110.25496636     250.49470201     2393.70485036   
   1810.0584 110.45725127     250.51129356     2394.73684211   
   1810.2108 110.17847219     253.85215381     2378.84529205   
   1810.3632 110.00126610     256.56874474     2366.16259236   
   1810.5156 109.36764230     256.24554995     2353.45717234   
   1810.6680 107.26624087     256.05260620     2337.97729618   
   1810.8204 103.91146956     255.60277655     2327.65737874   
   1810.9728 103.01277395     255.03586961     2326.62538700   
   1811.1252 103.00679917     253.08597727     2323.52941176   
   1811.2776 104.22623198     252.50057814     2324.56140351   
   1811.4300 106.95434900     251.57105864     2345.20123839   
   1811.5824 110.29412335     250.97261145     2348.29721362   
   1811.7348 112.71798199     251.06685301     2362.53807585   
   1811.8872 113.33108540     250.96604401     2354.67598587   
   1812.0396 112.40755076     251.07324768     2330.63185123   
   1812.1920 109.99698753     251.46540466     2297.92770111   
   1812.3444 107.85110180     251.07440552     2268.81150593   
   1812.4968 107.57370202     250.94993905     2240.13668985   
   1812.6492 109.05954420     251.08301960     2218.36256256   
   1812.8016 111.22448241     250.95074205     2206.05382105   
   1812.9540 113.30581801     251.08398842     2203.99067582   
   1813.1064 115.17649861     251.45780416     2217.32410472   
   1813.2588 117.24611853     251.08279051     2229.82245535   
   1813.4112 118.82384893     254.49804489     2234.81553031   
   1813.5636 120.58326250     252.59360820     2225.75354195   
   1813.7160 120.34519045     250.96010417     2218.32645490   
   1813.8684 117.24136463     253.08944018     2219.62312103   
   1814.0208 113.36239790     255.02036317     2251.30620705   
   1814.1732 110.25589761     255.10334049     2292.64414635   
   1814.3256 106.67890746     255.03216247     2323.49512197   
   1814.4780 106.91584241     255.59798448     2323.55339342   
   1814.6304 108.49743408     253.09696068     2309.03636605   
   1814.7828 108.74262735     250.01734568     2305.98800121   
   1814.9352 108.71895824     249.99000660     2322.45318031   
   1815.0876 108.43377585     249.80444827     2336.92299322   
   1815.2400 108.18875288     249.48803898     2344.48480176   
   1815.3924 109.06215158     250.50984145     2353.61357382   
   1815.5448 109.09449391     251.00496017     2366.84488838   
   1815.6972 108.76878407     251.01564995     2381.25407089   
   1815.8496 107.87889176     251.01190724     2400.89297463   
   1816.0020 106.34794266     251.01912003     2426.62543439   
   1816.1544 104.83594662     251.01175349     2445.26645110   
   1816.3068 103.61195697     251.02677378     2453.45161594   
   1816.4592 102.70044564     251.01644541     2417.44066047   
   1816.6116 102.39342146     251.03210915     2354.48916409   
   1816.7640 103.60717877     251.01539535     2300.82559340   
   1816.9164 104.82450554     251.03453128     2266.76986584   
   1817.0688 107.25510515     251.01283122     2252.32198142   
   1817.2212 109.98757344     251.02836156     2266.76986584   
   1817.3736 111.20515537     251.01272670     2288.44169247   
   1817.5260 110.29126015     250.01758550     2314.24148607   
   1817.6784 107.86911918     248.48671002     2319.40144479   
   1817.8308 106.64726284     245.46218836     2310.11351909   
   1817.9832 107.26477928     245.45330566     2290.50567595   
   1818.1356 109.37974441     247.77302417     2268.83384933   
   1818.2880 110.30073322     250.53867272     2259.54592363   
   1818.4404 110.28348297     253.54897805     2281.21775026   
   1818.5928 109.99292498     254.57097711     2314.24148607   
   1818.7452 109.36922830     257.59407538     2368.93704850   
   1818.8976 109.69105077     259.64301657     2384.41692466   
