~Version Information Block
 VERS.                2.00:     CWLS LOG ASCII STANDARD - VERSION 2.000000
 WRAP.                  NO:     One Line Per Depth Step
#
~Well Information Block
#MNEM.UNIT                     Data                         Information
#----------   ------------------------------------------   ----------------
 STRT.M                                      1900.0000:     START DEPTH
 STOP.M                                      2299.8976:     STOP DEPTH
 STEP.M                                         0.1524:     STEP
 NULL.                                       -999.2500:     NULL VALUE
 COMP.                                        Alphabow:     COMPANY
 WELL.                   SOC PINE CK 6-21-56-19 #97328:     WELL
 FLD .                                                :     FIELD
 LOC .                                                :     LOCATION
 CNTY.                                                :     COUNTY
 STAT.                                                :     STATE
 CTRY.                                                :     COUNTRY
 SRVC.                                                :     SERVICE COMPANY
 DATE.                                      03/29/2025:     DATE
 API .                                100062105619W500:     API NUMBER
 UWI .                                100062105619W500:     UWI NUMBER
 TVD .                                              NO:     TVD flag
 WSTA.                                             LOC:     Well status
#
~Curve Information Block
#MNEM.UNIT       API CODE      Curve Description
#----------    -------------   -------------------
 DEPT.M                    :   Depth in Meters
 SP  .MV       01 010 01 01:   Spontaneous Potential
 SFLU.OHMM     10 220 01 01:   SFL Resistivity (Unaveraged)
 ILD .OHMM     05 120 46 01:   Deep Induction Standard Processed Resistivity
#
~Parameter Information Block
#MNEM.UNIT            Value               Description
#----------    --------------------    -------------------
 RUN .                         ONE:    Run Number
 PDAT.                         UNK:    Permanent Datum
 EPD .M                 -9999.5000:    Elevation Of Perm. Datum
 WSTA.                         LOC:    
 E   .M                 -9999.5000:    E (Stretch Coefficient Of The Cable)
 TD  .M                  2300.0000:    Total Depth
#
~Other Information Block
<DescLogPlotStart>   NEURALOG PLOT DEFINITION
PLOTDEFVERSION: 3
LASFILE: C:\Users\wadet\Desktop\Alphabow Evaluation\well_info\second_white_spec
DEPTHSCALE: 240.000000
RESOLUTION: 200
DEPTHLABELFREQ: 50.000000
HEAVYGRIDFREQ: 50.000000
MEDIUMGRIDFREQ: 25.000000
LIGHTGRIDFREQ: 5.000000
#
#   TRACK 1
#
STARTTRACK: 
 LEFTX: 0.500000 inch
 RIGHTX: 3.000000 inch
 SCALETYPE: Linear
 NUMCHARTDIVISIONS: 10
CURVE: SP    0.000000   150.000000 (0,0,255)      Solid             2     N    
ENDTRACK: 
#
#   TRACK 2
#
STARTTRACK: 
 LEFTX: 3.500000 inch
 RIGHTX: 8.500000 inch
 SCALETYPE: Linear
 NUMCHARTDIVISIONS: 34
CURVE: SFLU  0.200000   2000.000000 (0,131,131)    Solid             2     N   
CURVE: ILD   0.200000   2000.000000 (255,0,255)    Dot               2     N   
ENDTRACK: 
<DescLogPlotEnd>
~A DEPTH     SP               SFLU             ILD             
   1900.0000 123.57433809     901.59021644     863.56334702    
   1900.1524 123.66473363     908.43501444     863.56334702    
   1900.3048 123.96858613     915.27981244     862.19373725    
   1900.4572 124.27243863     920.70937723     859.27329010    
   1900.6096 124.49526711     919.10887642     857.11481898    
   1900.7620 124.82678679     917.00354306     855.05583341    
   1900.9144 125.92765432     916.93032017     853.54062067    
   1901.0668 127.03440442     917.01694191     852.02746317    
   1901.2192 127.93008707     913.53511870     851.24364991    
   1901.3716 128.53664966     908.71458506     850.94763961    
   1901.5240 128.73158873     903.86319242     849.43470957    
   1901.6764 129.07764423     899.01825311     847.95111220    
   1901.8288 129.41548796     894.73083056     847.18893877    
   1901.9812 129.98546655     890.50485141     847.18681061    
   1902.1336 130.72493164     886.34363614     852.14603857    
   1902.2860 131.56777420     881.34743603     859.59667217    
   1902.4384 132.35300899     879.39520625     869.09614508    
   1902.5908 133.66581957     888.28494953     879.15209742    
   1902.7432 134.17734399     913.98290199     889.00599270    
   1902.8956 134.82031150     947.77226287     903.14347160    
   1903.0480 135.23368289     985.12402205     914.64672214    
   1903.2004 136.32384575     1002.86069286    925.43902754    
   1903.3528 137.31630661     1007.81143446    931.21412738    
   1903.5052 137.69640716     1005.57523679    931.30051127    
   1903.6576 137.90669755     993.37282861     931.30310608    
   1903.8100 138.27380827     979.43503043     931.22790859    
   1903.9624 138.55248838     953.22538474     925.68517417    
   1904.1148 138.88586287     927.88383324     911.80637736    
   1904.2672 138.79191072     890.59455181     892.45365974    
   1904.4196 138.85235318     865.18764536     873.24586732    
   1904.5720 139.28230588     850.93876195     858.40482647    
   1904.7244 139.96927061     847.13180836     842.87989196    
   1904.8768 140.89871996     850.26362300     839.27739696    
   1905.0292 141.68350025     869.49640290     836.37475369    
   1905.1816 142.47863825     881.46939357     835.31283310    
   1905.3340 142.81071457     888.37865955     835.80651848    
   1905.4864 142.57480829     888.20299359     830.78331578    
   1905.6388 142.50679344     886.69753983     826.63203344    
   1905.7912 142.85146207     881.41060238     826.55571229    
   1905.9436 142.82720682     872.63530908     823.12307316    
   1906.0960 142.49326895     867.86075059     819.09075161    
   1906.2484 142.40628545     865.69982859     820.47207055    
   1906.4008 142.58151163     867.14106643     819.45824817    
   1906.5532 142.76338024     865.79160666     817.79106821    
   1906.7056 142.78414929     850.34401502     816.04960063    
   1906.8580 143.10264850     848.37208875     814.11667330    
   1907.0104 143.19953480     856.90318495     816.05644100    
   1907.1628 143.41010608     846.24084123     816.65153916    
   1907.3152 143.18489588     846.94129364     810.70028861    
   1907.4676 143.12804265     842.28642794     804.55822865    
   1907.6200 142.71560738     839.85683943     801.92258907    
   1907.7724 142.28548626     840.93390023     800.31389991    
   1907.9248 142.15648601     840.92205468     796.98791879    
   1908.0772 141.42244954     832.52523194     795.86547597    
   1908.2296 140.92244771     826.62171626     797.61744044    
   1908.3820 140.11560581     823.04082724     799.41538819    
   1908.5344 139.11233082     819.02148317     801.20277068    
   1908.6868 138.19514107     816.27635805     802.98149937    
   1908.8392 137.34094967     815.95336101     803.45164977    
   1908.9916 137.01547222     824.84821498     802.16439988    
   1909.1440 136.65545451     836.60628638     801.95879304    
   1909.2964 136.35634411     841.10421036     801.31763871    
   1909.4488 135.48360421     833.01847902     797.09473130    
   1909.6012 135.14067082     825.36433650     795.57087131    
   1909.7536 134.19506100     822.73311488     801.30944314    
   1909.9060 133.43204549     825.03996133     804.07202732    
   1910.0584 132.20535341     825.18217861     802.86693072    
   1910.2108 131.56186024     826.63953289     804.02955759    
   1910.3632 131.14827998     826.72327116     806.02121992    
   1910.5156 130.67661502     828.28829060     805.00602926    
   1910.6680 130.24017042     828.61173208     803.77701481    
   1910.8204 129.32443318     828.05664545     802.55816445    
   1910.9728 128.72649736     835.49944458     801.99008075    
   1911.1252 128.22136279     840.39684800     801.89291539    
   1911.2776 128.51067448     844.82267220     795.91094541    
   1911.4300 128.15243487     838.32430112     795.78053832    
   1911.5824 127.84223618     828.59727279     795.51019230    
   1911.7348 127.75832083     824.38388949     794.87475561    
   1911.8872 127.81873953     843.93151413     793.99129601    
   1912.0396 128.31923120     845.30770387     800.97646269    
   1912.1920 128.18861125     847.11354160     802.72534952    
   1912.3444 127.81632853     849.10525740     805.14804141    
   1912.4968 128.07945114     850.02502770     807.30924346    
   1912.6492 128.20318955     850.92487756     808.00098734    
   1912.8016 127.78253108     851.82869625     803.51402503    
   1912.9540 127.57967788     852.73008548     806.65988484    
   1913.1064 127.22552707     852.78887049     819.86691687    
   1913.2588 127.23938210     851.43658907     822.46486313    
   1913.4112 127.22569458     850.11260105     822.54891911    
   1913.5636 127.00267216     849.17367570     822.51489165    
   1913.7160 126.51769829     849.18846349     821.89172379    
   1913.8684 126.08466116     849.06425700     832.27167324    
   1914.0208 125.84888526     848.46945847     834.63145381    
   1914.1732 125.70242242     847.77442845     835.04711473    
   1914.3256 126.01320798     847.40504417     838.13680158    
   1914.4780 126.39172507     838.18613200     839.09856411    
   1914.6304 126.60063832     840.52476651     840.67034966    
   1914.7828 127.02623554     841.22306260     841.17808324    
   1914.9352 127.23427181     839.82428199     839.81373491    
   1915.0876 127.19378645     836.13271225     836.13271225    
   1915.2400 126.57843508     828.94298693     828.94298693    
   1915.3924 125.78191312     834.32454872     834.32454872    
   1915.5448 125.04860026     840.50138061     840.50138061    
   1915.6972 124.28940829     842.71800752     842.71800752    
   1915.8496 123.44888341     844.76631744     844.76631744    
   1916.0020 122.91526074     839.82230059     839.82230059    
   1916.1544 121.63582376     822.73209917     822.73209917    
   1916.3068 120.85611187     822.60445795     822.60445795    
   1916.4592 120.50087213     822.47238841     822.47238841    
   1916.6116 119.53855794     822.35060440     822.35060440    
   1916.7640 118.90459356     821.21100633     821.21100633    
   1916.9164 118.47136899     832.46476237     832.46476237    
   1917.0688 117.41303609     835.88905532     835.88905532    
   1917.2212 116.82750448     841.60509826     841.60509826    
   1917.3736 116.50086786     847.50239274     847.50239274    
   1917.5260 115.88545742     851.09752433     851.09752433    
   1917.6784 115.04148295     851.11076299     851.11076299    
   1917.8308 114.41920429     847.32464079     847.32464079    
   1917.9832 113.00575381     847.10453383     847.10453383    
   1918.1356 112.21178472     849.74328540     849.74328540    
   1918.2880 111.31248600     845.65215045     845.65215045    
   1918.4404 110.44152449     845.46789632     845.46789632    
   1918.5928 109.18842503     850.67145269     850.67145269    
   1918.7452 108.03850932     840.10215528     840.10215528    
   1918.8976 106.88973292     826.94526138     826.94526138    
