~Version Information Block
 VERS.                2.00:     CWLS LOG ASCII STANDARD - VERSION 2.000000
 WRAP.                  NO:     One Line Per Depth Step
#
~Well Information Block
#MNEM.UNIT                     Data                         Information
#----------   ------------------------------------------   ----------------
 STRT.M                                      1900.0000:     START DEPTH
 STOP.M                                      2299.8976:     STOP DEPTH
 STEP.M                                         0.1524:     STEP
 NULL.                                       -999.2500:     NULL VALUE
 COMP.                                        Alphabow:     COMPANY
 WELL.                   SOC PINE CK 6-21-56-19 #97328:     WELL
 FLD .                                                :     FIELD
 LOC .                                                :     LOCATION
 CNTY.                                                :     COUNTY
 STAT.                                                :     STATE
 CTRY.                                                :     COUNTRY
 SRVC.                                                :     SERVICE COMPANY
 DATE.                                      03/29/2025:     DATE
 API .                                100062105619W500:     API NUMBER
 UWI .                                100062105619W500:     UWI NUMBER
 TVD .                                              NO:     TVD flag
 WSTA.                                             LOC:     Well status
#
~Curve Information Block
#MNEM.UNIT       API CODE      Curve Description
#----------    -------------   -------------------
 DEPT.M                    :   Depth in Meters
 SP  .MV       01 010 01 01:   Spontaneous Potential
 SFLU.OHMM     10 220 01 01:   SFL Resistivity (Unaveraged)
 ILD .OHMM     05 120 46 01:   Deep Induction Standard Processed Resistivity
#
~Parameter Information Block
#MNEM.UNIT            Value               Description
#----------    --------------------    -------------------
 RUN .                         ONE:    Run Number
 PDAT.                         UNK:    Permanent Datum
 EPD .M                 -9999.5000:    Elevation Of Perm. Datum
 WSTA.                         LOC:    
 E   .M                 -9999.5000:    E (Stretch Coefficient Of The Cable)
 TD  .M                  2300.0000:    Total Depth
#
~Other Information Block
<DescLogPlotStart>   NEURALOG PLOT DEFINITION
PLOTDEFVERSION: 3
LASFILE: C:\Users\wadet\Desktop\Alphabow Evaluation\well_info\second_white_spec
DEPTHSCALE: 240.000000
RESOLUTION: 200
DEPTHLABELFREQ: 50.000000
HEAVYGRIDFREQ: 50.000000
MEDIUMGRIDFREQ: 25.000000
LIGHTGRIDFREQ: 5.000000
#
#   TRACK 1
#
STARTTRACK: 
 LEFTX: 0.500000 inch
 RIGHTX: 3.000000 inch
 SCALETYPE: Linear
 NUMCHARTDIVISIONS: 10
CURVE: SP    0.000000   150.000000 (0,0,255)      Solid             2     N    
ENDTRACK: 
#
#   TRACK 2
#
STARTTRACK: 
 LEFTX: 3.500000 inch
 RIGHTX: 8.500000 inch
 SCALETYPE: Linear
 NUMCHARTDIVISIONS: 34
CURVE: SFLU  0.200000   2000.000000 (0,131,131)    Solid             2     N   
CURVE: ILD   0.200000   2000.000000 (255,0,255)    Dot               2     N   
ENDTRACK: 
<DescLogPlotEnd>
~A DEPTH     SP               SFLU             ILD             
# ...
   2052.4000 105.24126011     1086.32296481    1069.90679918   
   2052.5524 104.85082567     1158.27764787    1082.64183438   
   2052.7048 104.33732742     1198.23691281    1085.69929274   
   2052.8572 104.35576263     1196.31805152    1087.35532847   
   2053.0096 104.36909182     1167.73635518    1081.10809185   
   2053.1620 104.55222031     1154.87561192    1078.14807329   
   2053.3144 104.75371140     1179.52811876    1075.19640471   
   2053.4668 104.93375879     1190.50462213    1072.94415970   
   2053.6192 105.23577077     1165.61110197    1066.63462544   
   2053.7716 105.87427942     1096.56421942    1058.40993409   
   2053.9240 106.24894696     1068.26835135    1056.79807189   
   2054.0764 106.17487044     1066.26677241    1050.18554093   
   2054.2288 107.07000453     1075.65854008    1046.82911232   
   2054.3812 107.31195562     1085.06855828    1043.47858443   
   2054.5336 107.91965709     1086.09615764    1034.94839093   
   2054.6860 108.62886014     1077.95271834    1023.49534510   
   2054.8384 109.14227664     1060.49847317    1014.72736535   
   2054.9908 109.50392598     1045.90997687    1003.33786225   
   2055.1432 109.22511063     1042.16175674    995.80595508    
   2055.2956 109.18847040     1051.87449473    988.32829918    
   2055.4480 109.52825591     1052.64837792    982.43493582    
   2055.6004 109.84453334     1039.75057672    980.74868977    
   2055.7528 110.13045435     1021.41883066    970.17236901    
   2055.9052 110.49553661     1007.06434620    965.63255332    
   2056.0576 111.12107221     1001.29184579    964.46208139    
   2056.2100 111.75785807     1001.07560061    964.89814551    
   2056.3624 112.18274654     999.43113480     965.37614201    
   2056.5148 112.79532626     1001.65960079    965.86833118    
   2056.6672 113.15775754     1012.20473784    966.35702522    
   2056.8196 113.46103195     1025.81376386    966.84935130    
   2056.9720 113.83061329     1031.98664134    967.28006310    
   2057.1244 114.07593584     1027.67336455    967.69558494    
   2057.2768 114.64207402     1017.40919052    969.47108303    
   2057.4292 115.24184829     1013.30049237    974.15916373    
   2057.5816 115.97048417     1019.68972808    974.51880994    
   2057.7340 116.27479218     1027.60135591    974.88459866    
   2057.8864 116.24452259     1025.72557325    975.21671343    
   2058.0388 116.22428700     1021.58142246    975.56698640    
   2058.1912 115.99729143     1015.39605364    975.91708918    
   2058.3436 115.96967035     1017.09844612    976.26604284    
   2058.4960 115.23261206     1019.89325969    976.49088555    
   2058.6484 114.78575054     1017.07007799    976.47578401    
   2058.8008 113.53744657     1009.83928060    976.50717588    
   2058.9532 112.50058733     1002.74752073    976.87002103    
   2059.1056 111.98958115     1004.84597221    981.78458521    
   2059.2580 111.62735668     1014.19737461    990.95059355    
   2059.4104 111.65435424     1021.19180654    992.11207306    
   2059.5628 111.67485100     1024.00719212    990.90314084    
   2059.7152 111.84811538     1029.60145588    989.52764977    
   2059.8676 112.30275665     1029.63063163    991.54501845    
   2060.0200 112.27466813     1030.27646164    999.00743353    
   2060.1724 112.25207537     1025.08319391    997.58681581    
   2060.3248 112.78689156     1013.76098510    993.82038898    
   2060.4772 113.57916268     1004.47984591    990.10585684    
   2060.6296 114.18843295     1010.37800197    987.04298487    
   2060.7820 114.60607088     1013.84081876    992.51633594    
   2060.9344 115.08194770     1016.27183923    995.23101141    
   2061.0868 115.51764896     1022.93738996    993.09908696    
   2061.2392 115.65462080     1029.28030757    988.23203101    
   2061.3916 115.32674998     1035.65370322    988.82802287    
   2061.5440 114.99511467     1036.06571365    987.37710624    
   2061.6964 115.01657981     1031.18049728    984.99247007    
   2061.8488 115.02013996     1022.10309724    982.59619673    
   2062.0012 115.02463676     1015.03349372    980.17149574    
   2062.1536 115.05198837     1013.29756311    978.89594055    
   2062.3060 114.71921869     1017.52153363    977.63865584    
   2062.4584 114.71921869     1019.51237633    975.34849160    
   2062.6108 115.05198837     1017.23766349    972.86014039    
   2062.7632 115.02424171     1009.00863997    972.42355381    
   2062.9156 115.01973589     1001.09263463    972.31900017    
   2063.0680 115.02024110     998.25179265     968.01361874    
   2063.2204 115.00902265     993.58114076     958.78906709    
   2063.3728 114.78336069     992.66127329     954.88044636    
   2063.5252 114.65494561     991.41018879     951.97107899    
   2063.6776 114.36721682     992.81398745     951.85228151    
   2063.8300 114.12943990     992.81853161     947.54338675    
   2063.9824 114.66444535     991.27151251     948.01583252    
   2064.1348 114.48150665     988.97705264     947.23130058    
   2064.2872 114.08498265     984.30487307     944.13770345    
   2064.4396 113.58798914     981.62551376     941.30556150    
   2064.5920 112.81103284     976.61924072     939.68607160    
   2064.7444 111.99962000     973.53134898     935.46759131    
   2064.8968 110.82416334     970.84344791     935.44428076    
   2065.0492 109.93506573     968.49283385     933.78254172    
   2065.2016 109.31158930     972.93750129     931.34880057    
   2065.3540 108.61014418     977.53452983     933.29566179    
   2065.5064 107.99676855     982.09134295     928.74873922    
   2065.6588 107.63050000     983.14734274     929.31922621    
   2065.8112 107.42168842     979.69692723     931.25715368    
   2065.9636 107.63494791     976.27735306     929.60848185    
   2066.1160 107.34136721     972.86956436     929.26533219    
   2066.2684 107.09145903     972.28022706     929.38792159    
   2066.4208 107.38384501     969.63874043     925.12244335    
   2066.5732 108.30649020     966.95445231     923.59980609    
   2066.7256 109.61109865     966.23961954     924.66171196    
   2066.8780 110.75041030     965.57118519     920.95544075    
   2067.0304 111.51388501     964.83979066     920.97130616    
   2067.1828 112.27234976     964.16323030     919.01103645    
   2067.3352 112.56606481     964.26965187     917.10005390    
   2067.4876 112.58162903     967.00901027     918.41670138    
   2067.6400 112.58325634     969.75896127     917.21844000    
   2067.7924 112.52081346     972.49060697     916.80115464    
   2067.9448 112.29510440     975.22842720     920.79651757    
   2068.0972 111.71191542     976.88975816     921.29002241    
   2068.2496 111.32876914     977.61769551     926.95934308    
   2068.4020 111.04245519     978.17301804     935.10815445    
   2068.5544 110.68423797     985.62470599     942.20381588    
   2068.7068 110.14381307     995.17914089     956.39234145    
   2068.8592 109.60365158     1007.87996446    975.26721590    
   2069.0116 109.17006523     1042.84281767    996.47204449    
   2069.1640 108.94347255     1111.12962107    1004.99320067   
   2069.3164 108.59846362     1154.55578482    1006.37214040   
   2069.4688 108.92453108     1167.29559343    1016.59353419   
   2069.6212 109.44944732     1141.98741722    1025.94598429   
   2069.7736 110.08761812     1114.15760153    1037.59949542   
   2069.9260 110.39662048     1117.98728866    1040.25524251   
   2070.0784 110.02111006     1123.25168023    1042.43662364   
   2070.2308 109.81232287     1118.38449515    1025.93211301   
   2070.3832 109.58652947     1117.34941897    1048.33193074   
   2070.5356 109.21371437     1154.42190661    1058.44134808   
   2070.6880 108.92091367     1200.72878887    1060.73897168   
   2070.8404 108.36998065     1223.19662526    1060.10451830   
   2070.9928 108.26154371     1188.80309798    1071.71238433   
   2071.1452 107.42141643     1169.62445930    1079.04508996   
   2071.2976 107.34862314     1182.88752798    1076.46372890   
