~Version Information Block
 VERS.                2.00:     CWLS LOG ASCII STANDARD - VERSION 2.000000
 WRAP.                  NO:     One Line Per Depth Step
#
~Well Information Block
#MNEM.UNIT                     Data                         Information
#----------   ------------------------------------------   ----------------
 STRT.M                                      1800.0000:     START DEPTH
 STOP.M                                      2299.8720:     STOP DEPTH
 STEP.M                                         0.1524:     STEP
 NULL.                                       -999.2500:     NULL VALUE
 COMP.                                        Alphabow:     COMPANY
 WELL.                   ABE PINE CK 6-21-56-19 #97328:     WELL
 FLD .                                      Pine Creek:     FIELD
 LOC .                           100/06-21-056-19W5/00:     LOCATION
 CNTY.                                                :     COUNTY
 STAT.                                         Alberta:     STATE
 CTRY.                                          Canada:     COUNTRY
 SRVC.                                                :     SERVICE COMPANY
 DATE.                                      03/28/2025:     DATE
 API .                                100062105619W500:     API NUMBER
 UWI .                                100062105619W500:     UWI NUMBER
 TVD .                                              NO:     TVD flag
 WSTA.                                             LOC:     Well status
#
~Curve Information Block
#MNEM.UNIT       API CODE      Curve Description
#----------    -------------   -------------------
 DEPT.M                    :   Depth in Meters
 GR  .GAPI     35 310 01 01:   Gamma Ray
 CALI.mm       70 280 01 01:   Caliper
 RHOB.kg/m3     42 350 01 01:   Bulk Density
#
~Parameter Information Block
#MNEM.UNIT            Value               Description
#----------    --------------------    -------------------
 RUN .                         ONE:    Run Number
 PDAT.                         UNK:    Permanent Datum
 EPD .M                 -9999.5000:    Elevation Of Perm. Datum
 TD  .M                  2300.0000:    Total Depth
 WSTA.                         LOC:    
 LATB.M                     0.0000:    
 LONB.M                     0.0000:    
#
~Other Information Block
<DescLogPlotStart>   NEURALOG PLOT DEFINITION
PLOTDEFVERSION: 3
LASFILE: C:\Users\wadet\Desktop\Alphabow Evaluation\well_info\second_white_spec
DEPTHSCALE: 600.000000
RESOLUTION: 200
DEPTHLABELFREQ: 100.000000
HEAVYGRIDFREQ: 50.000000
MEDIUMGRIDFREQ: 25.000000
LIGHTGRIDFREQ: 25.000000
#
#   TRACK 1
#
STARTTRACK: 
 LEFTX: 0.500000 inch
 RIGHTX: 3.000000 inch
 SCALETYPE: Linear
 NUMCHARTDIVISIONS: 10
CURVE: GR    0.000000   150.000000 (0,0,255)      Solid             2     N    
CURVE: CALI  125.000000 375.000000 (0,131,131)    Dot               2     N    
ENDTRACK: 
#
#   TRACK 2
#
STARTTRACK: 
 LEFTX: 3.500000 inch
 RIGHTX: 8.500000 inch
 SCALETYPE: Linear
 NUMCHARTDIVISIONS: 17
CURVE: RHOB  2000.000000 3000.000000 (255,0,255)    Solid             2     N  
ENDTRACK: 
<DescLogPlotEnd>
~A DEPTH     GR               CALI             RHOB            
# ...
   1933.3500 111.50510137     258.18387617     2405.39215686   
   1933.5024 109.68582921     248.26097799     2420.25469556   
   1933.6548 107.86300925     241.47027965     2472.13622291   
   1933.8072 106.95524600     239.37837126     2488.64809082   
   1933.9596 108.16799966     238.42471645     2520.63983488   
   1934.1120 110.60323463     238.30601161     2536.11971104   
   1934.2644 113.33007720     238.40730703     2544.37564499   
   1934.4168 116.68065199     238.83273997     2553.66357069   
   1934.5692 117.27653063     238.39268582     2552.50563274   
   1934.7216 114.86493298     236.32144677     2555.59363000   
   1934.8740 114.02261448     235.84375360     2562.81155165   
   1935.0264 113.57631172     235.26951652     2568.98112433   
   1935.1788 113.01691126     234.67884005     2575.35434235   
   1935.3312 113.66035823     234.31056144     2581.44416911   
   1935.4836 112.70235693     234.29301490     2583.48388703   
   1935.6360 109.10196863     233.29401651     2578.41136242   
   1935.7884 105.70341532     232.24927984     2575.24398277   
   1935.9408 103.33054120     231.25543505     2573.26496210   
   1936.0932 103.26847738     230.72038688     2574.25854711   
   1936.2456 104.24496535     230.74582537     2579.47804217   
   1936.3980 104.48448241     230.20984668     2585.62971927   
   1936.5504 104.24801720     230.23930961     2587.73491146   
   1936.7028 105.40158298     230.20913582     2588.72180787   
   1936.8552 107.28881037     230.23991211     2588.79100666   
   1937.0076 111.17791601     230.20936601     2595.90348796   
   1937.1600 113.96626028     229.72832575     2604.25328021   
   1937.3124 115.73938423     229.19953725     2609.31696130   
   1937.4648 115.17595308     228.20353713     2617.64998948   
   1937.6172 113.00958891     227.68579434     2617.56644890   
   1937.7696 110.00665791     225.15802735     2609.40665864   
   1937.9220 106.02405007     225.16179647     2603.13293417   
   1938.0744 103.61617179     225.14843611     2596.00449304   
   1938.2268 102.98437128     225.16989373     2597.97689438   
   1938.3792 104.22082709     226.65615740     2609.41014651   
   1938.5316 105.42191597     225.17823566     2622.70979072   
   1938.6840 105.43889412     224.62731581     2631.05647437   
   1938.8364 105.12151640     223.66354017     2623.74575655   
   1938.9888 105.13245304     223.60882267     2611.48215171   
   1939.1412 105.42777686     223.66703753     2607.27167476   
   1939.2936 105.43728000     223.60666120     2608.38537098   
   1939.4460 106.65264377     223.66732124     2614.51290451   
   1939.5984 107.26210463     223.61035890     2614.56150151   
   1939.7508 107.56907742     223.65998809     2612.47475852   
   1939.9032 107.47617961     223.61285863     2608.36469187   
   1940.0556 106.88704253     223.65425798     2602.40295553   
   1940.2080 106.33007388     223.61642670     2597.07981879   
   1940.3604 105.13218144     223.64450874     2595.02336030   
   1940.5128 105.41021702     224.63927613     2599.02952195   
   1940.6652 107.56492815     225.15368415     2604.29460109   
   1940.8176 110.87768746     226.17235728     2608.27582329   
   1940.9700 113.03715889     226.65926286     2605.36400437   
   1941.1224 113.91714264     226.18424816     2604.16256145   
   1941.2748 113.34346364     225.12394422     2605.38742405   
   1941.4272 112.70201447     225.69101100     2609.28818830   
   1941.5796 112.73359103     225.11444471     2611.56781570   
   1941.7320 113.61295038     225.19455045     2613.39646549   
   1941.8844 114.25548244     227.63215678     2613.65679121   
   1942.0368 113.31246054     224.69761334     2608.24587347   
   1942.1892 111.82737959     224.59109721     2606.45973565   
   1942.3416 109.35958663     225.71375777     2617.50099319   
   1942.4940 106.66112782     225.09611579     2633.25161689   
   1942.6464 105.40378661     224.69744307     2641.19429547   
   1942.7988 104.53404704     225.10136738     2630.17631926   
   1942.9512 104.78887710     225.19811195     2611.32160212   
   1943.1036 104.53995983     226.12345105     2596.19678622   
   1943.2560 104.79569413     226.20667904     2595.88354738   
   1943.4084 106.68047473     226.64062388     2605.42515975   
   1943.5608 108.14079441     225.18564518     2618.55108444   
   1943.7132 108.19835184     225.12704204     2620.86037651   
   1943.8656 106.62232380     227.71281922     2616.54417276   
   1944.0180 105.76082773     225.90078294     2612.57453629   
   1944.1704 107.24146531     223.65905139     2619.69115893   
   1944.3228 108.18169149     224.61960404     2626.96146484   
   1944.4752 109.68408974     226.19050715     2632.06728582   
   1944.6276 107.55464268     226.64205395     2632.05524158   
   1944.7800 106.05857932     225.68914828     2630.02503850   
   1944.9324 104.20373911     225.12071187     2639.97119550   
   1945.0848 102.42936912     225.18372625     2645.53859264   
   1945.2372 100.55008246     225.12042119     2650.98381320   
   1945.3896 98.47842589      225.18302678     2661.73645864   
   1945.5420 103.56745081     227.65631788     2666.06491397   
   1945.6944 107.60023611     228.21685479     2646.52209006   
   1945.8468 110.56094399     228.67581311     2633.11340490   
   1945.9992 110.33491099     228.71142656     2638.26092917   
   1946.1516 109.35131684     228.41220778     2645.50897281   
   1946.3040 108.49644363     226.18945990     2654.71967289   
   1946.4564 109.36150771     223.63475083     2655.84261072   
   1946.6088 110.30789398     223.62807708     2650.57839325   
   1946.7612 109.98491669     224.14954699     2638.34772082   
   1946.9136 109.07971795     224.63474280     2616.55810793   
   1947.0660 106.10889909     224.66376233     2601.26713343   
   1947.2184 104.51110011     225.63850212     2605.22174972   
   1947.3708 103.91638881     225.17161844     2613.65001290   
   1947.5232 105.72528807     225.13258671     2627.88705884   
   1947.6756 107.56110415     225.18351674     2638.37901645   
   1947.8280 110.89273488     225.14687117     2643.35254340   
   1947.9804 113.34040259     225.67171408     2644.55114520   
   1948.1328 115.15854012     225.15344291     2639.19678700   
   1948.2852 117.29096094     224.64692713     2633.18347542   
   1948.4376 115.15944615     225.17190642     2631.99404219   
   1948.5900 113.94408775     225.63462382     2634.23301640   
   1948.7424 112.72730111     227.72963805     2638.18959310   
   1948.8948 113.03093208     227.62243998     2635.29309875   
   1949.0472 113.63545543     225.74107323     2630.99137661   
   1949.1996 111.51009960     226.06593798     2631.14244263   
   1949.3520 109.68099852     226.28635029     2638.18274076   
   1949.5044 108.16746019     224.51054378     2645.53422047   
   1949.6568 109.67873641     224.29570696     2644.38640112   
   1949.8092 111.81414687     224.98760220     2633.14255031   
   1949.9616 113.77358282     233.65648324     2624.68394275   
   1950.1140 115.77197323     241.68076535     2616.24115998   
   1950.2664 117.75433499     228.88278377     2607.78030440   
   1950.4188 119.72268464     228.51780333     2599.25686143   
   1950.5712 119.71838105     228.36655171     2590.85514295   
   1950.7236 118.81244987     228.02778512     2592.84377514   
   1950.8760 117.58973874     228.34331800     2602.29214873   
   1951.0284 116.68592886     228.05820892     2612.36805499   
   1951.1808 114.55026534     228.31282478     2623.97955178   
   1951.3332 112.13239679     228.09372700     2632.93919911   
   1951.4856 110.29582908     228.27359728     2633.28595262   
   1951.6380 109.09443237     228.12222881     2632.91965486   
   1951.7904 110.28835515     228.22507445     2634.35229500   
   1951.9428 111.52709507     228.13480677     2633.94938196   
   1952.0952 111.80691291     228.18508204     2619.92962260   
   1952.2476 110.92213596     228.14042297     2612.29800163   
