~Version Information Block
 VERS.                2.00:     CWLS LOG ASCII STANDARD - VERSION 2.000000
 WRAP.                  NO:     One Line Per Depth Step
#
~Well Information Block
#MNEM.UNIT                     Data                         Information
#----------   ------------------------------------------   ----------------
 STRT.M                                      1900.0000:     START DEPTH
 STOP.M                                      2299.8976:     STOP DEPTH
 STEP.M                                         0.1524:     STEP
 NULL.                                       -999.2500:     NULL VALUE
 COMP.                                        Alphabow:     COMPANY
 WELL.                   SOC PINE CK 6-21-56-19 #97328:     WELL
 FLD .                                                :     FIELD
 LOC .                                                :     LOCATION
 CNTY.                                                :     COUNTY
 STAT.                                                :     STATE
 CTRY.                                                :     COUNTRY
 SRVC.                                                :     SERVICE COMPANY
 DATE.                                      03/29/2025:     DATE
 API .                                100062105619W500:     API NUMBER
 UWI .                                100062105619W500:     UWI NUMBER
 TVD .                                              NO:     TVD flag
 WSTA.                                             LOC:     Well status
#
~Curve Information Block
#MNEM.UNIT       API CODE      Curve Description
#----------    -------------   -------------------
 DEPT.M                    :   Depth in Meters
 SP  .MV       01 010 01 01:   Spontaneous Potential
 SFLU.OHMM     10 220 01 01:   SFL Resistivity (Unaveraged)
 ILD .OHMM     05 120 46 01:   Deep Induction Standard Processed Resistivity
#
~Parameter Information Block
#MNEM.UNIT            Value               Description
#----------    --------------------    -------------------
 RUN .                         ONE:    Run Number
 PDAT.                         UNK:    Permanent Datum
 EPD .M                 -9999.5000:    Elevation Of Perm. Datum
 WSTA.                         LOC:    
 E   .M                 -9999.5000:    E (Stretch Coefficient Of The Cable)
 TD  .M                  2300.0000:    Total Depth
#
~Other Information Block
<DescLogPlotStart>   NEURALOG PLOT DEFINITION
PLOTDEFVERSION: 3
LASFILE: C:\Users\wadet\Desktop\Alphabow Evaluation\well_info\second_white_spec
DEPTHSCALE: 240.000000
RESOLUTION: 200
DEPTHLABELFREQ: 50.000000
HEAVYGRIDFREQ: 50.000000
MEDIUMGRIDFREQ: 25.000000
LIGHTGRIDFREQ: 5.000000
#
#   TRACK 1
#
STARTTRACK: 
 LEFTX: 0.500000 inch
 RIGHTX: 3.000000 inch
 SCALETYPE: Linear
 NUMCHARTDIVISIONS: 10
CURVE: SP    0.000000   150.000000 (0,0,255)      Solid             2     N    
ENDTRACK: 
#
#   TRACK 2
#
STARTTRACK: 
 LEFTX: 3.500000 inch
 RIGHTX: 8.500000 inch
 SCALETYPE: Linear
 NUMCHARTDIVISIONS: 34
CURVE: SFLU  0.200000   2000.000000 (0,131,131)    Solid             2     N   
CURVE: ILD   0.200000   2000.000000 (255,0,255)    Dot               2     N   
ENDTRACK: 
<DescLogPlotEnd>
~A DEPTH     SP               SFLU             ILD             
# ...
   1957.1500 117.80891892     855.61794139     855.61794139    
   1957.3024 117.77587636     867.89890023     867.89890023    
   1957.4548 118.00678037     880.12654979     880.12654979    
   1957.6072 118.53424273     892.28127658     892.28127658    
   1957.7596 119.28674451     906.03036660     906.03036660    
   1957.9120 119.11227371     915.98010599     915.98010599    
   1958.0644 119.29024488     925.92267517     925.92267517    
   1958.2168 119.34536977     933.13600958     933.13600958    
   1958.3692 118.79818814     941.47016068     941.47016068    
   1958.5216 117.87102774     945.37990730     945.37990730    
   1958.6740 117.76426157     948.01323185     948.01323185    
   1958.8264 117.42906660     953.41391356     953.41391356    
   1958.9788 117.45723473     953.89621866     953.89621866    
   1959.1312 117.16331940     951.34527013     951.34527013    
   1959.2836 117.05873106     948.29319267     948.29319267    
   1959.4360 117.22702716     945.59503192     945.59503192    
   1959.5884 117.50997439     941.50487288     941.50487288    
   1959.7408 117.76809465     938.01392301     938.01392301    
   1959.8932 118.34357078     935.76753885     935.76753885    
   1960.0456 118.96763552     935.33877184     935.33877184    
   1960.1980 119.34501162     933.14303939     933.14303939    
   1960.3504 118.90545297     931.11659245     931.11659245    
   1960.5028 118.05049132     931.51577914     931.51577914    
   1960.6552 117.81097967     929.23007830     929.23007830    
   1960.8076 117.98012417     927.67870144     927.67870144    
   1960.9600 119.05094808     929.07856312     929.07856312    
   1961.1124 119.48984609     927.48648348     927.48477738    
   1961.2648 119.90177747     924.62672243     924.62534708    
   1961.4172 120.21106913     917.07243407     917.08784898    
   1961.5696 120.16909679     914.54794168     914.46360602    
   1961.7220 120.59573545     913.16155087     908.57823246    
   1961.8744 121.05700602     908.69605105     902.63720148    
   1962.0268 121.43032034     920.74531973     900.32297040    
   1962.1792 122.09516305     924.96851494     897.89550706    
   1962.3316 122.29984412     925.15227424     897.62707558    
   1962.4840 122.35696525     925.17082149     903.34566065    
   1962.6364 122.70649676     927.86854657     908.89547543    
   1962.7888 122.63280848     935.72842464     914.63669629    
   1962.9412 122.41026432     944.97675684     918.48830904    
   1963.0936 122.64512657     951.59210852     913.89189218    
   1963.2460 122.94415414     953.41258540     909.42603243    
   1963.3984 122.96249550     950.05485317     907.93672773    
   1963.5508 122.62860516     943.90485079     904.80353856    
   1963.7032 122.65789790     936.94672255     904.11656872    
   1963.8556 122.65840935     933.26263805     902.81910232    
   1964.0080 122.91025857     932.41699737     902.15236874    
   1964.1604 122.85199014     925.42311597     899.00173734    
   1964.3128 122.71393321     919.43772146     894.70109372    
   1964.4652 122.27791368     914.60781356     896.48952601    
   1964.6176 121.82617982     914.71707722     894.89497747    
   1964.7700 121.77133272     918.92403799     896.27136501    
   1964.9224 121.37125753     912.01314572     908.54126426    
   1965.0748 121.17007562     920.15300227     920.56163758    
   1965.2272 121.37383435     946.67027139     946.81890438    
   1965.3796 121.77039463     963.82930764     963.81696120    
   1965.5320 121.53960131     976.03213701     976.03213701    
   1965.6844 121.06129736     982.76580040     982.76580040    
   1965.8368 120.84083952     989.43714087     989.43714087    
   1965.9892 120.82372372     995.63745603     995.63745603    
   1966.1416 120.82960952     998.45404676     998.45404676    
   1966.2940 120.85903487     993.75971196     993.75971196    
   1966.4464 120.46875297     981.61835765     981.61835765    
   1966.5988 119.84360274     978.74691407     978.74691407    
   1966.7512 119.55296748     989.15829137     989.15829137    
   1966.9036 119.31185847     997.33472892     997.33472892    
   1967.0560 119.30078632     1004.76975434    1004.76975434   
   1967.2084 119.29536014     1007.74583666    1007.74583666   
   1967.3608 119.65327965     999.47905564     999.47905564    
   1967.5132 119.85243246     987.50685562     987.50685562    
   1967.6656 120.25001388     965.44231068     965.44231068    
   1967.8180 120.20697033     942.30352202     942.30352202    
   1967.9704 119.96430890     930.47732459     930.47732459    
   1968.1228 119.74251954     913.29495647     913.29495647    
   1968.2752 119.57210505     909.23130140     909.23130140    
   1968.4276 119.40200448     902.99275096     902.99275096    
   1968.5800 119.29865051     900.06474410     900.06474410    
   1968.7324 119.28567178     890.86127897     890.86127897    
   1968.8848 119.05326199     886.24163664     886.24163664    
   1969.0372 118.97474972     882.14337470     882.14337470    
   1969.1896 118.72850606     878.34473307     878.34473307    
   1969.3420 118.81616834     874.44401159     874.44401159    
   1969.4944 117.71141240     870.88848743     870.88848743    
   1969.6468 117.46249185     880.04600214     880.04600214    
   1969.7992 117.24795072     881.44564436     881.44564436    
   1969.9516 116.84518028     885.59289587     885.59289587    
   1970.1040 116.85608756     879.18311285     879.18311285    
   1970.2564 116.85654932     875.50832089     875.50832089    
   1970.4088 116.85799684     869.57306516     869.57306516    
   1970.5612 116.79785254     869.73946118     869.75237531    
   1970.7136 116.59274280     866.23103894     866.24498435    
   1970.8660 116.23846547     857.17084917     856.98017195    
   1971.0184 115.91218288     858.42004743     852.80281746    
   1971.1708 115.38595802     881.59865279     852.01150436    
   1971.3232 115.08120157     872.74523416     850.64390400    
   1971.4756 114.64784266     853.77425148     848.45211614    
   1971.6280 114.46534271     849.01162935     846.33848529    
   1971.7804 114.14036532     852.06088857     844.23891848    
   1971.9328 113.74165931     867.90031564     842.14507487    
   1972.0852 113.51373966     881.92278631     841.00093294    
   1972.2376 113.49831563     883.10863235     842.06220639    
   1972.3900 113.49313200     871.43419530     844.33834397    
   1972.5424 113.83583941     865.94707077     846.51487344    
   1972.6948 113.74307613     871.96692588     849.08135053    
   1972.8472 113.50325902     880.53768199     856.09148452    
   1972.9996 113.41148156     883.84132518     864.54502739    
   1973.1520 113.16399036     890.42165000     870.64657513    
   1973.3044 112.97743384     895.84084116     877.72782714    
   1973.4568 112.26351111     900.01221428     886.09743349    
   1973.6092 111.96299883     909.93566621     912.56118979    
   1973.7616 111.97457061     932.40459618     925.84967785    
   1973.9140 111.96783166     971.92643516     935.26014033    
   1974.0664 112.15780702     1003.88319421    939.86438688    
   1974.2188 112.26660028     1025.88962932    937.64988056    
   1974.3712 112.22617347     1029.89928730    934.08442139    
   1974.5236 112.33339362     1008.14379582    923.81322811    
   1974.6760 112.25482624     956.70369180     893.27912773    
   1974.8284 112.23654266     905.62246902     877.15440096    
   1974.9808 112.57845458     877.06599294     842.58294324    
   1975.1332 112.57233328     859.63127081     816.03829554    
   1975.2856 112.57158585     841.68571269     803.49584990    
   1975.4380 112.54671321     830.93696071     796.82980217    
   1975.5904 112.88356032     819.98892039     791.87205353    
   1975.7428 112.86090167     808.66425338     785.42474269    
   1975.8952 112.63294296     807.15507221     780.08290171    
   1976.0476 112.33702686     806.20360327     769.66427640    
