~Version Information Block
 VERS.                2.00:     CWLS LOG ASCII STANDARD - VERSION 2.000000
 WRAP.                  NO:     One Line Per Depth Step
#
~Well Information Block
#MNEM.UNIT                     Data                         Information
#----------   ------------------------------------------   ----------------
 STRT.M                                      1800.0000:     START DEPTH
 STOP.M                                      2299.8720:     STOP DEPTH
 STEP.M                                         0.1524:     STEP
 NULL.                                       -999.2500:     NULL VALUE
 COMP.                                        Alphabow:     COMPANY
 WELL.                   ABE PINE CK 6-21-56-19 #97328:     WELL
 FLD .                                      Pine Creek:     FIELD
 LOC .                           100/06-21-056-19W5/00:     LOCATION
 CNTY.                                                :     COUNTY
 STAT.                                         Alberta:     STATE
 CTRY.                                          Canada:     COUNTRY
 SRVC.                                                :     SERVICE COMPANY
 DATE.                                      03/28/2025:     DATE
 API .                                100062105619W500:     API NUMBER
 UWI .                                100062105619W500:     UWI NUMBER
 TVD .                                              NO:     TVD flag
 WSTA.                                             LOC:     Well status
#
~Curve Information Block
#MNEM.UNIT       API CODE      Curve Description
#----------    -------------   -------------------
 DEPT.M                    :   Depth in Meters
 GR  .GAPI     35 310 01 01:   Gamma Ray
 CALI.mm       70 280 01 01:   Caliper
 RHOB.kg/m3     42 350 01 01:   Bulk Density
#
~Parameter Information Block
#MNEM.UNIT            Value               Description
#----------    --------------------    -------------------
 RUN .                         ONE:    Run Number
 PDAT.                         UNK:    Permanent Datum
 EPD .M                 -9999.5000:    Elevation Of Perm. Datum
 TD  .M                  2300.0000:    Total Depth
 WSTA.                         LOC:    
 LATB.M                     0.0000:    
 LONB.M                     0.0000:    
#
~Other Information Block
<DescLogPlotStart>   NEURALOG PLOT DEFINITION
PLOTDEFVERSION: 3
LASFILE: C:\Users\wadet\Desktop\Alphabow Evaluation\well_info\second_white_spec
DEPTHSCALE: 600.000000
RESOLUTION: 200
DEPTHLABELFREQ: 100.000000
HEAVYGRIDFREQ: 50.000000
MEDIUMGRIDFREQ: 25.000000
LIGHTGRIDFREQ: 25.000000
#
#   TRACK 1
#
STARTTRACK: 
 LEFTX: 0.500000 inch
 RIGHTX: 3.000000 inch
 SCALETYPE: Linear
 NUMCHARTDIVISIONS: 10
CURVE: GR    0.000000   150.000000 (0,0,255)      Solid             2     N    
CURVE: CALI  125.000000 375.000000 (0,131,131)    Dot               2     N    
ENDTRACK: 
#
#   TRACK 2
#
STARTTRACK: 
 LEFTX: 3.500000 inch
 RIGHTX: 8.500000 inch
 SCALETYPE: Linear
 NUMCHARTDIVISIONS: 17
CURVE: RHOB  2000.000000 3000.000000 (255,0,255)    Solid             2     N  
ENDTRACK: 
<DescLogPlotEnd>
~A DEPTH     GR               CALI             RHOB            
# ...
   2123.8500 114.56860074     222.59185036     2609.50850583   
   2124.0024 116.05592253     222.64117356     2609.29369585   
   2124.1548 117.89857837     222.59374569     2602.28427471   
   2124.3072 118.49195141     222.63769526     2592.81058920   
   2124.4596 119.10430055     222.59623686     2593.01984739   
   2124.6120 117.28316978     222.63313481     2596.97066289   
   2124.7644 117.27967398     222.60032260     2607.45534315   
   2124.9168 118.50677375     222.62967903     2617.58710876   
   2125.0692 120.03832881     223.11062814     2615.65193940   
   2125.2216 121.80912770     223.11044141     2613.74627919   
   2125.3740 123.54742515     223.07277559     2612.08317680   
   2125.5264 125.32292410     223.07024999     2608.33703858   
   2125.6788 125.79059940     223.03771624     2600.13509279   
   2125.8312 124.89533491     223.03017700     2601.13910511   
   2125.9836 123.36586563     223.00206837     2604.20403269   
   2126.1360 121.24867720     222.99037918     2604.26661531   
   2126.2884 119.71853419     222.96557827     2601.08691776   
   2126.4408 119.42188978     222.95141306     2601.21720794   
   2126.5932 119.41302788     222.92893419     2609.30163291   
   2126.7456 119.41651500     222.91269913     2616.69574521   
   2126.8980 119.41448615     222.89196808     2629.89832812   
   2127.0504 119.41457138     222.87440424     2631.13958076   
   2127.2028 118.81015840     222.85459479     2628.87755715   
   2127.3552 117.59550859     222.83654608     2624.97091638   
   2127.5076 116.98957810     222.81765815     2625.78588913   
   2127.6600 115.47158556     222.79878992     2630.11743880   
   2127.8124 115.77450839     222.78068885     2630.94246333   
   2127.9648 117.29952460     222.76091420     2629.07741409   
   2128.1172 117.89683091     222.74326775     2616.51199292   
   2128.2696 121.55776439     222.72261627     2604.34430587   
   2128.4220 122.75244968     222.70626119     2596.93399937   
   2128.5744 121.25888784     222.68393624     2598.15728901   
   2128.7268 118.79615725     222.66958052     2606.19607176   
   2128.8792 114.27541862     222.64500779     2611.56016598   
   2129.0316 111.49957183     222.63305339     2621.66087215   
   2129.1840 110.93405917     222.61286654     2623.93107498   
   2129.3364 112.41064692     222.62215453     2624.75986100   
   2129.4888 113.66928497     222.61179750     2623.91949350   
   2129.6412 115.45255777     222.62299577     2622.70023270   
   2129.7936 115.18166526     222.61111186     2622.87862944   
   2129.9460 114.54560354     222.62337703     2623.76023500   
   2130.0984 114.19596398     223.11726328     2625.11702721   
   2130.2508 113.78094767     223.12953949     2626.37304730   
   2130.4032 113.33401916     223.11763405     2627.98130561   
   2130.5556 114.25987335     223.12886327     2626.88671804   
   2130.7080 116.37027793     223.11846741     2622.78317932   
   2130.8604 117.61066416     223.12780021     2619.69685838   
   2131.0128 118.49005723     223.11959347     2616.58616589   
   2131.1652 117.61047162     223.12655144     2618.71242884   
   2131.3176 116.96788857     223.12079158     2619.67539961   
   2131.4700 115.17903591     223.12534448     2612.57192432   
   2131.6224 115.75670173     223.12185182     2606.25291473   
   2131.7748 117.30232093     223.12362267     2599.18848708   
   2131.9272 118.19057321     223.12273313     2596.95597526   
   2132.0796 118.81566200     223.12273313     2603.33046453   
   2132.2320 117.28036917     223.12362267     2609.30548575   
   2132.3844 115.76943057     223.12264026     2610.55661378   
   2132.5368 113.33140969     223.12442836     2612.38071960   
   2132.6892 111.51297107     223.12281577     2609.53332082   
   2132.8416 111.51187397     223.12380331     2607.22622358   
   2132.9940 112.42618408     223.12335587     2607.47138754   
   2133.1464 113.03999646     223.12245141     2612.37531470   
   2133.2988 112.73725684     223.12551236     2617.76882497   
   2133.4512 113.95469818     223.12112217     2624.74779476   
   2133.6036 116.38003402     223.12960017     2632.18922052   
   2133.7560 119.42006605     223.11761032     2636.09932643   
   2133.9084 120.62907021     223.13086134     2629.07746766   
   2134.0608 119.42246598     222.60810749     2622.71063073   
   2134.2132 117.59247295     222.62684244     2621.83437872   
   2134.3656 115.17555558     222.60685519     2623.75127108   
   2134.5180 113.34041270     222.62692314     2624.91066515   
   2134.6704 111.22583696     223.11432336     2622.74308947   
   2134.8228 109.38752043     222.62456846     2618.71088564   
   2134.9752 109.72149879     223.11780123     2616.57544483   
   2135.1276 110.78547858     222.62012025     2616.62999012   
   2135.2800 111.82599232     222.61668575     2616.58561957   
   2135.4324 115.46628380     222.61440995     2616.62599050   
   2135.5848 119.11359159     222.62261073     2619.69480816   
   2135.7372 120.33172058     223.62121868     2621.78465905   
   2135.8896 119.41326136     224.14703215     2622.78342388   
   2136.0420 117.91093477     224.12432926     2625.91608799   
   2136.1944 117.59069302     222.63248362     2627.91921313   
   2136.3468 117.61650642     222.60232146     2629.02032563   
   2136.4992 118.19163300     222.63178644     2626.85921703   
   2136.6516 120.04611342     222.60220436     2623.90874716   
   2136.8040 121.52321201     222.62969478     2619.62052010   
   2136.9564 121.56427887     222.60547555     2616.74410253   
   2137.1088 121.51713413     222.62712509     2615.45612008   
   2137.2612 120.34469913     222.60912631     2612.66080210   
   2137.4136 119.99471363     222.62292759     2612.31352536   
   2137.5660 120.03870374     222.61278610     2612.70308419   
   2137.7184 120.30317735     222.61909530     2616.39616369   
   2137.8708 120.34600529     222.61532636     2618.91377527   
   2138.0232 120.31500340     222.61701850     2619.46488353   
   2138.1756 120.03824692     222.61944424     2611.71212266   
   2138.3280 120.01627535     223.62873155     2606.06937779   
   2138.4804 120.93983972     224.14164601     2600.38086248   
   2138.6328 122.45881917     223.62429031     2604.03425020   
   2138.7852 122.45150684     223.13041604     2606.53949649   
   2138.9376 120.95291897     222.60806970     2614.36837640   
   2139.0900 119.10138970     222.62715927     2618.85426695   
   2139.2424 118.53570572     222.60424821     2622.65041601   
   2139.3948 118.17745503     223.13698826     2626.01782756   
   2139.5472 116.11468634     223.10837253     2624.76277978   
   2139.6996 113.60580112     222.63282624     2622.87906992   
   2139.8520 111.86813791     223.10726601     2622.74711314   
   2140.0044 112.36006699     222.63277438     2622.14912417   
   2140.1568 113.19646197     222.60219368     2619.68695306   
   2140.3092 114.50543130     222.62956234     2617.29628012   
   2140.4616 114.30991859     223.11293684     2613.53473227   
   2140.6140 114.20043632     223.13045332     2614.53686587   
   2140.7664 114.30842819     224.13395933     2618.69813915   
   2140.9188 116.94024645     224.13781103     2621.74119975   
   2141.0712 118.55701655     223.12882468     2622.83576696   
   2141.2236 119.37545033     223.11444764     2621.74057048   
   2141.3760 119.45469570     222.63000756     2618.72202794   
   2141.5284 119.07932277     222.60023386     2618.64664458   
   2141.6808 118.22844432     222.63715969     2620.79420800   
   2141.8332 117.26596517     223.10129533     2623.80678523   
   2141.9856 115.47798151     223.14808884     2626.99297895   
   2142.1380 113.92852863     223.09741431     2626.89500352   
   2142.2904 113.64252591     223.15057206     2625.96264244   
   2142.4428 114.54771760     223.09616389     2624.82135450   
   2142.5952 115.76472572     222.64361332     2622.86891050   
   2142.7476 115.77305821     223.09783752     2621.70984464   
