~Version Information Block
 VERS.                2.00:     CWLS LOG ASCII STANDARD - VERSION 2.000000
 WRAP.                  NO:     One Line Per Depth Step
#
~Well Information Block
#MNEM.UNIT                     Data                         Information
#----------   ------------------------------------------   ----------------
 STRT.M                                      1900.0000:     START DEPTH
 STOP.M                                      2299.8976:     STOP DEPTH
 STEP.M                                         0.1524:     STEP
 NULL.                                       -999.2500:     NULL VALUE
 COMP.                                        Alphabow:     COMPANY
 WELL.                   SOC PINE CK 6-21-56-19 #97328:     WELL
 FLD .                                                :     FIELD
 LOC .                                                :     LOCATION
 CNTY.                                                :     COUNTY
 STAT.                                                :     STATE
 CTRY.                                                :     COUNTRY
 SRVC.                                                :     SERVICE COMPANY
 DATE.                                      03/29/2025:     DATE
 API .                                100062105619W500:     API NUMBER
 UWI .                                100062105619W500:     UWI NUMBER
 TVD .                                              NO:     TVD flag
 WSTA.                                             LOC:     Well status
#
~Curve Information Block
#MNEM.UNIT       API CODE      Curve Description
#----------    -------------   -------------------
 DEPT.M                    :   Depth in Meters
 SP  .MV       01 010 01 01:   Spontaneous Potential
 SFLU.OHMM     10 220 01 01:   SFL Resistivity (Unaveraged)
 ILD .OHMM     05 120 46 01:   Deep Induction Standard Processed Resistivity
#
~Parameter Information Block
#MNEM.UNIT            Value               Description
#----------    --------------------    -------------------
 RUN .                         ONE:    Run Number
 PDAT.                         UNK:    Permanent Datum
 EPD .M                 -9999.5000:    Elevation Of Perm. Datum
 WSTA.                         LOC:    
 E   .M                 -9999.5000:    E (Stretch Coefficient Of The Cable)
 TD  .M                  2300.0000:    Total Depth
#
~Other Information Block
<DescLogPlotStart>   NEURALOG PLOT DEFINITION
PLOTDEFVERSION: 3
LASFILE: C:\Users\wadet\Desktop\Alphabow Evaluation\well_info\second_white_spec
DEPTHSCALE: 240.000000
RESOLUTION: 200
DEPTHLABELFREQ: 50.000000
HEAVYGRIDFREQ: 50.000000
MEDIUMGRIDFREQ: 25.000000
LIGHTGRIDFREQ: 5.000000
#
#   TRACK 1
#
STARTTRACK: 
 LEFTX: 0.500000 inch
 RIGHTX: 3.000000 inch
 SCALETYPE: Linear
 NUMCHARTDIVISIONS: 10
CURVE: SP    0.000000   150.000000 (0,0,255)      Solid             2     N    
ENDTRACK: 
#
#   TRACK 2
#
STARTTRACK: 
 LEFTX: 3.500000 inch
 RIGHTX: 8.500000 inch
 SCALETYPE: Linear
 NUMCHARTDIVISIONS: 34
CURVE: SFLU  0.200000   2000.000000 (0,131,131)    Solid             2     N   
CURVE: ILD   0.200000   2000.000000 (255,0,255)    Dot               2     N   
ENDTRACK: 
<DescLogPlotEnd>
~A DEPTH     SP               SFLU             ILD             
# ...
   2109.5500 108.22565969     934.85442462     878.42126820    
   2109.7024 108.84784640     937.86794112     881.62696853    
   2109.8548 109.21959298     939.37649785     884.09130029    
   2110.0072 109.65338529     938.92640201     885.71761968    
   2110.1596 109.84120908     937.62039815     882.39777472    
   2110.3120 110.07138961     933.34443497     879.18759054    
   2110.4644 110.13240943     929.29555151     876.00279314    
   2110.6168 110.13058281     925.20490714     875.85915664    
   2110.7692 109.79322596     923.35076451     875.77829578    
   2110.9216 109.47956231     921.08794120     874.30844287    
   2111.0740 108.96873745     920.79956365     867.73811665    
   2111.2264 108.02190089     925.77807636     863.89273835    
   2111.3788 107.97613418     932.57869831     859.24294502    
   2111.5312 108.54240389     932.87680785     855.38879064    
   2111.6836 108.91483034     924.40091820     851.36119039    
   2111.8360 109.41551315     918.91754069     849.09460089    
   2111.9884 110.43680121     921.60844494     852.94152837    
   2112.1408 111.87569977     933.56551219     853.34679516    
   2112.2932 112.91674752     941.55196285     852.88312007    
   2112.4456 113.24638710     937.61548855     852.54587536    
   2112.5980 113.48212257     923.64404026     854.12762789    
   2112.7504 113.83192336     911.89179833     855.82336818    
   2112.9028 114.28901946     909.57542956     858.75720415    
   2113.0552 114.26137577     914.77568426     866.50772714    
   2113.2076 114.10678751     918.71968555     871.58489907    
   2113.3600 113.77080822     918.42556547     873.02754176    
   2113.5124 113.74941434     910.51626041     874.42214639    
   2113.6648 113.13858146     902.89716559     875.83468464    
   2113.8172 112.28779846     902.19874424     877.29864848    
   2113.9696 111.43353476     905.12964700     882.23413373    
   2114.1220 110.61545199     916.77073257     886.32425609    
   2114.2744 110.48909954     927.14436272     886.18485148    
   2114.4268 111.11240349     935.90636014     886.19522944    
   2114.5792 111.88593101     941.88584191     887.80954400    
   2114.7316 112.86347029     948.22350236     890.42647083    
   2114.8840 113.44066503     949.21699957     890.11786820    
   2115.0364 113.81320116     940.43173048     896.38654824    
   2115.1888 113.79578497     928.86105722     889.80114364    
   2115.3412 113.73302770     925.01020221     894.73861989    
   2115.4936 112.88723863     927.63329220     894.84747100    
   2115.6460 111.59552882     937.53977152     896.11725986    
   2115.7984 109.85703366     950.16575373     900.72921040    
   2115.9508 108.20014146     956.24520458     902.82264996    
   2116.1032 107.36422582     956.03984284     900.92284731    
   2116.2556 107.03431270     950.92450036     900.49470328    
   2116.4080 106.81010543     945.55567465     900.76140751    
   2116.5604 106.51767855     941.63820419     896.49733958    
   2116.7128 106.73690445     937.80009045     894.30846592    
   2116.8652 107.11493163     929.53247344     886.86460526    
   2117.0176 106.75519730     921.45604323     883.70682909    
   2117.1700 107.15055203     915.27852740     879.30458698    
   2117.3224 108.34652686     912.11808580     876.22623777    
   2117.4748 109.48193709     909.40791084     873.98513186    
   2117.6272 110.44528761     907.09562874     875.97875563    
   2117.7796 111.34015117     912.18883474     877.40074231    
   2117.9320 112.20374580     921.21019161     877.03241609    
   2118.0844 112.51795948     930.18892415     914.52849825    
   2118.2368 112.31148423     936.64272641     935.96151316    
   2118.3892 112.02324595     935.07090027     935.09134105    
   2118.5416 111.65332432     931.40654611     931.45210777    
   2118.6940 111.36695626     925.04766311     925.04766311    
   2118.8464 111.54502604     918.02193285     918.02193285    
   2118.9988 111.30036152     914.69042401     914.69042401    
   2119.1512 111.05035723     910.64104365     910.64104365    
   2119.3036 110.98137715     910.10659396     910.10659396    
   2119.4560 110.54816969     911.21845649     911.21845649    
   2119.6084 110.04974148     912.45538008     912.45538008    
   2119.7608 109.61482245     912.82004775     912.82004775    
   2119.9132 108.62936542     913.22614067     913.22614067    
   2120.0656 108.60267490     914.80682413     914.80682413    
   2120.2180 108.79151834     915.53293048     915.53293048    
   2120.3704 109.97477666     914.29222159     914.29222159    
   2120.5228 110.37715114     911.58445789     911.58445789    
   2120.6752 110.81572608     906.31449867     906.31449867    
   2120.8276 111.60568722     900.08617325     900.08617325    
   2120.9800 112.82247043     894.92648673     894.92648673    
   2121.1324 113.78404729     894.83790786     894.83790786    
   2121.2848 114.16672146     905.32653323     905.32653323    
   2121.4372 114.45640409     927.04833961     927.04833961    
   2121.5896 115.27033464     950.36353019     950.36353019    
   2121.7420 115.89119042     958.16211689     958.16211689    
   2121.8944 115.83818239     955.93538684     955.93538684    
   2122.0468 115.47645421     951.38479675     951.38479675    
   2122.1992 114.68870760     945.95820458     945.95820458    
   2122.3516 114.41352577     937.80307374     937.80307374    
   2122.5040 114.06543593     928.64770810     928.64770810    
   2122.6564 113.38595653     927.62112645     927.62112645    
   2122.8088 112.52456922     936.73163300     936.73163300    
   2122.9612 112.00518900     946.44840598     946.44840598    
   2123.1136 111.22175762     941.66075189     941.66075189    
   2123.2660 110.53934994     924.14199602     924.14199602    
   2123.4184 110.18375845     912.06023561     912.06023561    
   2123.5708 110.01473091     905.19915061     905.19915061    
   2123.7232 110.26339515     902.66515244     902.66515244    
   2123.8756 110.98256521     900.55575784     900.55575784    
   2124.0280 111.77331221     898.21734916     898.21734916    
   2124.1804 111.99191206     896.36535400     896.36535400    
   2124.3328 112.14994710     896.38792920     896.38792920    
   2124.4852 112.00599099     896.21162044     896.21162044    
   2124.6376 112.20876187     898.64214234     898.64214234    
   2124.7900 112.58306343     896.72411449     896.72411449    
   2124.9424 113.07669581     898.92766855     898.92766855    
   2125.0948 113.57804281     887.70733316     887.70733316    
   2125.2472 114.03873550     876.42870123     876.42870123    
   2125.3996 114.43737459     869.93119738     869.93119738    
   2125.5520 114.41880569     865.62259644     865.62259644    
   2125.7044 114.10988993     865.41776427     865.41776427    
   2125.8568 113.39129701     868.06052631     868.06052631    
   2126.0092 113.11227798     872.59694561     872.59694561    
   2126.1616 112.59742158     876.37124292     876.37124292    
   2126.3140 111.87505283     881.94928887     881.94928887    
   2126.4664 111.27813602     886.11440105     886.11440105    
   2126.6188 110.69604572     884.35240801     884.35240801    
   2126.7712 111.04064213     879.85919500     879.85919500    
   2126.9236 111.44739097     876.01767491     876.01767491    
   2127.0760 111.83875352     878.47399283     878.47399283    
   2127.2284 112.29788908     884.31699666     884.31699666    
   2127.3808 112.59970978     895.95394497     895.95394497    
   2127.5332 112.37150106     907.60916118     907.60916118    
   2127.6856 111.99402196     912.85074540     912.85074540    
   2127.8380 111.58929330     906.80125925     906.80125925    
   2127.9904 111.10795260     896.17613801     896.17613801    
   2128.1428 110.47640708     881.94942439     881.94942439    
   2128.2952 110.12506533     873.85993212     873.85993212    
   2128.4476 109.79883290     870.11842755     870.11842755    
