~Version Information Block
 VERS.                2.00:     CWLS LOG ASCII STANDARD - VERSION 2.000000
 WRAP.                  NO:     One Line Per Depth Step
#
~Well Information Block
#MNEM.UNIT                     Data                         Information
#----------   ------------------------------------------   ----------------
 STRT.M                                      1900.0000:     START DEPTH
 STOP.M                                      2299.8976:     STOP DEPTH
 STEP.M                                         0.1524:     STEP
 NULL.                                       -999.2500:     NULL VALUE
 COMP.                                        Alphabow:     COMPANY
 WELL.                   SOC PINE CK 6-21-56-19 #97328:     WELL
 FLD .                                                :     FIELD
 LOC .                                                :     LOCATION
 CNTY.                                                :     COUNTY
 STAT.                                                :     STATE
 CTRY.                                                :     COUNTRY
 SRVC.                                                :     SERVICE COMPANY
 DATE.                                      03/29/2025:     DATE
 API .                                100062105619W500:     API NUMBER
 UWI .                                100062105619W500:     UWI NUMBER
 TVD .                                              NO:     TVD flag
 WSTA.                                             LOC:     Well status
#
~Curve Information Block
#MNEM.UNIT       API CODE      Curve Description
#----------    -------------   -------------------
 DEPT.M                    :   Depth in Meters
 SP  .MV       01 010 01 01:   Spontaneous Potential
 SFLU.OHMM     10 220 01 01:   SFL Resistivity (Unaveraged)
 ILD .OHMM     05 120 46 01:   Deep Induction Standard Processed Resistivity
#
~Parameter Information Block
#MNEM.UNIT            Value               Description
#----------    --------------------    -------------------
 RUN .                         ONE:    Run Number
 PDAT.                         UNK:    Permanent Datum
 EPD .M                 -9999.5000:    Elevation Of Perm. Datum
 WSTA.                         LOC:    
 E   .M                 -9999.5000:    E (Stretch Coefficient Of The Cable)
 TD  .M                  2300.0000:    Total Depth
#
~Other Information Block
<DescLogPlotStart>   NEURALOG PLOT DEFINITION
PLOTDEFVERSION: 3
LASFILE: C:\Users\wadet\Desktop\Alphabow Evaluation\well_info\second_white_spec
DEPTHSCALE: 240.000000
RESOLUTION: 200
DEPTHLABELFREQ: 50.000000
HEAVYGRIDFREQ: 50.000000
MEDIUMGRIDFREQ: 25.000000
LIGHTGRIDFREQ: 5.000000
#
#   TRACK 1
#
STARTTRACK: 
 LEFTX: 0.500000 inch
 RIGHTX: 3.000000 inch
 SCALETYPE: Linear
 NUMCHARTDIVISIONS: 10
CURVE: SP    0.000000   150.000000 (0,0,255)      Solid             2     N    
ENDTRACK: 
#
#   TRACK 2
#
STARTTRACK: 
 LEFTX: 3.500000 inch
 RIGHTX: 8.500000 inch
 SCALETYPE: Linear
 NUMCHARTDIVISIONS: 34
CURVE: SFLU  0.200000   2000.000000 (0,131,131)    Solid             2     N   
CURVE: ILD   0.200000   2000.000000 (255,0,255)    Dot               2     N   
ENDTRACK: 
<DescLogPlotEnd>
~A DEPTH     SP               SFLU             ILD             
# ...
   1919.0500 105.77951401     825.46563089     825.46563089    
   1919.2024 105.04436307     840.80077587     840.80077587    
   1919.3548 104.35021604     849.12535446     849.12535446    
   1919.5072 104.49768250     851.21986558     851.21986558    
   1919.6596 102.49218830     852.66681741     852.66681741    
   1919.8120 102.15797385     855.00837294     855.00837294    
   1919.9644 101.70809364     861.32815542     861.32815542    
   1920.1168 101.00113999     859.98427335     859.98427335    
   1920.2692 100.45174644     853.81307429     853.81307429    
   1920.4216 99.53914789      851.89774097     851.89774097    
   1920.5740 98.42903695      851.17031891     851.17031891    
   1920.7264 97.92070735      852.95966182     852.95966182    
   1920.8788 97.58020284      865.31585357     865.31585357    
   1921.0312 97.71185978      871.25042948     871.25042948    
   1921.1836 97.59704876      876.08516924     876.08516924    
   1921.3360 97.07201879      875.85279024     875.85279024    
   1921.4884 96.45873445      867.74139246     867.74139246    
   1921.6408 95.82016872      865.79822596     865.79822596    
   1921.7932 95.12270004      867.17073205     867.17073205    
   1921.9456 94.23174743      871.47139688     871.47139688    
   1922.0980 93.03629216      868.20598040     868.20598040    
   1922.2504 91.83353411      857.26242712     857.26242712    
   1922.4028 90.59160419      852.49202746     852.49202746    
   1922.5552 89.55056914      850.86395942     850.86395942    
   1922.7076 88.95439071      849.30011122     849.30011122    
   1922.8600 87.90013002      851.45019141     851.45019141    
   1923.0124 86.75251707      851.13079416     851.13079416    
   1923.1648 85.89264252      849.48395350     849.48395350    
   1923.3172 85.15239990      845.31688412     845.31688412    
   1923.4696 84.48059451      846.90803173     846.90803173    
   1923.6220 83.57019043      851.42908375     851.42908375    
   1923.7744 82.86772726      856.59530107     856.59530107    
   1923.9268 82.67470526      861.77205061     861.77205061    
   1924.0792 82.33083733      854.11263360     854.11263360    
   1924.2316 82.33683314      849.38580361     849.38580361    
   1924.3840 82.32815908      845.40484694     845.40484694    
   1924.5364 82.32787092      847.15964897     847.15964897    
   1924.6888 82.42315689      853.01316564     853.01316564    
   1924.8412 82.33977738      855.51467453     855.51467453    
   1924.9936 81.51505326      852.85005611     852.85005611    
   1925.1460 80.55668912      847.52466226     847.52466226    
   1925.2984 80.18650423      848.72012109     848.72012109    
   1925.4508 80.19652320      855.27642362     855.27642362    
   1925.6032 80.21220585      861.92106596     861.92106596    
   1925.7556 80.47116564      856.92575767     856.92575767    
   1925.9080 80.20289143      853.09838570     853.09838570    
   1926.0604 79.98471261      854.16615894     854.16615894    
   1926.2128 79.98543333      864.18961769     864.18961769    
   1926.3652 79.91591799      870.01711288     870.01711288    
   1926.5176 79.57632677      867.90143507     867.90143507    
   1926.6700 79.58474322      865.52522942     865.52522942    
   1926.8224 79.58687509      872.01761235     872.01761235    
   1926.9748 79.63724312      879.08365056     879.08365056    
   1927.1272 79.53711984      884.16955957     884.16955957    
   1927.2796 79.38033065      875.70044830     875.70044830    
   1927.4320 79.28666585      858.46661623     858.46661623    
   1927.5844 79.24516270      855.36806788     855.36806788    
   1927.7368 79.42339967      855.40293256     855.40293256    
   1927.8892 79.23126477      855.78366955     855.78366955    
   1928.0416 78.91811106      860.13911660     860.13911660    
   1928.1940 78.72842459      865.99276650     865.99276650    
   1928.3464 78.67886446      871.28765325     871.28765325    
   1928.4988 78.10813731      871.86007301     871.86007301    
   1928.6512 78.04403025      868.76557015     868.76557015    
   1928.8036 78.10945337      865.99080268     865.99080268    
   1928.9560 78.42781051      863.48567190     863.48567190    
   1929.1084 78.34460851      866.53288723     866.53288723    
   1929.2608 77.86742435      871.81603874     871.81603874    
   1929.4132 76.59736486      877.52636212     877.52636212    
   1929.5656 76.23203982      884.75568590     884.75568590    
   1929.7180 75.92938922      888.30949511     888.30949511    
   1929.8704 75.21300497      883.44324839     883.44324839    
   1930.0228 74.84840878      878.84841542     878.84841542    
   1930.1752 74.71337297      874.28727664     874.28727664    
   1930.3276 74.93659484      878.12651689     878.12651689    
   1930.4800 74.97564363      874.21134481     874.21134481    
   1930.6324 75.30643386      865.30149440     865.30149440    
   1930.7848 75.29325811      857.10446308     857.10446308    
   1930.9372 75.36706875      853.20353873     853.20353873    
   1931.0896 75.40488232      850.93977515     850.93977515    
   1931.2420 75.16032221      847.00219004     847.00219004    
   1931.3944 74.66454250      841.06167346     841.06167346    
   1931.5468 74.14696044      841.41121541     841.41121541    
   1931.6992 73.10510005      842.94571562     842.94571562    
   1931.8516 72.84578159      842.47090094     842.47090094    
   1932.0040 72.88593328      835.50096200     835.50096200    
   1932.1564 73.10853374      837.89410375     837.89410375    
   1932.3088 73.16750653      840.58602048     840.58602048    
   1932.4612 73.17178998      845.28987637     845.28987637    
   1932.6136 72.82010207      849.80681590     849.80681590    
   1932.7660 72.82865414      851.14609437     851.14609437    
   1932.9184 73.09040781      850.99033516     850.99033516    
   1933.0708 74.39799652      851.88090539     851.88090539    
   1933.2232 74.93378854      853.23282658     853.23282658    
   1933.3756 75.61367295      860.28797272     860.28797272    
   1933.5280 75.90197318      866.03173907     866.03173907    
   1933.6804 76.18704314      872.28791138     872.28791138    
   1933.8328 75.61640684      877.43561965     877.43561965    
   1933.9852 75.61841611      877.88997933     877.88997933    
   1934.1376 75.75289094      876.13814303     876.13814303    
   1934.2900 75.94321234      872.00050928     872.00050928    
   1934.4424 76.16490694      863.94835072     863.94835072    
   1934.5948 77.82732481      853.71028192     853.71028192    
   1934.7472 78.79016966      850.84061339     850.84061339    
   1934.8996 79.66409500      853.39387813     853.39387813    
   1935.0520 80.69389081      863.43640916     863.43640916    
   1935.2044 81.11071446      880.65402008     880.65402008    
   1935.3568 81.05603745      888.08389530     888.08389530    
   1935.5092 80.75980238      877.65023177     877.65023177    
   1935.6616 80.51750354      862.69619927     862.69619927    
   1935.8140 80.49343235      849.90247240     849.90247240    
   1935.9664 80.85467147      868.88847532     868.88847532    
   1936.1188 81.38218808      883.84366891     883.84366891    
   1936.2712 82.04175703      894.39364669     894.39364669    
   1936.4236 82.95446983      894.60872953     894.60872953    
   1936.5760 83.55513333      890.54738223     890.54738223    
   1936.7284 83.88685930      886.60216128     886.60216128    
   1936.8808 84.03985076      882.54313366     882.54313366    
   1937.0332 83.89426603      877.99259441     877.99259441    
   1937.1856 84.08844911      871.83767130     871.83767130    
   1937.3380 85.04237599      869.44282084     869.44282084    
   1937.4904 86.26328995      874.22565413     874.22565413    
   1937.6428 87.90345678      880.36080283     880.36080283    
   1937.7952 89.57657852      885.29065856     885.29065856    
   1937.9476 90.31268594      891.54466035     891.54466035    
