~Version Information Block
 VERS.                2.00:     CWLS LOG ASCII STANDARD - VERSION 2.000000
 WRAP.                  NO:     One Line Per Depth Step
#
~Well Information Block
#MNEM.UNIT                     Data                         Information
#----------   ------------------------------------------   ----------------
 STRT.M                                      1900.0000:     START DEPTH
 STOP.M                                      2299.8976:     STOP DEPTH
 STEP.M                                         0.1524:     STEP
 NULL.                                       -999.2500:     NULL VALUE
 COMP.                                        Alphabow:     COMPANY
 WELL.                   SOC PINE CK 6-21-56-19 #97328:     WELL
 FLD .                                                :     FIELD
 LOC .                                                :     LOCATION
 CNTY.                                                :     COUNTY
 STAT.                                                :     STATE
 CTRY.                                                :     COUNTRY
 SRVC.                                                :     SERVICE COMPANY
 DATE.                                      03/29/2025:     DATE
 API .                                100062105619W500:     API NUMBER
 UWI .                                100062105619W500:     UWI NUMBER
 TVD .                                              NO:     TVD flag
 WSTA.                                             LOC:     Well status
#
~Curve Information Block
#MNEM.UNIT       API CODE      Curve Description
#----------    -------------   -------------------
 DEPT.M                    :   Depth in Meters
 SP  .MV       01 010 01 01:   Spontaneous Potential
 SFLU.OHMM     10 220 01 01:   SFL Resistivity (Unaveraged)
 ILD .OHMM     05 120 46 01:   Deep Induction Standard Processed Resistivity
#
~Parameter Information Block
#MNEM.UNIT            Value               Description
#----------    --------------------    -------------------
 RUN .                         ONE:    Run Number
 PDAT.                         UNK:    Permanent Datum
 EPD .M                 -9999.5000:    Elevation Of Perm. Datum
 WSTA.                         LOC:    
 E   .M                 -9999.5000:    E (Stretch Coefficient Of The Cable)
 TD  .M                  2300.0000:    Total Depth
#
~Other Information Block
<DescLogPlotStart>   NEURALOG PLOT DEFINITION
PLOTDEFVERSION: 3
LASFILE: C:\Users\wadet\Desktop\Alphabow Evaluation\well_info\second_white_spec
DEPTHSCALE: 240.000000
RESOLUTION: 200
DEPTHLABELFREQ: 50.000000
HEAVYGRIDFREQ: 50.000000
MEDIUMGRIDFREQ: 25.000000
LIGHTGRIDFREQ: 5.000000
#
#   TRACK 1
#
STARTTRACK: 
 LEFTX: 0.500000 inch
 RIGHTX: 3.000000 inch
 SCALETYPE: Linear
 NUMCHARTDIVISIONS: 10
CURVE: SP    0.000000   150.000000 (0,0,255)      Solid             2     N    
ENDTRACK: 
#
#   TRACK 2
#
STARTTRACK: 
 LEFTX: 3.500000 inch
 RIGHTX: 8.500000 inch
 SCALETYPE: Linear
 NUMCHARTDIVISIONS: 34
CURVE: SFLU  0.200000   2000.000000 (0,131,131)    Solid             2     N   
CURVE: ILD   0.200000   2000.000000 (255,0,255)    Dot               2     N   
ENDTRACK: 
<DescLogPlotEnd>
~A DEPTH     SP               SFLU             ILD             
# ...
   2033.3500 111.41413644     884.07338953     887.78517566    
   2033.5024 111.35242865     886.34244934     891.38239908    
   2033.6548 111.01431512     887.58197701     894.98661184    
   2033.8072 111.04458825     889.71210792     898.38374471    
   2033.9596 111.07826460     888.50776832     898.48397717    
   2034.1120 111.60206406     892.76720154     898.46876658    
   2034.2644 112.27342137     892.21069971     898.46539316    
   2034.4168 112.58022240     889.51210763     898.47835625    
   2034.5692 112.59365840     890.60158886     897.83887400    
   2034.7216 112.27185159     888.19212332     896.90739267    
   2034.8740 111.94343751     890.11379913     895.95192301    
   2035.0264 112.20582986     888.85392565     895.03225486    
   2035.1788 112.57902776     890.24452271     894.82854342    
   2035.3312 112.63069983     892.93732374     900.26095483    
   2035.4836 112.93012502     893.86658559     899.29911929    
   2035.6360 113.16616122     892.76711640     897.37577858    
   2035.7884 112.88396746     893.95680081     896.41994395    
   2035.9408 112.59142085     894.79746914     896.41643154    
   2036.0932 112.57239067     894.50695262     896.42059168    
   2036.2456 112.89817224     892.27780137     896.45559262    
   2036.3980 112.63877031     892.15568287     891.92809140    
   2036.5504 112.57238765     893.76541294     893.75920929    
   2036.7028 112.59987555     894.42478472     894.43837539    
   2036.8552 112.74622504     894.29501625     894.29658855    
   2037.0076 112.64286640     894.31188463     894.31188463    
   2037.1600 112.28377881     894.79476196     894.79476196    
   2037.3124 112.29474136     896.15213676     896.15213676    
   2037.4648 112.30617801     890.16442367     890.16442367    
   2037.6172 112.27623931     889.88346886     889.88346886    
   2037.7696 112.59706654     888.53615571     888.53615571    
   2037.9220 112.64333419     886.34522702     886.34522702    
   2038.0744 112.66546599     882.84765471     882.84765471    
   2038.2268 112.21876996     880.42926205     880.42926205    
   2038.3792 111.67251527     879.98450649     879.98450649    
   2038.5316 111.04383565     880.05361861     880.05361861    
   2038.6840 110.75669748     876.26940848     876.26940848    
   2038.8364 110.73742396     876.52876289     876.52876289    
   2038.9888 110.68513114     875.54299883     875.54299883    
   2039.1412 110.46112782     869.58787496     869.58787496    
   2039.2936 110.12988587     865.32917675     865.32917675    
   2039.4460 110.13756422     854.51435683     854.51435683    
   2039.5984 110.14263335     851.49920536     851.49920536    
   2039.7508 110.16250527     848.88674601     848.88674601    
   2039.9032 110.16667571     849.13469574     849.13469574    
   2040.0556 110.13757332     849.16079737     849.16079737    
   2040.2080 110.48289902     849.55256668     849.55256668    
   2040.3604 110.76040324     851.09823323     851.09823323    
   2040.5128 111.58604865     847.33475955     847.33475955    
   2040.6652 112.34131400     851.75067286     851.75067286    
   2040.8176 112.97827827     852.84746451     852.84746451    
   2040.9700 113.41614361     853.25998432     853.25998432    
   2041.1224 113.23186756     852.93601285     852.93601285    
   2041.2748 113.18766876     857.69849579     857.69849579    
   2041.4272 113.16117996     853.88536325     853.88668378    
   2041.5796 113.49126447     853.65480662     853.65371499    
   2041.7320 113.82782448     851.43181012     851.40614365    
   2041.8844 113.83455872     849.22202606     849.19092859    
   2042.0368 113.49372287     850.07445188     846.74478562    
   2042.1892 113.44813201     851.53260125     842.28973589    
   2042.3416 112.80800942     853.02422202     834.94085386    
   2042.4940 112.52876264     854.45244529     826.31138900    
   2042.6464 111.90151084     852.03823556     817.52657926    
   2042.7988 111.30420586     822.28164118     817.93059266    
   2042.9512 110.72707195     844.91671831     816.66422899    
   2043.1036 110.18382762     815.29091804     815.49309753    
   2043.2560 109.99128021     838.60323176     814.46215641    
   2043.4084 110.08470781     859.82422131     821.45513946    
   2043.5608 110.19637319     878.27904210     829.16733353    
   2043.7132 110.81701905     890.20392077     837.26980193    
   2043.8656 111.00838672     894.61171970     849.25176815    
   2044.0180 111.37132308     907.90910144     851.66220623    
   2044.1704 111.59321413     925.36837597     853.96295205    
   2044.3228 111.62956157     933.07955487     857.36317658    
   2044.4752 111.92540376     929.69855112     861.87765880    
   2044.6276 112.28916398     918.67374928     866.80643342    
   2044.7800 112.92540550     911.25424137     869.78796009    
   2044.9324 113.15645140     908.74960847     872.76068596    
   2045.0848 112.90572382     908.88409341     877.09507487    
   2045.2372 112.63678470     904.96550630     882.10355345    
   2045.3896 112.57934678     904.38232705     879.99643089    
   2045.5420 112.60233749     908.94333455     877.10459779    
   2045.6944 112.60595249     916.56705389     874.19508451    
   2045.8468 112.59608057     921.02430307     873.83242594    
   2045.9992 112.81497567     920.99535631     873.80890943    
   2046.1516 112.96744124     918.67610384     873.27319468    
   2046.3040 113.42545507     916.75423002     871.14416507    
   2046.4564 113.83451471     910.82902495     869.07190673    
   2046.6088 114.15780558     905.13619528     867.01269726    
   2046.7612 114.34949118     902.08144249     865.67759009    
   2046.9136 114.38983736     900.84427698     867.45484874    
   2047.0660 114.93220490     895.79995640     871.01013844    
   2047.2184 115.35568648     890.91718168     871.95787001    
   2047.3708 115.27215332     889.14243136     873.63150100    
   2047.5232 115.03847460     890.62338276     875.22530511    
   2047.6756 114.96958466     892.75218750     877.95471785    
   2047.8280 114.75839938     895.70564446     878.08870957    
   2047.9804 114.74548114     905.23082861     874.52239356    
   2048.1328 114.71004121     923.01852898     871.15009481    
   2048.2852 114.45657734     933.53829679     867.72989688    
   2048.4376 114.16236196     929.74327153     865.58904523    
   2048.5900 114.03972688     919.82742345     865.60644471    
   2048.7424 113.82676483     915.07715324     864.49057801    
   2048.8948 113.24491489     915.26545138     861.59618957    
   2049.0472 112.87431971     915.87838968     858.71561402    
   2049.1996 112.31134835     914.56077297     857.41931947    
   2049.3520 112.02109162     910.93629937     857.41697013    
   2049.5044 111.61986582     908.29906514     857.41688616    
   2049.6568 111.65224242     906.77780210     858.33256857    
   2049.8092 111.66012618     906.54899680     860.15658373    
   2049.9616 111.58205808     910.78361059     861.23447882    
   2050.1140 111.42551881     918.64103312     863.55354348    
   2050.2664 110.82276820     926.11466234     869.60786117    
   2050.4188 110.21463472     929.21799027     870.41806928    
   2050.5712 109.62980961     926.69985878     871.38775348    
   2050.7236 109.13382549     914.65379431     872.28090587    
   2050.8760 108.20735670     901.32445983     873.18454608    
   2051.0284 107.27965324     893.02471449     875.70277495    
   2051.1808 106.56286591     902.03898920     882.09031374    
   2051.3332 106.12456596     946.93136323     896.32990292    
   2051.4856 105.19842710     1026.49477871    912.76595558    
   2051.6380 105.53541680     1106.45545204    943.12042245    
   2051.7904 106.44732598     1135.62385349    975.25893417    
   2051.9428 105.99634963     1118.79328346    1008.42519048   
   2052.0952 106.26288775     1074.43993988    1029.46304210   
   2052.2476 106.47485054     1061.62253668    1046.52165544   
