~Version Information Block
 VERS.                2.00:     CWLS LOG ASCII STANDARD - VERSION 2.000000
 WRAP.                  NO:     One Line Per Depth Step
#
~Well Information Block
#MNEM.UNIT                     Data                         Information
#----------   ------------------------------------------   ----------------
 STRT.M                                      1800.0000:     START DEPTH
 STOP.M                                      2299.8720:     STOP DEPTH
 STEP.M                                         0.1524:     STEP
 NULL.                                       -999.2500:     NULL VALUE
 COMP.                                        Alphabow:     COMPANY
 WELL.                   ABE PINE CK 6-21-56-19 #97328:     WELL
 FLD .                                      Pine Creek:     FIELD
 LOC .                           100/06-21-056-19W5/00:     LOCATION
 CNTY.                                                :     COUNTY
 STAT.                                         Alberta:     STATE
 CTRY.                                          Canada:     COUNTRY
 SRVC.                                                :     SERVICE COMPANY
 DATE.                                      03/28/2025:     DATE
 API .                                100062105619W500:     API NUMBER
 UWI .                                100062105619W500:     UWI NUMBER
 TVD .                                              NO:     TVD flag
 WSTA.                                             LOC:     Well status
#
~Curve Information Block
#MNEM.UNIT       API CODE      Curve Description
#----------    -------------   -------------------
 DEPT.M                    :   Depth in Meters
 GR  .GAPI     35 310 01 01:   Gamma Ray
 CALI.mm       70 280 01 01:   Caliper
 RHOB.kg/m3     42 350 01 01:   Bulk Density
#
~Parameter Information Block
#MNEM.UNIT            Value               Description
#----------    --------------------    -------------------
 RUN .                         ONE:    Run Number
 PDAT.                         UNK:    Permanent Datum
 EPD .M                 -9999.5000:    Elevation Of Perm. Datum
 TD  .M                  2300.0000:    Total Depth
 WSTA.                         LOC:    
 LATB.M                     0.0000:    
 LONB.M                     0.0000:    
#
~Other Information Block
<DescLogPlotStart>   NEURALOG PLOT DEFINITION
PLOTDEFVERSION: 3
LASFILE: C:\Users\wadet\Desktop\Alphabow Evaluation\well_info\second_white_spec
DEPTHSCALE: 600.000000
RESOLUTION: 200
DEPTHLABELFREQ: 100.000000
HEAVYGRIDFREQ: 50.000000
MEDIUMGRIDFREQ: 25.000000
LIGHTGRIDFREQ: 25.000000
#
#   TRACK 1
#
STARTTRACK: 
 LEFTX: 0.500000 inch
 RIGHTX: 3.000000 inch
 SCALETYPE: Linear
 NUMCHARTDIVISIONS: 10
CURVE: GR    0.000000   150.000000 (0,0,255)      Solid             2     N    
CURVE: CALI  125.000000 375.000000 (0,131,131)    Dot               2     N    
ENDTRACK: 
#
#   TRACK 2
#
STARTTRACK: 
 LEFTX: 3.500000 inch
 RIGHTX: 8.500000 inch
 SCALETYPE: Linear
 NUMCHARTDIVISIONS: 17
CURVE: RHOB  2000.000000 3000.000000 (255,0,255)    Solid             2     N  
ENDTRACK: 
<DescLogPlotEnd>
~A DEPTH     GR               CALI             RHOB            
# ...
   2238.1500 131.88338921     223.11387739     2584.12590811   
   2238.3024 131.89873464     223.64154255     2597.16776362   
   2238.4548 130.06239582     223.62326243     2592.75713741   
   2238.6072 127.03213700     223.13246715     2589.94530236   
   2238.7596 124.90187107     223.11801082     2595.88392804   
   2238.9120 123.68513627     223.12784093     2603.71940014   
   2239.0644 124.00096176     223.12060760     2612.39980686   
   2239.2168 124.59167386     223.12435755     2622.80878174   
   2239.3692 123.70560725     223.63102810     2630.98449326   
   2239.5216 122.45679160     224.13808210     2633.07605279   
   2239.6740 120.67193733     224.13912154     2628.90856076   
   2239.8264 120.92905384     224.13345325     2620.67028430   
   2239.9788 122.28538669     223.63297950     2615.15936790   
   2240.1312 123.87536492     223.62651570     2609.48903180   
   2240.2836 124.93895930     223.63261275     2604.21860469   
   2240.4360 125.47994049     223.62693755     2604.20799543   
   2240.5884 126.46487986     224.13938895     2604.24335488   
   2240.7408 127.60434356     225.14683944     2606.27214427   
   2240.8932 127.98154433     225.15358692     2613.53016798   
   2241.0456 127.60207253     224.13373005     2626.88360943   
   2241.1980 127.67386004     223.63495332     2639.32623239   
   2241.3504 130.33666653     223.11636910     2643.37812446   
   2241.5028 131.61777818     223.13098985     2639.34452548   
   2241.6552 133.98757918     223.61930354     2626.80504000   
   2241.8076 134.34760763     224.65512506     2613.65902432   
   2241.9600 132.47691602     224.62750648     2603.04633868   
   2242.1124 130.99922471     223.64584521     2593.02823027   
   2242.2648 129.14350003     223.60927420     2590.63848036   
   2242.4172 128.25746229     223.14436013     2584.80913473   
   2242.5696 128.84884298     223.10149715     2590.60543840   
   2242.7220 130.07455911     223.14679850     2598.21686576   
   2242.8744 130.98270887     223.10129256     2603.47254213   
   2243.0268 130.67878370     223.14623841     2606.48901223   
   2243.1792 130.68464175     224.11915020     2603.94359140   
   2243.3316 131.89052788     224.65991174     2604.48529575   
   2243.4840 132.50528138     224.12485501     2604.98475559   
   2243.6364 132.19288667     222.11946647     2604.53059514   
   2243.7888 130.68234590     222.10796331     2607.02637367   
   2243.9412 130.68106490     222.11040202     2611.67489253   
   2244.0936 132.50601142     222.11805568     2610.14718059   
   2244.2460 134.94225593     222.10361697     2579.70048994   
   2244.3984 137.05424229     220.60660896     2558.62464918   
   2244.5508 137.07549532     220.57727555     2550.82745333   
   2244.7032 135.82801960     221.11516371     2559.70001721   
   2244.8556 135.26226988     222.59908578     2558.62040084   
   2245.0080 135.20952789     222.73203567     2553.93406121   
   2245.1604 135.27556271     222.81662661     2549.86684418   
   2245.3128 135.50599800     222.96529924     2547.42804709   
   2245.4652 135.59185639     223.05938812     2553.80331951   
   2245.6176 134.58947331     223.19987004     2562.93382193   
   2245.7700 132.86558186     223.30488195     2575.40224659   
   2245.9224 131.54603944     223.42699232     2577.40270597   
   2246.0748 129.82278169     223.54585684     2571.24011562   
   2246.2272 131.54239999     223.65892176     2561.97126362   
   2246.3796 132.24379207     223.78725094     2551.62662718   
   2246.5320 133.97921457     223.89343138     2551.67698563   
   2246.6844 134.36704544     224.02415910     2558.03977906   
   2246.8368 134.90758721     224.12856790     2570.22011702   
   2246.9892 135.87531392     222.62208169     2587.60003050   
   2247.1416 135.83083727     222.61401753     2596.04505005   
   2247.2940 135.55905566     222.62019877     2594.80164079   
   2247.4464 135.54186445     222.61528029     2588.86677937   
   2247.5988 137.07205082     222.61684072     2585.45532379   
   2247.7512 139.19881624     222.63970237     2584.79262781   
   2247.9036 141.01942523     224.65367844     2585.41460219   
   2248.0560 141.02664675     224.67613816     2586.93029947   
   2248.2084 139.19714402     223.63226498     2585.38674007   
   2248.3608 135.55237502     223.67012070     2582.88212698   
   2248.5132 133.72528701     224.12712710     2579.15459596   
   2248.6656 130.37796303     224.18517427     2566.35900298   
   2248.8180 127.95764161     224.11424275     2556.48906064   
   2248.9704 130.07547133     223.68821051     2544.71755630   
   2249.1228 131.31160053     223.59527865     2552.34150594   
   2249.2752 132.80906670     224.70906526     2565.33666328   
   2249.4276 133.14319511     224.59455388     2583.28267458   
   2249.5800 133.71820699     224.71498028     2597.28256292   
   2249.7324 136.17984794     222.56088556     2599.80625095   
   2249.8848 138.44982395     222.69217265     2583.85901173   
   2250.0372 140.69782855     236.67323469     2585.76038510   
   2250.1896 142.88532520     246.88670329     2588.58855362   
   2250.3420 145.28242878     249.90192987     2590.60769368   
   2250.4944 147.67868486     248.75737007     2600.26560621   
   2250.6468 146.16981356     247.33832175     2608.19565207   
   2250.7992 142.80973449     246.14125280     2616.75692681   
   2250.9516 138.28131703     244.74500224     2619.59467272   
   2251.1040 136.12547571     243.52260346     2610.54342730   
   2251.2564 140.10538346     242.15235567     2595.92083025   
   2251.4088 143.41330675     240.90287505     2579.60103179   
   2251.5612 145.88133704     239.55896156     2570.11527029   
   2251.7136 148.27200060     238.28794704     2566.20099159   
   2251.8660 148.32724305     236.96482821     2566.98875345   
   2252.0184 147.05220602     235.67751684     2576.53259408   
   2252.1708 145.60073323     234.36287923     2586.52909145   
   2252.3232 142.79905392     233.07244974     2590.99355746   
   2252.4756 138.31221487     231.78245676     2588.56601668   
   2252.6280 133.69124417     230.48262553     2580.72888922   
   2252.7804 123.95371517     229.18523496     2587.50932612   
   2252.9328 112.10680125     227.87596453     2607.56127667   
   2253.0852 108.82174860     226.58125337     2640.07486287   
   2253.2376 118.82330652     225.26967899     2667.18657684   
   2253.3900 118.82287351     223.97660627     2699.86626707   
   2253.5424 118.52686623     222.66294143     2709.61029480   
   2253.6948 118.81364291     221.37202138     2705.02157906   
   2253.8472 111.85440881     220.05690343     2673.49228613   
   2253.9996 116.67818630     219.09125640     2645.25744371   
   2254.1520 120.37531192     219.47431219     2620.89010570   
   2254.3044 121.83670879     219.80143095     2596.85670464   
   2254.4568 121.89786765     220.10733150     2588.90420396   
   2254.6092 121.52830172     220.43205566     2593.80079147   
   2254.7616 123.11092718     220.73933126     2604.30982424   
   2254.9140 123.60098163     221.06226324     2611.35036932   
   2255.0664 124.01741508     221.37221736     2610.04078842   
   2255.2188 124.25592718     221.69258793     2608.74612139   
   2255.3712 123.68818976     222.00563869     2605.32888116   
   2255.5236 123.35286933     222.62053318     2602.18046349   
   2255.6760 121.25915960     222.61874526     2600.18355641   
   2255.8284 120.62272540     222.61843973     2598.09358788   
   2255.9808 119.12903494     223.12375176     2599.17131529   
   2256.1332 118.19933415     223.12238859     2602.18843852   
   2256.2856 118.19457649     223.12182467     2608.41277435   
   2256.4380 117.29791435     223.12117552     2619.64981346   
   2256.5904 116.66974477     223.12282867     2629.02168158   
   2256.7428 115.48809698     223.62829828     2629.90314666   
   2256.8952 115.75151309     223.63107462     2616.68117030   
   2257.0476 115.80477825     223.12057786     2593.81080485   
