~Version Information Block
 VERS.                2.00:     CWLS LOG ASCII STANDARD - VERSION 2.000000
 WRAP.                  NO:     One Line Per Depth Step
#
~Well Information Block
#MNEM.UNIT                     Data                         Information
#----------   ------------------------------------------   ----------------
 STRT.M                                      1900.0000:     START DEPTH
 STOP.M                                      2299.8976:     STOP DEPTH
 STEP.M                                         0.1524:     STEP
 NULL.                                       -999.2500:     NULL VALUE
 COMP.                                        Alphabow:     COMPANY
 WELL.                   SOC PINE CK 6-21-56-19 #97328:     WELL
 FLD .                                                :     FIELD
 LOC .                                                :     LOCATION
 CNTY.                                                :     COUNTY
 STAT.                                                :     STATE
 CTRY.                                                :     COUNTRY
 SRVC.                                                :     SERVICE COMPANY
 DATE.                                      03/29/2025:     DATE
 API .                                100062105619W500:     API NUMBER
 UWI .                                100062105619W500:     UWI NUMBER
 TVD .                                              NO:     TVD flag
 WSTA.                                             LOC:     Well status
#
~Curve Information Block
#MNEM.UNIT       API CODE      Curve Description
#----------    -------------   -------------------
 DEPT.M                    :   Depth in Meters
 SP  .MV       01 010 01 01:   Spontaneous Potential
 SFLU.OHMM     10 220 01 01:   SFL Resistivity (Unaveraged)
 ILD .OHMM     05 120 46 01:   Deep Induction Standard Processed Resistivity
#
~Parameter Information Block
#MNEM.UNIT            Value               Description
#----------    --------------------    -------------------
 RUN .                         ONE:    Run Number
 PDAT.                         UNK:    Permanent Datum
 EPD .M                 -9999.5000:    Elevation Of Perm. Datum
 WSTA.                         LOC:    
 E   .M                 -9999.5000:    E (Stretch Coefficient Of The Cable)
 TD  .M                  2300.0000:    Total Depth
#
~Other Information Block
<DescLogPlotStart>   NEURALOG PLOT DEFINITION
PLOTDEFVERSION: 3
LASFILE: C:\Users\wadet\Desktop\Alphabow Evaluation\well_info\second_white_spec
DEPTHSCALE: 240.000000
RESOLUTION: 200
DEPTHLABELFREQ: 50.000000
HEAVYGRIDFREQ: 50.000000
MEDIUMGRIDFREQ: 25.000000
LIGHTGRIDFREQ: 5.000000
#
#   TRACK 1
#
STARTTRACK: 
 LEFTX: 0.500000 inch
 RIGHTX: 3.000000 inch
 SCALETYPE: Linear
 NUMCHARTDIVISIONS: 10
CURVE: SP    0.000000   150.000000 (0,0,255)      Solid             2     N    
ENDTRACK: 
#
#   TRACK 2
#
STARTTRACK: 
 LEFTX: 3.500000 inch
 RIGHTX: 8.500000 inch
 SCALETYPE: Linear
 NUMCHARTDIVISIONS: 34
CURVE: SFLU  0.200000   2000.000000 (0,131,131)    Solid             2     N   
CURVE: ILD   0.200000   2000.000000 (255,0,255)    Dot               2     N   
ENDTRACK: 
<DescLogPlotEnd>
~A DEPTH     SP               SFLU             ILD             
# ...
   2147.6500 120.53630673     961.63315547     896.95837208    
   2147.8024 120.46246081     964.16670061     899.35256822    
   2147.9548 120.23896736     966.09412484     895.62092487    
   2148.1072 119.99277062     962.54668803     917.34867516    
   2148.2596 119.60077313     953.37478494     897.00800611    
   2148.4120 119.60450907     948.18293804     897.57116638    
   2148.5644 119.65204538     945.57461902     896.37761922    
   2148.7168 120.77006353     945.37178995     896.11028334    
   2148.8692 121.12508137     946.52675447     895.86629041    
   2149.0216 122.38848495     948.14220889     895.60439031    
   2149.1740 125.68576091     949.77797093     895.34406190    
   2149.3264 127.23783191     951.80079238     895.08434801    
   2149.4788 129.32864437     956.59753038     894.82496632    
   2149.6312 130.66804866     957.99383682     894.55921683    
   2149.7836 131.28310622     959.65021604     894.08883661    
   2149.9360 131.54870521     959.58518231     892.78491075    
   2150.0884 131.74238231     955.66850911     891.49121562    
   2150.2408 131.51871084     948.30039628     890.20009841    
   2150.3932 131.21251671     934.48254117     888.90825879    
   2150.5456 131.42639747     925.34454249     887.61626374    
   2150.6980 131.89439171     927.18524147     886.32705118    
   2150.8504 132.13841262     933.59208593     885.04275734    
   2151.0028 131.73355571     939.99823553     883.64725974    
   2151.1552 131.10124797     945.82510248     882.12952732    
   2151.3076 130.17190493     950.35416992     887.09076638    
   2151.4600 129.61593307     954.05865269     892.71479884    
   2151.6124 129.14928912     953.90879401     889.94945586    
   2151.7648 129.06599851     953.87346750     890.87455955    
   2151.9172 129.07519282     954.36002929     890.60889155    
   2152.0696 128.90546000     958.81540921     891.91392981    
   2152.2220 129.10664449     962.34160084     892.72813847    
   2152.3744 129.37441387     962.30295243     890.62990339    
   2152.5268 129.98755015     958.30009507     890.17305380    
   2152.6792 130.37219743     951.68120209     890.10172859    
   2152.8316 130.82264472     944.31255800     889.00732762    
   2152.9840 131.25060978     941.41527838     890.12945871    
   2153.1364 131.22827370     947.80654091     890.20933636    
   2153.2888 131.16326553     955.97575735     890.04648105    
   2153.4412 130.39628275     961.51997089     892.35255048    
   2153.5936 129.68699622     965.58269748     892.43891633    
   2153.7460 129.07028157     966.81983412     890.05256872    
   2153.8984 128.77234196     962.21840342     892.55723453    
   2154.0508 128.58457040     955.58377624     888.49312321    
   2154.2032 128.47812210     949.26645256     886.14931629    
   2154.3556 128.77377115     945.19431578     883.94537117    
   2154.5080 129.40495817     943.90987354     881.99667780    
   2154.6604 129.70991730     941.66793786     879.99135596    
   2154.8128 130.06228155     943.35019845     880.33976537    
   2154.9652 130.79339303     945.33088207     879.42277482    
   2155.1176 131.46340516     946.15799540     878.35810137    
   2155.2700 132.21995798     949.96073474     878.90431475    
   2155.4224 132.63533715     949.45302467     877.77845245    
   2155.5748 133.95071578     948.04072099     880.23984421    
   2155.7272 134.33634630     945.68430959     880.10429718    
   2155.8796 134.95934424     945.71936539     876.66368028    
   2156.0320 135.27522351     945.54787846     877.15438539    
   2156.1844 135.48684100     944.01731116     875.48492957    
   2156.3368 135.47975666     941.52664380     871.70374186    
   2156.4892 135.25192640     937.45511740     871.85496870    
   2156.6416 134.59605996     933.41357219     868.03417459    
   2156.7940 134.00533113     931.45340429     867.68268456    
   2156.9464 133.13092011     927.70549869     865.26637280    
   2157.0988 131.84417494     925.22673515     863.58847819    
   2157.2512 131.04726062     924.85797411     865.14838908    
   2157.4036 129.97793964     925.58072314     863.99804341    
   2157.5560 128.70833852     924.47103785     855.54047898    
   2157.7084 126.91938709     925.23881407     855.31375066    
   2157.8608 125.69190164     925.09994667     855.33719085    
   2158.0132 125.41696958     924.77502509     855.34712973    
   2158.1656 125.70417509     923.17683974     855.31743784    
   2158.3180 126.33096448     924.96139276     855.40336180    
   2158.4704 126.91311723     923.12384731     853.08403315    
   2158.6228 127.81112522     923.15329586     855.43773709    
   2158.7752 128.98592669     923.39328196     853.73239977    
   2158.9276 129.91838261     918.70160101     853.23142667    
   2159.0800 130.93007829     911.18460637     853.31349103    
   2159.2324 131.93702193     910.87468920     853.59991944    
   2159.3848 133.46737543     919.32945837     855.72030546    
   2159.5372 134.03935947     933.98773251     857.79180574    
   2159.6896 134.25146834     953.76987563     853.57026959    
   2159.8420 134.23952058     961.73515163     855.33642113    
   2159.9944 134.81537119     953.85223281     857.05881594    
   2160.1468 135.15717061     937.92805336     858.36829729    
   2160.2992 135.48677885     923.21955791     853.78951042    
   2160.4516 135.48615615     911.18401950     851.21340140    
   2160.6040 135.53589852     910.38031311     851.19878772    
   2160.7564 135.43505268     908.78329050     849.80680401    
   2160.9088 135.43805869     908.54144593     847.05109484    
   2161.0612 135.37682094     911.51024931     848.19972629    
   2161.2136 135.15960676     912.77985591     846.92951236    
   2161.3660 134.90732485     915.18574429     847.19533466    
   2161.5184 134.88543051     916.57975081     848.76573782    
   2161.6708 134.88231896     916.98512417     848.93005922    
   2161.8232 134.86046228     916.88249391     848.62745306    
   2161.9756 134.97493476     915.17229442     848.33365828    
   2162.1280 135.17015493     910.87646553     848.06063344    
   2162.2804 135.21057095     911.09383970     847.78652199    
   2162.4328 135.36545049     913.09071434     847.51240540    
   2162.5852 135.73763978     913.39692142     847.23527450    
   2162.7376 135.32808851     910.40496036     847.13944919    
   2162.8900 134.15168148     909.02885726     847.13812357    
   2163.0424 132.77086158     907.40132625     847.13901747    
   2163.1948 130.86609088     904.60024909     847.13829877    
   2163.3472 129.66769061     902.79530124     847.12204164    
   2163.4996 128.68552619     906.29009756     847.18206358    
   2163.6520 128.15941748     915.40729349     851.88538005    
   2163.8044 128.18113975     928.98549142     857.18986921    
   2163.9568 128.40954075     941.81401190     862.42625362    
   2164.1092 128.40878852     950.14755039     866.42714294    
   2164.2616 128.17222574     952.23232566     879.84499312    
   2164.4140 128.15644111     953.81444324     878.37702085    
   2164.5664 128.17615434     956.07043519     877.62200031    
   2164.7188 128.40220672     954.37404342     879.92271974    
   2164.8712 128.79542202     954.04253471     877.97512836    
   2165.0236 129.34955767     950.27782425     875.94259925    
   2165.1760 130.27940231     943.01784633     875.78192663    
   2165.3284 131.29791207     934.91794471     871.49592685    
   2165.4808 131.84537036     929.22906888     869.85820645    
   2165.6332 131.75082619     925.56035710     869.10678447    
   2165.7856 131.30978809     923.15485355     869.91565737    
   2165.9380 130.31114194     927.96621185     871.32886829    
   2166.0904 128.91404899     936.12359110     873.53341594    
   2166.2428 127.86842518     942.58713116     876.51582738    
   2166.3952 127.59441250     952.95786967     880.21212181    
   2166.5476 127.26717674     958.28407621     881.35784612    
