~Version Information Block
 VERS.                2.00:     CWLS LOG ASCII STANDARD - VERSION 2.000000
 WRAP.                  NO:     One Line Per Depth Step
#
~Well Information Block
#MNEM.UNIT                     Data                         Information
#----------   ------------------------------------------   ----------------
 STRT.M                                      1800.0000:     START DEPTH
 STOP.M                                      2299.8720:     STOP DEPTH
 STEP.M                                         0.1524:     STEP
 NULL.                                       -999.2500:     NULL VALUE
 COMP.                                        Alphabow:     COMPANY
 WELL.                   ABE PINE CK 6-21-56-19 #97328:     WELL
 FLD .                                      Pine Creek:     FIELD
 LOC .                           100/06-21-056-19W5/00:     LOCATION
 CNTY.                                                :     COUNTY
 STAT.                                         Alberta:     STATE
 CTRY.                                          Canada:     COUNTRY
 SRVC.                                                :     SERVICE COMPANY
 DATE.                                      03/28/2025:     DATE
 API .                                100062105619W500:     API NUMBER
 UWI .                                100062105619W500:     UWI NUMBER
 TVD .                                              NO:     TVD flag
 WSTA.                                             LOC:     Well status
#
~Curve Information Block
#MNEM.UNIT       API CODE      Curve Description
#----------    -------------   -------------------
 DEPT.M                    :   Depth in Meters
 GR  .GAPI     35 310 01 01:   Gamma Ray
 CALI.mm       70 280 01 01:   Caliper
 RHOB.kg/m3     42 350 01 01:   Bulk Density
#
~Parameter Information Block
#MNEM.UNIT            Value               Description
#----------    --------------------    -------------------
 RUN .                         ONE:    Run Number
 PDAT.                         UNK:    Permanent Datum
 EPD .M                 -9999.5000:    Elevation Of Perm. Datum
 TD  .M                  2300.0000:    Total Depth
 WSTA.                         LOC:    
 LATB.M                     0.0000:    
 LONB.M                     0.0000:    
#
~Other Information Block
<DescLogPlotStart>   NEURALOG PLOT DEFINITION
PLOTDEFVERSION: 3
LASFILE: C:\Users\wadet\Desktop\Alphabow Evaluation\well_info\second_white_spec
DEPTHSCALE: 600.000000
RESOLUTION: 200
DEPTHLABELFREQ: 100.000000
HEAVYGRIDFREQ: 50.000000
MEDIUMGRIDFREQ: 25.000000
LIGHTGRIDFREQ: 25.000000
#
#   TRACK 1
#
STARTTRACK: 
 LEFTX: 0.500000 inch
 RIGHTX: 3.000000 inch
 SCALETYPE: Linear
 NUMCHARTDIVISIONS: 10
CURVE: GR    0.000000   150.000000 (0,0,255)      Solid             2     N    
CURVE: CALI  125.000000 375.000000 (0,131,131)    Dot               2     N    
ENDTRACK: 
#
#   TRACK 2
#
STARTTRACK: 
 LEFTX: 3.500000 inch
 RIGHTX: 8.500000 inch
 SCALETYPE: Linear
 NUMCHARTDIVISIONS: 17
CURVE: RHOB  2000.000000 3000.000000 (255,0,255)    Solid             2     N  
ENDTRACK: 
<DescLogPlotEnd>
~A DEPTH     GR               CALI             RHOB            
# ...
   2181.0000 126.13294685     224.14261522     2610.34046399   
   2181.1524 124.29259210     224.12885024     2606.39558846   
   2181.3048 122.78245678     224.14619190     2603.14261127   
   2181.4572 123.08393330     224.12521757     2602.28294595   
   2181.6096 124.60246188     224.14990170     2602.12766619   
   2181.7620 127.04211104     224.12179311     2599.17832070   
   2181.9144 130.37049745     224.15306196     2599.02295151   
   2182.0668 131.90459951     224.11924002     2600.18526973   
   2182.2192 132.18549803     224.15664405     2602.10644953   
   2182.3716 131.29562708     224.11858605     2608.41203253   
   2182.5240 129.75316598     222.63863684     2614.48645376   
   2182.6764 129.77436431     222.59690050     2615.62315240   
   2182.8288 131.57775601     222.63875733     2611.42047422   
   2182.9812 132.50570231     222.59673452     2606.33373768   
   2183.1336 132.49650632     222.63902849     2604.23403478   
   2183.2860 130.67687214     222.59631280     2604.22857530   
   2183.4384 129.46207435     222.63962752     2610.42978056   
   2183.5908 128.84230480     222.59553128     2613.45430209   
   2183.7432 128.85761234     222.64057378     2621.79816439   
   2183.8956 131.26581264     222.59446057     2627.84986099   
   2184.0480 134.03099661     222.64249672     2627.99861246   
   2184.2004 136.12612405     222.59321184     2625.76261649   
   2184.3528 135.86426267     222.64385396     2614.61686122   
   2184.5052 134.30356857     223.60448430     2606.18910517   
   2184.6576 132.52432174     224.16489943     2596.07632339   
   2184.8100 131.87075959     224.10958551     2603.64940520   
   2184.9624 131.04989605     222.64449324     2610.41174718   
   2185.1148 130.17462515     222.58959289     2616.89030751   
   2185.2672 130.09353034     222.64417472     2623.84944717   
   2185.4196 130.96994675     222.59033961     2617.61380832   
   2185.5720 130.69547175     222.64306995     2608.36005236   
   2185.7244 129.75658016     222.59172318     2594.99448332   
   2185.8768 128.56050174     222.64227904     2590.81967717   
   2186.0292 127.33056935     222.59328906     2595.02848895   
   2186.1816 127.03671294     222.64088486     2594.91442221   
   2186.3340 127.34117802     223.09997936     2590.92642350   
   2186.4864 127.94761837     223.14645957     2588.71656566   
   2186.6388 128.93209234     223.09943633     2589.89292745   
   2186.7912 129.45924025     223.14683213     2594.88494815   
   2186.9436 129.17523129     223.60724030     2599.13889659   
   2187.0960 128.84136216     223.65499211     2603.12029693   
   2187.2484 129.78613449     223.60764201     2605.32535285   
   2187.4008 131.87227980     223.14703076     2608.29873996   
   2187.5532 132.82690373     223.10163649     2606.37891573   
   2187.7056 132.77559770     223.14485354     2607.29858622   
   2187.8580 132.22225495     223.10382458     2614.62124375   
   2188.0104 131.85726267     223.14086029     2619.66119666   
   2188.1628 131.00906182     223.61473317     2623.87676360   
   2188.3152 130.94187665     223.64165224     2620.66829961   
   2188.4676 131.31574724     223.62009039     2611.50127942   
   2188.6200 132.15737921     223.13052631     2607.25563831   
   2188.7724 132.83708624     223.12062809     2603.25536556   
   2188.9248 133.07004645     222.61720260     2602.09781710   
   2189.0772 132.22993005     222.61904172     2602.24620406   
   2189.2296 131.55585048     223.11954795     2596.95341002   
   2189.3820 130.10012534     223.12927702     2595.04570363   
   2189.5344 129.43362967     224.12993083     2597.30707365   
   2189.6868 129.18332374     224.14324428     2601.22394422   
   2189.8392 128.53075061     224.12872157     2615.47490510   
   2189.9916 126.39172450     223.63657444     2624.88810607   
   2190.1440 124.55473549     223.38326344     2632.26362180   
   2190.2964 123.09464749     223.19405655     2639.98347988   
   2190.4488 122.77207566     223.12012472     2640.21625931   
   2190.6012 123.68993448     223.12595028     2630.09625337   
   2190.7536 124.90401945     222.61755159     2616.50878861   
   2190.9060 126.72111697     223.63046100     2609.48581874   
   2191.0584 127.34063735     223.63285026     2607.20517859   
   2191.2108 127.32318774     222.61394146     2610.50168909   
   2191.3632 127.64861918     222.62129417     2618.51889668   
   2191.5156 128.53566536     222.61193290     2622.88703554   
   2191.6680 129.17237479     222.62339243     2622.63108708   
   2191.8204 129.14004397     222.61121937     2616.72851884   
   2191.9728 128.26294361     222.62601713     2609.22954963   
   2192.1252 127.62172838     222.61183630     2596.14513699   
   2192.2776 127.95869341     222.62604744     2590.68949875   
   2192.4300 128.83401288     222.61117031     2591.00661201   
   2192.5824 129.16956804     222.62388889     2591.71988152   
   2192.7348 127.92073915     223.11777758     2596.16017513   
   2192.8872 125.21782664     222.62265963     2599.96977019   
   2193.0396 124.51466297     223.11946559     2601.28146095   
   2193.1920 123.88341863     224.13854214     2605.13323481   
   2193.3444 123.19453286     224.13836345     2594.04117228   
   2193.4968 122.55848598     223.62797746     2582.48912276   
   2193.6492 121.85019807     223.12933584     2577.53119203   
   2193.8016 123.69713773     223.11517423     2582.52651178   
   2193.9540 125.49728467     223.13462951     2591.93184176   
   2194.1064 126.12850151     223.10899801     2597.64803570   
   2194.2588 127.32069742     223.64688539     2603.23982027   
   2194.4112 128.24909030     224.11700400     2604.21034571   
   2194.5636 128.83787721     224.15934437     2603.22028948   
   2194.7160 128.55262901     224.11413392     2598.04868248   
   2194.8684 128.23475630     223.14933555     2590.81091429   
   2195.0208 127.71908832     223.09846494     2588.08641658   
   2195.1732 127.10768186     223.14908290     2585.41221199   
   2195.3256 126.42176987     223.09794979     2585.66165717   
   2195.4780 126.41118452     223.14963191     2593.95455403   
   2195.6304 126.71965548     224.11382880     2598.02554214   
   2195.7828 126.10755252     224.15990833     2599.10992518   
   2195.9352 125.49977392     224.11592298     2599.04715286   
   2196.0876 124.59085869     223.64959194     2596.01333113   
   2196.2400 123.98060910     223.10598039     2594.93103647   
   2196.3924 124.90084257     223.13978645     2593.93458132   
   2196.5448 124.58525623     223.10920302     2599.54316892   
   2196.6972 122.17205443     223.64416108     2605.24662701   
   2196.8496 120.93944730     224.63105400     2616.63420324   
   2197.0020 121.26713282     225.16241807     2627.88169340   
   2197.1544 122.45547897     225.13891211     2631.08952240   
   2197.3068 124.60879827     224.14801239     2624.71927448   
   2197.4592 125.18342638     223.11199642     2613.59598765   
   2197.6116 124.30476947     223.13586578     2608.19132239   
   2197.7640 123.35859211     223.61758524     2605.40350260   
   2197.9164 121.26765854     223.64402930     2611.26911290   
   2198.0688 120.62485556     223.61831406     2616.78408623   
   2198.2212 120.04963316     223.64718919     2626.71684331   
   2198.3736 120.01727368     223.61683829     2628.14714135   
   2198.5260 120.35060327     223.14147329     2620.52163293   
   2198.6784 120.32416564     223.10691529     2610.62447438   
   2198.8308 120.04428437     223.14288831     2601.97460779   
   2198.9832 120.02209162     223.10362137     2601.35634161   
   2199.1356 121.25195509     223.14597910     2608.18396665   
   2199.2880 122.76062132     223.60777867     2610.63948215   
   2199.4404 123.07645288     224.16289657     2610.26873352   
   2199.5928 121.55632438     224.10999964     2596.19948612   
   2199.7452 119.43418509     223.15310428     2587.59431573   
   2199.8976 118.88247269     223.09048902     2590.92641137   
