~Version Information Block
 VERS.                2.00:     CWLS LOG ASCII STANDARD - VERSION 2.000000
 WRAP.                  NO:     One Line Per Depth Step
#
~Well Information Block
#MNEM.UNIT                     Data                         Information
#----------   ------------------------------------------   ----------------
 STRT.M                                      1800.0000:     START DEPTH
 STOP.M                                      2299.8720:     STOP DEPTH
 STEP.M                                         0.1524:     STEP
 NULL.                                       -999.2500:     NULL VALUE
 COMP.                                        Alphabow:     COMPANY
 WELL.                   ABE PINE CK 6-21-56-19 #97328:     WELL
 FLD .                                      Pine Creek:     FIELD
 LOC .                           100/06-21-056-19W5/00:     LOCATION
 CNTY.                                                :     COUNTY
 STAT.                                         Alberta:     STATE
 CTRY.                                          Canada:     COUNTRY
 SRVC.                                                :     SERVICE COMPANY
 DATE.                                      03/28/2025:     DATE
 API .                                100062105619W500:     API NUMBER
 UWI .                                100062105619W500:     UWI NUMBER
 TVD .                                              NO:     TVD flag
 WSTA.                                             LOC:     Well status
#
~Curve Information Block
#MNEM.UNIT       API CODE      Curve Description
#----------    -------------   -------------------
 DEPT.M                    :   Depth in Meters
 GR  .GAPI     35 310 01 01:   Gamma Ray
 CALI.mm       70 280 01 01:   Caliper
 RHOB.kg/m3     42 350 01 01:   Bulk Density
#
~Parameter Information Block
#MNEM.UNIT            Value               Description
#----------    --------------------    -------------------
 RUN .                         ONE:    Run Number
 PDAT.                         UNK:    Permanent Datum
 EPD .M                 -9999.5000:    Elevation Of Perm. Datum
 TD  .M                  2300.0000:    Total Depth
 WSTA.                         LOC:    
 LATB.M                     0.0000:    
 LONB.M                     0.0000:    
#
~Other Information Block
<DescLogPlotStart>   NEURALOG PLOT DEFINITION
PLOTDEFVERSION: 3
LASFILE: C:\Users\wadet\Desktop\Alphabow Evaluation\well_info\second_white_spec
DEPTHSCALE: 600.000000
RESOLUTION: 200
DEPTHLABELFREQ: 100.000000
HEAVYGRIDFREQ: 50.000000
MEDIUMGRIDFREQ: 25.000000
LIGHTGRIDFREQ: 25.000000
#
#   TRACK 1
#
STARTTRACK: 
 LEFTX: 0.500000 inch
 RIGHTX: 3.000000 inch
 SCALETYPE: Linear
 NUMCHARTDIVISIONS: 10
CURVE: GR    0.000000   150.000000 (0,0,255)      Solid             2     N    
CURVE: CALI  125.000000 375.000000 (0,131,131)    Dot               2     N    
ENDTRACK: 
#
#   TRACK 2
#
STARTTRACK: 
 LEFTX: 3.500000 inch
 RIGHTX: 8.500000 inch
 SCALETYPE: Linear
 NUMCHARTDIVISIONS: 17
CURVE: RHOB  2000.000000 3000.000000 (255,0,255)    Solid             2     N  
ENDTRACK: 
<DescLogPlotEnd>
~A DEPTH     GR               CALI             RHOB            
# ...
   1895.2500 119.66611610     278.85199796     2089.53405369   
   1895.4024 117.32492424     271.74071289     2108.87512900   
   1895.5548 118.45834568     271.12259105     2147.05882353   
   1895.7072 117.32726458     270.10933599     2201.75438596   
   1895.8596 115.12900419     269.33094795     2233.74613003   
   1896.0120 113.06601564     268.31145980     2235.81011352   
   1896.1644 111.49164790     267.53431993     2228.58617131   
   1896.3168 112.14151541     266.67215182     2218.26625387   
   1896.4692 113.32775345     263.75749702     2210.01031992   
   1896.6216 113.04543295     263.63309571     2197.62641899   
   1896.7740 113.04140586     264.77717778     2188.33849329   
   1896.9264 114.56031818     266.67860798     2176.98658411   
   1897.0788 115.78643951     267.82435687     2172.85861713   
   1897.2312 116.07247676     270.73376853     2166.66666667   
   1897.3836 114.57076202     270.86483109     2172.85861713   
   1897.5360 113.03173340     270.74839399     2182.14654283   
   1897.6884 111.83230528     270.34314701     2192.46646027   
   1897.8408 112.42523551     269.22795984     2202.78637771   
   1897.9932 113.34572499     268.81128709     2216.20227038   
   1898.1456 113.94979746     268.73168194     2245.09803922   
   1898.2980 113.33410954     268.21842036     2273.99380805   
   1898.4504 112.13086807     267.96563615     2287.40970072   
   1898.6028 111.19712734     267.77110523     2260.88346749   
   1898.7552 111.53138031     268.75198098     2209.54873065   
   1898.9076 113.92726443     270.79467637     2156.34559340   
   1899.0600 116.39696760     272.42174682     2111.97110423   
   1899.2124 119.69477531     274.59601003     2076.88338493   
   1899.3648 120.95615650     276.36654538     2090.29927761   
   1899.5172 120.60523379     274.32736419     2149.12280702   
   1899.6696 118.82867120     273.84500468     2198.65841073   
   1899.8220 117.56903799     276.34778493     2236.84210526   
   1899.9744 117.16292599     275.97794744     2249.88610472   
   1900.1268 116.72061278     275.57509673     2261.59947596   
   1900.2792 116.38827914     275.25350055     2273.31284720   
   1900.4316 116.35587333     274.84207782     2285.02621844   
   1900.5840 116.07444407     274.52052596     2296.73958968   
   1900.7364 115.44307044     274.10759768     2308.45296092   
   1900.8888 115.15068460     273.83707756     2320.16633217   
   1901.0412 115.14459030     274.29218818     2331.87970341   
   1901.1936 115.45346438     274.34366167     2322.49742002   
   1901.3460 115.76642584     274.29563264     2146.43261094   
   1901.4984 114.84519231     274.34496719     2011.86790506   
   1901.6508 113.65256874     274.30187886     2011.63152116   
   1901.8032 112.10568576     274.34370443     2011.42391744   
   1901.9556 111.83697835     274.30247744     2011.21631373   
   1902.1080 113.31390075     274.33900229     2011.00871001   
   1902.2604 114.87935356     274.31630869     2010.83591331   
   1902.4128 114.83041698     271.80453424     2072.19613003   
   1902.5652 111.84365031     270.27766214     2124.74582043   
   1902.7176 108.45244002     266.22889891     2177.29551084   
   1902.8700 104.24722120     258.41589350     2229.84520124   
   1903.0224 100.86313734     253.05664597     2282.39489164   
   1903.1748 97.25483632      251.57362050     2334.94458204   
   1903.3272 98.13914901      251.02299410     2387.49427245   
   1903.4796 101.19553481     250.06770068     2428.79256966   
   1903.6320 103.61518740     250.00226279     2406.08875129   
   1903.7844 105.43605166     250.07680778     2399.89680083   
   1903.9368 105.43898210     250.50420652     2357.58513932   
   1904.0892 105.72875587     250.08158374     2293.60165119   
   1904.2416 106.04685806     249.99823371     2263.67389061   
   1904.3940 107.54990170     250.08147983     2235.81011352   
   1904.5464 108.17441933     253.45120188     2232.71413829   
   1904.6988 109.37875541     256.28539879     2230.65015480   
   1904.8512 110.24747464     258.97708939     2227.55417957   
   1905.0036 111.21359872     261.79762897     2220.28612277   
   1905.1560 112.16285550     264.50140150     2210.83809982   
   1905.3084 112.73993128     267.29998053     2197.62641899   
   1905.4608 114.52432447     270.02431008     2189.37048504   
   1905.6132 116.08844929     272.31846538     2173.89060888   
   1905.7656 116.33633771     273.33366573     2167.69865841   
   1905.9180 114.88214583     274.22524391     2170.79463364   
   1906.0704 112.37993030     275.09580308     2172.85861713   
   1906.2228 108.49990623     275.98177511     2165.89719237   
   1906.3752 106.90629672     276.85363307     2158.23300378   
   1906.5276 105.76391835     277.73713656     2155.54741120   
   1906.6800 106.00029247     278.59937636     2171.59932850   
   1906.8324 106.06477876     279.49309339     2183.39981708   
   1906.9848 105.71019993     280.35086221     2198.38961513   
   1907.1372 106.36224224     281.26305428     2188.55998405   
   1907.2896 108.76185137     282.09751018     2169.49823055   
   1907.4420 112.42282706     283.03186062     2138.03750745   
   1907.5944 116.67532993     283.84047901     2118.97090973   
   1907.7468 118.79075757     284.80642452     2113.27444131   
   1907.8992 119.42599590     285.58854804     2128.25785108   
   1908.0516 117.86883534     286.58312090     2150.36280876   
   1908.2040 115.18651072     287.33369169     2166.42924745   
   1908.3564 112.38764462     288.35625905     2142.08765725   
   1908.5088 106.08004804     290.97031395     2118.96432789   
   1908.6612 103.56413706     290.63417726     2091.61744793   
   1908.8136 103.35149925     290.45214286     2078.82569466   
   1908.9660 103.25448046     285.65603594     2086.37924463   
   1909.1184 104.87396252     281.83515663     2098.45451500   
   1909.2708 106.89836766     281.03538204     2097.65658024   
   1909.4232 108.82165346     280.81702251     2085.11822362   
   1909.5756 109.02859904     279.63550454     2079.02735375   
   1909.7280 106.08600592     276.84325759     2089.25465916   
   1909.8804 106.60976835     274.45889083     2101.22929066   
   1910.0328 106.94371296     275.02621929     2102.54457561   
   1910.1852 107.13033827     276.03819938     2103.84826008   
   1910.3376 107.44787629     278.80778676     2096.47540029   
   1910.4900 107.82696488     278.99997278     2091.36116062   
   1910.6424 108.52399239     281.35411874     2095.43381986   
   1910.7948 109.14501043     278.48035618     2110.91605822   
   1910.9472 109.81893659     276.31081679     2124.22555606   
   1911.0996 110.46383938     275.93128573     2135.67640325   
   1911.2520 111.19744310     274.30265514     2117.98241486   
   1911.4044 111.00876378     274.38699311     2080.05890877   
   1911.5568 110.78184456     274.31483536     2071.01466301   
   1911.7092 110.58065381     274.36888059     2062.05869768   
   1911.8616 110.34514533     274.32963693     2052.60624750   
   1912.0140 110.14579252     274.35402227     2043.73577851   
   1912.1664 109.66107053     274.33567363     2034.33473002   
   1912.3188 108.73615786     274.34308528     2025.17079199   
   1912.4712 107.77103478     274.34043489     2015.83611814   
   1912.6236 106.65317543     274.34262603     2006.67812082   
   1912.7760 106.78907360     274.34440537     2044.24816648   
   1912.9284 106.98367916     274.34475977     2039.59843859   
   1913.0808 107.16624360     274.34608528     1998.87073326   
   1913.2332 107.35181493     274.34266073     1998.72337538   
   1913.3856 107.54341442     274.34130350     1999.57892667   
   1913.5380 107.72032336     274.34288478     1999.62317580   
   1913.6904 107.87315056     274.33846106     2000.62143267   
   1913.8428 108.97630151     274.34317605     2000.51573228   
   1913.9952 109.89594249     274.33837938     2001.65148486   
   1914.1476 110.77972019     274.34303591     2058.96904645   
