~Version Information Block
 VERS.                2.00:     CWLS LOG ASCII STANDARD - VERSION 2.000000
 WRAP.                  NO:     One Line Per Depth Step
#
~Well Information Block
#MNEM.UNIT                     Data                         Information
#----------   ------------------------------------------   ----------------
 STRT.M                                      1800.0000:     START DEPTH
 STOP.M                                      2299.8720:     STOP DEPTH
 STEP.M                                         0.1524:     STEP
 NULL.                                       -999.2500:     NULL VALUE
 COMP.                                        Alphabow:     COMPANY
 WELL.                   ABE PINE CK 6-21-56-19 #97328:     WELL
 FLD .                                      Pine Creek:     FIELD
 LOC .                           100/06-21-056-19W5/00:     LOCATION
 CNTY.                                                :     COUNTY
 STAT.                                         Alberta:     STATE
 CTRY.                                          Canada:     COUNTRY
 SRVC.                                                :     SERVICE COMPANY
 DATE.                                      03/28/2025:     DATE
 API .                                100062105619W500:     API NUMBER
 UWI .                                100062105619W500:     UWI NUMBER
 TVD .                                              NO:     TVD flag
 WSTA.                                             LOC:     Well status
#
~Curve Information Block
#MNEM.UNIT       API CODE      Curve Description
#----------    -------------   -------------------
 DEPT.M                    :   Depth in Meters
 GR  .GAPI     35 310 01 01:   Gamma Ray
 CALI.mm       70 280 01 01:   Caliper
 RHOB.kg/m3     42 350 01 01:   Bulk Density
#
~Parameter Information Block
#MNEM.UNIT            Value               Description
#----------    --------------------    -------------------
 RUN .                         ONE:    Run Number
 PDAT.                         UNK:    Permanent Datum
 EPD .M                 -9999.5000:    Elevation Of Perm. Datum
 TD  .M                  2300.0000:    Total Depth
 WSTA.                         LOC:    
 LATB.M                     0.0000:    
 LONB.M                     0.0000:    
#
~Other Information Block
<DescLogPlotStart>   NEURALOG PLOT DEFINITION
PLOTDEFVERSION: 3
LASFILE: C:\Users\wadet\Desktop\Alphabow Evaluation\well_info\second_white_spec
DEPTHSCALE: 600.000000
RESOLUTION: 200
DEPTHLABELFREQ: 100.000000
HEAVYGRIDFREQ: 50.000000
MEDIUMGRIDFREQ: 25.000000
LIGHTGRIDFREQ: 25.000000
#
#   TRACK 1
#
STARTTRACK: 
 LEFTX: 0.500000 inch
 RIGHTX: 3.000000 inch
 SCALETYPE: Linear
 NUMCHARTDIVISIONS: 10
CURVE: GR    0.000000   150.000000 (0,0,255)      Solid             2     N    
CURVE: CALI  125.000000 375.000000 (0,131,131)    Dot               2     N    
ENDTRACK: 
#
#   TRACK 2
#
STARTTRACK: 
 LEFTX: 3.500000 inch
 RIGHTX: 8.500000 inch
 SCALETYPE: Linear
 NUMCHARTDIVISIONS: 17
CURVE: RHOB  2000.000000 3000.000000 (255,0,255)    Solid             2     N  
ENDTRACK: 
<DescLogPlotEnd>
~A DEPTH     GR               CALI             RHOB            
# ...
   1857.1500 139.83944143     259.56500166     2458.76918507   
   1857.3024 140.06029599     259.39646705     2448.36008100   
   1857.4548 141.64323085     259.22863005     2436.09194076   
   1857.6072 143.11011421     259.06013392     2421.54133379   
   1857.7596 143.75762736     258.89224422     2419.60989758   
   1857.9120 142.82471641     258.72381225     2443.21213044   
   1858.0644 140.40074262     258.55585022     2460.88177532   
   1858.2168 136.75420846     258.38749509     2489.62957163   
   1858.3692 133.39606927     258.21945550     2484.59689709   
   1858.5216 131.29292751     258.05117497     2475.17796165   
   1858.6740 132.77927908     257.88306714     2481.47656600   
   1858.8264 133.42449414     257.71484555     2501.99384202   
   1858.9788 133.38451388     257.54669038     2531.00617739   
   1859.1312 132.81925150     257.37838345     2550.35079421   
   1859.2836 130.34317713     257.21007652     2553.65390950   
   1859.4360 128.56545944     257.04213787     2545.25939106   
   1859.5884 126.39284922     256.87472948     2532.98626852   
   1859.7408 123.10073344     256.70679371     2529.86676486   
   1859.8932 120.73362238     256.53953909     2529.81631093   
   1860.0456 118.54275112     256.37128550     2538.34763502   
   1860.1980 116.26294698     256.20451077     2546.35026093   
   1860.3504 114.58794097     256.03562684     2559.84088740   
   1860.5028 113.02584567     255.86961192     2579.22563085   
   1860.6552 109.11282814     255.69986809     2580.77401750   
   1860.8076 106.34100667     255.53477686     2583.28384451   
   1860.9600 102.42718601     255.36408688     2563.06427499   
   1861.1124 100.27250563     255.19992019     2529.59192329   
   1861.2648 102.41935858     255.02837163     2498.01622946   
   1861.4172 103.61403556     254.86500955     2474.09425931   
   1861.5696 105.75505471     254.69409353     2474.31569612   
   1861.7220 106.95607428     254.76275671     2469.95610578   
   1861.8744 107.57172768     255.43367205     2470.20360958   
   1862.0268 110.30014599     256.12815065     2505.02242068   
   1862.1792 110.90559077     256.79681289     2484.65874586   
   1862.3316 109.99620786     257.49835299     2456.54186974   
   1862.4840 107.85979158     258.15588747     2439.27382952   
   1862.6364 106.04644551     258.87414395     2448.29639002   
   1862.7888 104.81711614     259.51350453     2467.12747541   
   1862.9412 104.83105552     260.25512928     2489.58150623   
   1863.0936 106.63398266     260.86853500     2482.59293040   
   1863.2460 107.86699473     261.63530399     2463.82184167   
   1863.3984 110.27387268     262.22119885     2430.99191480   
   1863.5508 109.99134370     263.01544689     2409.15621080   
   1863.7032 108.14380728     263.61414221     2398.03474892   
   1863.8556 106.64898796     265.26206271     2400.88951795   
   1864.0080 105.71923800     263.60700895     2408.27963304   
   1864.1604 106.04226431     255.13919541     2419.47500466   
   1864.3128 106.33835588     253.79287187     2438.15950446   
   1864.4652 106.35088054     252.55062960     2456.66271888   
   1864.6176 105.74186292     251.46281472     2475.25963747   
   1864.7700 105.12802666     250.57959857     2480.36326679   
   1864.9224 105.40812048     250.16666139     2479.47945423   
   1865.0748 105.74619208     251.09522048     2487.89312188   
   1865.2272 106.04558299     251.82433668     2496.39450656   
   1865.3796 106.32882563     252.57869854     2509.21020478   
   1865.5320 106.35593112     252.00441414     2541.26228283   
   1865.6844 106.32828115     251.04617922     2558.65384248   
   1865.8368 105.75249026     251.51490288     2553.64387749   
   1865.9892 104.19683488     252.55045714     2530.65863961   
   1866.1416 102.10140005     253.04960866     2505.24574725   
   1866.2940 102.36933517     252.53976660     2480.17001447   
   1866.4464 104.22704726     252.55212365     2458.92988022   
   1866.5988 107.84277886     253.02218007     2472.96659997   
   1866.7512 112.12891324     255.09149095     2486.78183742   
   1866.9036 114.83697655     255.54283448     2505.99209465   
   1867.0560 114.55790753     256.11090821     2490.85997469   
   1867.2084 112.41179874     256.04129103     2463.77430563   
   1867.3608 109.69464144     251.55769001     2435.10330339   
   1867.5132 108.47108794     251.48411326     2420.49757469   
   1867.6656 109.38598656     251.55996653     2420.53127118   
   1867.8180 109.99697416     251.49357668     2422.60280642   
   1867.9704 109.68409852     251.55829006     2413.27278604   
   1868.1228 109.09195832     252.00836499     2408.24393932   
   1868.2752 106.94240942     251.55114365     2401.93153440   
   1868.4276 104.53832249     251.51514585     2414.36523605   
   1868.5800 103.29006245     252.05070023     2482.42345130   
   1868.7324 103.63317259     251.53051038     2505.11478970   
   1868.8848 106.32787794     251.53970210     2524.73948579   
   1869.0372 109.10777034     251.03431210     2522.63226062   
   1869.1896 112.10282689     251.54126865     2517.56269298   
   1869.3420 113.97201050     251.54510343     2498.88399792   
   1869.4944 115.14225454     251.54148945     2477.36027766   
   1869.6468 116.40113809     251.54251113     2473.05671713   
   1869.7992 118.18056348     251.53926794     2393.81112248   
   1869.9516 118.45176664     252.96328202     2343.93655330   
   1870.1040 118.64970905     256.13297775     2292.63882388   
   1870.2564 119.13045230     259.63096445     2284.23880948   
   1870.4088 119.09108515     260.66658023     2297.86755327   
   1870.5612 118.82032429     261.65035495     2315.19478776   
   1870.7136 118.77392255     262.69699048     2334.99148678   
   1870.8660 119.72553565     264.28677064     2338.95361951   
   1871.0184 120.58596645     268.77718914     2340.14834260   
   1871.1708 120.94319080     271.26178317     2344.13690327   
   1871.3232 119.67398292     272.32281774     2360.76102940   
   1871.4756 118.22165749     275.31109591     2375.09904462   
   1871.6280 117.85266053     275.36134347     2385.49977073   
   1871.7804 118.53346557     275.31184658     2398.83363033   
   1871.9328 121.19561591     275.36007564     2397.87298922   
   1872.0852 122.48581754     275.31357870     2393.67265963   
   1872.2376 124.84738348     275.35795033     2381.34095694   
   1872.3900 124.91366430     275.31842766     2365.79659947   
   1872.5424 122.43016086     275.35997789     2348.30804026   
   1872.6948 119.43396700     275.32689632     2337.93582385   
   1872.8472 115.75980550     275.35840766     2340.05109845   
   1872.9996 109.99854082     275.33219581     2354.44761605   
   1873.1520 106.66300106     275.35642857     2365.82292303   
   1873.3044 103.59728510     275.33859702     2360.55389749   
   1873.4568 101.21299075     274.85392600     2336.91398915   
   1873.6092 102.35952608     274.83845233     2329.64170528   
   1873.7616 103.66036976     274.85432690     2319.69544150   
   1873.9140 105.38181432     274.84421112     2310.10788934   
   1874.0664 105.80330322     274.85328004     2331.79292663   
   1874.2188 107.19428809     274.84071812     2342.06805127   
   1874.3712 107.63829090     274.84873360     2345.19053411   
   1874.5236 108.40290531     274.82657362     2348.24650860   
   1874.6760 110.07533648     274.85120535     2344.18112630   
   1874.8284 112.95802666     274.82088500     2335.86643848   
   1874.9808 112.40190693     274.98756455     2318.85113542   
   1875.1332 111.64273479     275.04102820     2303.95297959   
   1875.2856 111.26607214     275.22230454     2289.27709387   
   1875.4380 110.21964335     275.23852538     2266.76334232   
   1875.5904 107.90995025     275.46450025     2242.10741294   
   1875.7428 106.08927901     275.43062076     2221.01199350   
   1875.8952 103.64530270     275.69664781     2209.09884735   
   1876.0476 104.17548202     275.62148208     2234.79518035   
