~Version Information Block
 VERS.                2.00:     CWLS LOG ASCII STANDARD - VERSION 2.000000
 WRAP.                  NO:     One Line Per Depth Step
#
~Well Information Block
#MNEM.UNIT                     Data                         Information
#----------   ------------------------------------------   ----------------
 STRT.M                                      1800.0000:     START DEPTH
 STOP.M                                      2299.8720:     STOP DEPTH
 STEP.M                                         0.1524:     STEP
 NULL.                                       -999.2500:     NULL VALUE
 COMP.                                        Alphabow:     COMPANY
 WELL.                   ABE PINE CK 6-21-56-19 #97328:     WELL
 FLD .                                      Pine Creek:     FIELD
 LOC .                           100/06-21-056-19W5/00:     LOCATION
 CNTY.                                                :     COUNTY
 STAT.                                         Alberta:     STATE
 CTRY.                                          Canada:     COUNTRY
 SRVC.                                                :     SERVICE COMPANY
 DATE.                                      03/28/2025:     DATE
 API .                                100062105619W500:     API NUMBER
 UWI .                                100062105619W500:     UWI NUMBER
 TVD .                                              NO:     TVD flag
 WSTA.                                             LOC:     Well status
#
~Curve Information Block
#MNEM.UNIT       API CODE      Curve Description
#----------    -------------   -------------------
 DEPT.M                    :   Depth in Meters
 GR  .GAPI     35 310 01 01:   Gamma Ray
 CALI.mm       70 280 01 01:   Caliper
 RHOB.kg/m3     42 350 01 01:   Bulk Density
#
~Parameter Information Block
#MNEM.UNIT            Value               Description
#----------    --------------------    -------------------
 RUN .                         ONE:    Run Number
 PDAT.                         UNK:    Permanent Datum
 EPD .M                 -9999.5000:    Elevation Of Perm. Datum
 TD  .M                  2300.0000:    Total Depth
 WSTA.                         LOC:    
 LATB.M                     0.0000:    
 LONB.M                     0.0000:    
#
~Other Information Block
<DescLogPlotStart>   NEURALOG PLOT DEFINITION
PLOTDEFVERSION: 3
LASFILE: C:\Users\wadet\Desktop\Alphabow Evaluation\well_info\second_white_spec
DEPTHSCALE: 600.000000
RESOLUTION: 200
DEPTHLABELFREQ: 100.000000
HEAVYGRIDFREQ: 50.000000
MEDIUMGRIDFREQ: 25.000000
LIGHTGRIDFREQ: 25.000000
#
#   TRACK 1
#
STARTTRACK: 
 LEFTX: 0.500000 inch
 RIGHTX: 3.000000 inch
 SCALETYPE: Linear
 NUMCHARTDIVISIONS: 10
CURVE: GR    0.000000   150.000000 (0,0,255)      Solid             2     N    
CURVE: CALI  125.000000 375.000000 (0,131,131)    Dot               2     N    
ENDTRACK: 
#
#   TRACK 2
#
STARTTRACK: 
 LEFTX: 3.500000 inch
 RIGHTX: 8.500000 inch
 SCALETYPE: Linear
 NUMCHARTDIVISIONS: 17
CURVE: RHOB  2000.000000 3000.000000 (255,0,255)    Solid             2     N  
ENDTRACK: 
<DescLogPlotEnd>
~A DEPTH     GR               CALI             RHOB            
# ...
   2219.1000 125.50542389     223.58739589     2616.52283482   
   2219.2524 125.22328810     222.66417344     2615.66814513   
   2219.4048 124.59118291     222.56993353     2615.53373662   
   2219.5572 124.60614815     222.67391776     2608.37298530   
   2219.7096 125.19933672     222.56330576     2600.13039125   
   2219.8620 126.25461956     222.68385930     2593.51652716   
   2220.0144 126.60686459     224.08954458     2589.85977713   
   2220.1668 127.02820660     226.00749732     2585.77933259   
   2220.3192 128.25429297     227.60602567     2582.30739981   
   2220.4716 127.93863007     227.76825153     2577.17323275   
   2220.6240 128.56935622     227.59725482     2578.68553425   
   2220.7764 130.67070044     224.07256107     2592.58681681   
   2220.9288 133.12841097     223.03519559     2593.19010201   
   2221.0812 134.91495807     223.22246359     2603.93328360   
   2221.2336 135.25396107     224.55562587     2621.07073579   
   2221.3860 134.91157570     225.24442337     2638.98790037   
   2221.5384 132.51774138     225.06555659     2639.60085782   
   2221.6908 130.65776794     224.72795830     2632.82062490   
   2221.8432 127.95370565     227.60777159     2617.89968591   
   2221.9956 126.40859421     227.75330828     2606.03696279   
   2222.1480 126.12644873     228.02529501     2594.12481803   
   2222.3004 126.11535583     228.53786774     2581.34720273   
   2222.4528 125.81540835     228.61759604     2571.41437749   
   2222.6052 126.12551848     228.63622201     2572.11875991   
   2222.7576 128.23523325     228.49139812     2579.58060933   
   2222.9100 130.68893075     228.48236751     2582.45837403   
   2223.0624 133.08632328     228.35959365     2590.89540438   
   2223.2148 133.43717113     228.32589178     2603.07541736   
   2223.3672 133.08403818     228.22392345     2617.66203502   
   2223.5196 132.84212089     228.17777454     2633.98933758   
   2223.6720 132.77402635     228.09012769     2638.31130729   
   2223.8244 132.54349493     228.03479438     2637.12373104   
   2223.9768 131.24837548     227.95106503     2630.10485352   
   2224.1292 129.20406678     227.89146679     2613.41306435   
   2224.2816 128.80818257     227.81472617     2596.09168473   
   2224.4340 129.20217215     227.74931210     2587.62323154   
   2224.5864 130.32261509     227.68240131     2586.80651994   
   2224.7388 130.72214781     227.03729297     2596.87793491   
   2224.8912 130.82370827     226.44804612     2600.15364820   
   2225.0436 129.12436620     225.86118574     2594.42767925   
   2225.1960 127.23976172     225.27565714     2589.13473578   
   2225.3484 126.46750162     224.68487778     2583.48794507   
   2225.5008 127.90546937     224.10248433     2566.17300479   
   2225.6532 129.19776343     223.50889173     2546.39189801   
   2225.8056 130.95035693     222.92937746     2533.19687590   
   2225.9580 130.70845999     223.12291370     2540.24194423   
   2226.1104 130.65285148     223.63683441     2562.06029372   
   2226.2628 132.22013454     223.62580451     2581.47978735   
   2226.4152 132.48003764     223.12805614     2591.94162946   
   2226.5676 131.29811583     223.11772139     2595.90298552   
   2226.7200 129.44610680     222.61971109     2596.04125949   
   2226.8724 128.25840593     222.61059390     2595.89633613   
   2227.0248 128.23940074     223.12393101     2596.00705758   
   2227.1772 128.86744025     223.11514810     2594.85463068   
   2227.3296 128.84839146     223.12296496     2595.98232571   
   2227.4820 127.64823028     223.11377335     2596.92664647   
   2227.6344 127.01910586     223.12213968     2587.74628026   
   2227.7868 127.34318338     222.60930547     2578.40473063   
   2227.9392 128.23116633     222.61284868     2563.00477921   
   2228.0916 128.86938017     222.61096433     2556.74380356   
   2228.2440 128.23374411     222.60803733     2561.96856287   
   2228.3964 127.66033604     222.11026447     2566.01824931   
   2228.5488 127.92767674     219.56515501     2574.36672103   
   2228.7012 127.66591413     218.57324012     2580.44784610   
   2228.8536 126.71022511     217.02480235     2589.87335070   
   2229.0060 126.14692440     216.04922466     2593.84346061   
   2229.1584 127.61223458     215.62588098     2591.98653787   
   2229.3108 129.79162099     214.03129439     2573.21573747   
   2229.4632 131.86411114     213.97235943     2545.60452090   
   2229.6156 131.92108446     213.52942180     2536.02906569   
   2229.7680 130.95028638     213.46012081     2538.26555484   
   2229.9204 129.29052167     213.52903190     2561.52433051   
   2230.0728 127.72116990     214.97813002     2580.44653876   
   2230.2252 126.28519291     214.53909016     2597.94997725   
   2230.3776 127.29865046     214.47827454     2602.17761653   
   2230.5300 130.10803115     214.53680616     2607.24969212   
   2230.6824 131.54992288     214.48799545     2607.31723746   
   2230.8348 132.54722091     215.04084292     2594.91045124   
   2230.9872 132.45918880     214.99938894     2593.89165446   
   2231.1396 132.54497402     214.84229738     2600.37323192   
   2231.2920 132.45380256     214.63793748     2614.49731530   
   2231.4444 128.89802095     214.52779977     2634.17205811   
   2231.5968 128.88239061     214.48974126     2640.25883088   
   2231.7492 129.03843121     214.53190867     2619.74514602   
   2231.9016 129.01535298     213.97538402     2570.10968321   
   2232.0540 129.16035555     212.51615960     2524.88093143   
   2232.2064 129.14336761     210.92713669     2527.79117368   
   2232.3588 129.27853734     210.50277807     2533.92701788   
   2232.5112 129.27448629     210.41361850     2538.97887780   
   2232.6636 129.39624986     212.28509899     2544.59468818   
   2232.8160 129.40912092     214.45739528     2549.66361107   
   2232.9684 131.00567087     216.08076404     2555.23980403   
   2233.1208 135.52311970     220.53357856     2560.34572169   
   2233.2732 135.56090644     221.14123134     2565.85911908   
   2233.4256 132.48752292     224.08595843     2571.03045951   
   2233.5780 131.60890965     224.16934709     2576.46334594   
   2233.7304 130.05364298     222.57897256     2584.78190637   
   2233.8828 130.08349489     222.63497504     2593.26445811   
   2234.0352 131.87393203     222.59499809     2601.48156864   
   2234.1876 132.21271765     223.12351734     2609.91070665   
   2234.3400 131.56804965     223.11776771     2618.07217854   
   2234.4924 130.08889043     223.61059563     2621.72600313   
   2234.6448 130.04397898     224.14396792     2619.23805608   
   2234.7972 130.39449595     224.61083063     2617.20296671   
   2234.9496 130.11788535     223.89580913     2614.59772991   
   2235.1020 129.93041323     223.22961630     2612.68867988   
   2235.2544 130.34268037     222.64372499     2610.00039241   
   2235.4068 131.62099988     222.57986351     2608.22881151   
   2235.5592 132.47638389     222.64905767     2605.48214775   
   2235.7116 131.92646906     223.59647314     2603.75081326   
   2235.8640 131.26096064     223.66315451     2600.84479865   
   2236.0164 128.88445562     223.60118809     2601.37147823   
   2236.1688 127.61409040     223.15055931     2626.65720068   
   2236.3212 127.05281096     223.09824241     2604.97411788   
   2236.4736 127.31487308     222.64011447     2581.71729499   
   2236.6260 127.65288657     222.59660224     2559.04906108   
   2236.7784 127.32111297     222.63649933     2535.98625512   
   2236.9308 126.12510478     222.60064247     2513.07847583   
   2237.0832 124.89736623     224.15424084     2490.19383764   
   2237.2356 124.59679411     224.12327499     2467.13633650   
   2237.3880 125.20547034     222.63249819     2444.38744690   
   2237.5404 126.41320058     222.60456256     2455.65907603   
   2237.6928 127.64345180     222.62992749     2479.65927839   
   2237.8452 128.84475616     222.60519630     2536.02777416   
   2237.9976 130.07791702     222.62931438     2567.29108526   
