~Version Information Block
 VERS.                2.00:     CWLS LOG ASCII STANDARD - VERSION 2.000000
 WRAP.                  NO:     One Line Per Depth Step
#
~Well Information Block
#MNEM.UNIT                     Data                         Information
#----------   ------------------------------------------   ----------------
 STRT.M                                      1800.0000:     START DEPTH
 STOP.M                                      2199.8976:     STOP DEPTH
 STEP.M                                         0.1524:     STEP
 NULL.                                       -999.2500:     NULL VALUE
 COMP.                                        Alphabow:     COMPANY
 WELL.                   SOC PINE CK 9-20-56-19 #81814:     WELL
 FLD .                                                :     FIELD
 LOC .                           100/09-20-056-19W5/00:     LOCATION
 CNTY.                                                :     COUNTY
 STAT.                                                :     STATE
 CTRY.                                                :     COUNTRY
 SRVC.                                                :     SERVICE COMPANY
 DATE.                                      03/28/2025:     DATE
 API .                                100092005619W500:     API NUMBER
 UWI .                                100092005619W500:     UWI NUMBER
 TVD .                                              NO:     TVD flag
 WSTA.                                             LOC:     Well status
#
~Curve Information Block
#MNEM.UNIT       API CODE      Curve Description
#----------    -------------   -------------------
 DEPT.M                    :   Depth in Meters
 GR  .GAPI     35 310 01 01:   Gamma Ray
 CALI.mm       70 280 01 01:   Caliper
 RHOB.kg/m3     42 350 01 01:   Bulk Density
#
~Parameter Information Block
#MNEM.UNIT            Value               Description
#----------    --------------------    -------------------
 RUN .                         ONE:    Run Number
 PDAT.                         UNK:    Permanent Datum
 EPD .M                 -9999.5000:    Elevation Of Perm. Datum
 WSTA.                         LOC:    
 E   .M                 -9999.5000:    E (Stretch Coefficient Of The Cable)
 TD  .M                  2200.0000:    Total Depth
#
~Other Information Block
<DescLogPlotStart>   NEURALOG PLOT DEFINITION
PLOTDEFVERSION: 3
LASFILE: C:\Users\wadet\Desktop\Alphabow Evaluation\well_info\second_white_spec
DEPTHSCALE: 240.000000
RESOLUTION: 200
DEPTHLABELFREQ: 50.000000
HEAVYGRIDFREQ: 50.000000
MEDIUMGRIDFREQ: 25.000000
LIGHTGRIDFREQ: 5.000000
#
#   TRACK 1
#
STARTTRACK: 
 LEFTX: 0.500000 inch
 RIGHTX: 3.000000 inch
 SCALETYPE: Linear
 NUMCHARTDIVISIONS: 2
CURVE: GR    0.000000   150.000000 (0,0,255)      Solid             2     N    
CURVE: CALI  125.000000 375.000000 (0,131,131)    Dot               2     N    
ENDTRACK: 
#
#   TRACK 2
#
STARTTRACK: 
 LEFTX: 3.500000 inch
 RIGHTX: 8.500000 inch
 SCALETYPE: Linear
 NUMCHARTDIVISIONS: 3
CURVE: RHOB  2000.000000 3000.000000 (255,0,255)    Solid             2     N  
ENDTRACK: 
<DescLogPlotEnd>
~A DEPTH     GR               CALI             RHOB            
# ...
   1819.0500 70.51944708      273.81017814     2057.75060333   
   1819.2024 73.42824245      277.59566896     2011.51289229   
   1819.3548 74.83398906      280.10738186     2020.74263689   
   1819.5072 76.25135126      269.79196486     2049.37384574   
   1819.6596 77.79448184      267.03316352     2075.29167421   
   1819.8120 76.79858536      266.81120293     2085.21350761   
   1819.9644 78.14542976      266.72167905     2095.34189003   
   1820.1168 76.09232008      266.59157179     2105.65169725   
   1820.2692 75.04970570      271.27531001     2115.46166993   
   1820.4216 74.32562964      278.17333183     2126.86505324   
   1820.5740 72.31977550      278.12906765     2174.75478700   
   1820.7264 70.15288193      277.00962821     2209.44420698   
   1820.8788 69.36969983      273.54610783     2218.35562835   
   1821.0312 69.75951907      269.97417414     2189.02060010   
   1821.1836 71.26535707      270.45759270     2197.65209389   
   1821.3360 73.36273903      272.34114193     2236.48529463   
   1821.4884 75.10152133      274.07374346     2259.06452430   
   1821.6408 76.56244114      281.34329910     2262.13274240   
   1821.7932 76.27005947      286.83991140     2264.73300136   
   1821.9456 75.50102762      287.98734675     2268.12776605   
   1822.0980 74.56175927      287.77326281     2273.47128564   
   1822.2504 71.90958368      283.88936427     2255.50452335   
   1822.4028 69.54461200      280.19939122     2312.20372078   
   1822.5552 67.11318635      280.11019608     2329.13155507   
   1822.7076 62.41360294      280.53919550     2357.72995927   
   1822.8600 55.18736258      280.97407954     2389.45745470   
   1823.0124 46.09200014      280.85401937     2406.74149990   
   1823.1648 39.62015924      279.79771920     2405.09728220   
   1823.3172 38.54390702      278.74262165     2402.91384703   
   1823.4696 40.98587577      277.70921377     2397.27444327   
   1823.6220 45.50930675      274.47094869     2396.94364875   
   1823.7744 52.68232452      267.71776639     2367.16990105   
   1823.9268 61.99908462      270.93592697     2299.52669315   
   1824.0792 68.80726017      276.61830214     2255.69460535   
   1824.2316 69.31478546      280.19839301     2268.16190607   
   1824.3840 68.05065982      283.68611333     2305.61296713   
   1824.5364 66.29285582      287.16351819     2315.06206350   
   1824.6888 65.42461799      290.64810179     2311.54270688   
   1824.8412 65.12016219      292.29775340     2308.26379449   
   1824.9936 66.17328674      292.07720857     2307.63090157   
   1825.1460 67.80675127      291.86536279     2307.65649710   
   1825.2984 70.25665241      291.64707907     2317.86385415   
   1825.4508 73.65513175      291.36611938     2356.27848892   
   1825.6032 74.48812449      289.61741287     2392.06566783   
   1825.7556 74.57297328      287.81342851     2385.50796597   
   1825.9080 74.24057874      285.96260087     2379.32213096   
   1826.0604 74.25106752      283.38175000     2338.33545532   
   1826.2128 74.88999719      278.52057098     2285.51220730   
   1826.3652 75.49249691      273.63959869     2275.30783862   
   1826.5176 74.41065966      262.45193785     2294.30016660   
   1826.6700 71.79219819      262.13436288     2328.89018426   
   1826.8224 69.20539611      263.40474515     2352.44529686   
   1826.9748 68.72628524      268.94001680     2370.92667183   
   1827.1272 68.44465774      276.53795858     2385.20242474   
   1827.2796 66.95039703      279.38692689     2390.45104444   
   1827.4320 65.27113300      282.00682858     2393.08167334   
   1827.5844 63.96356177      283.04237193     2388.12969488   
   1827.7368 61.68035552      280.41637427     2398.36963109   
   1827.8892 58.44968044      277.92271078     2429.49952223   
   1828.0416 54.30158946      275.54668655     2463.13955196   
   1828.1940 50.98366078      273.30989825     2480.56452054   
   1828.3464 50.72450652      271.98450087     2457.56646217   
   1828.4988 53.10879554      273.91877884     2368.09799591   
   1828.6512 59.04542518      275.77406061     2277.21897751   
   1828.8036 66.24409552      277.61612425     2186.33995910   
   1828.9560 71.44855029      279.47142987     2117.69173592   
   1829.1084 74.96310208      281.36460720     2100.02446410   
   1829.2608 74.86789435      283.09052561     2083.23119213   
   1829.4132 69.47190691      275.97955400     2020.44772391   
   1829.5656 63.29905679      270.88420744     2026.48198486   
   1829.7180 60.51476542      268.36441552     2031.28590850   
   1829.8704 62.71025857      273.42548866     2033.96475087   
   1830.0228 65.66023547      285.36954257     2036.04056216   
   1830.1752 67.46691376      295.78237471     2053.05199990   
   1830.3276 67.59921910      296.51342064     2058.84718703   
   1830.4800 68.61876132      296.95432498     2065.09464541   
   1830.6324 71.28054504      296.04915684     2071.18377479   
   1830.7848 75.39637764      294.88821964     2077.22985685   
   1830.9372 80.71110546      293.65204504     2083.28345177   
   1831.0896 85.25973938      295.39778896     2089.30464732   
   1831.2420 86.41754399      297.70240439     2095.37940746   
   1831.3944 84.41651591      306.34539624     2102.25567314   
   1831.5468 80.96755826      311.84453006     2074.61203755   
   1831.6992 77.52144847      313.12733694     2059.66779585   
   1831.8516 75.14163364      314.35941117     2060.47023022   
   1832.0040 75.50620620      314.01526704     2059.20661102   
   1832.1564 78.54229596      308.75902016     2036.72700101   
   1832.3088 79.38305784      302.25316850     2008.22757928   
   1832.4612 78.25551005      291.97545198     2002.73864893   
   1832.6136 74.93632752      294.27064084     2003.59606878   
   1832.7660 74.92788888      296.65144535     2004.67243130   
   1832.9184 76.53280037      298.26934384     2005.73887920   
   1833.0708 79.29936346      299.90041398     2006.70936947   
   1833.2232 82.25126305      299.02114192     2014.69454348   
   1833.3756 85.21493510      296.52086796     2073.20407703   
   1833.5280 86.80620041      294.08814486     2133.63234283   
   1833.6804 86.65791832      295.91472928     2143.21254931   
   1833.8328 85.61612356      298.01218284     2172.08059443   
   1833.9852 83.29287793      295.92153477     2179.46460562   
   1834.1376 80.06689037      290.04904833     2187.14047252   
   1834.2900 77.16057775      285.23764773     2195.04203620   
   1834.4424 74.13609412      279.49497288     2203.01412442   
   1834.5948 74.37562081      255.26285622     2216.39690836   
   1834.7472 74.46473481      272.48154984     2189.61708856   
   1834.8996 74.53290978      282.34920316     2112.59272497   
   1835.0520 74.71196844      285.80605349     2079.11969769   
   1835.2044 74.54716197      289.47913072     2048.98152400   
   1835.3568 74.48488632      291.80142646     2019.78784527   
   1835.5092 74.50276613      293.29078981     2035.29234431   
   1835.6616 70.60248615      294.79264146     2046.79783331   
   1835.8140 72.47406751      293.64109297     2058.55216447   
   1835.9664 76.02803257      290.41676647     2070.21660188   
   1836.1188 80.05659314      287.18520149     2080.74482720   
   1836.2712 80.88342557      283.93565901     2172.30541783   
   1836.4236 79.95815552      280.67857640     2298.15126776   
   1836.5760 78.07586666      277.43812714     2378.68973415   
   1836.7284 74.67905366      274.32541540     2439.16155419   
   1836.8808 71.19283528      269.00300653     2453.47648262   
   1837.0332 67.02048900      263.53782791     2451.43149284   
   1837.1856 60.34377548      259.65105457     2409.72175707   
   1837.3380 52.07951579      255.81125995     2423.16672682   
   1837.4904 44.43006026      252.49699770     2441.69173241   
   1837.6428 38.15483785      249.96177986     2460.55643729   
   1837.7952 34.87210458      247.50758426     2479.89089534   
   1837.9476 33.68713732      244.80766333     2502.15542285   
