~Version Information Block
 VERS.                2.00:     CWLS LOG ASCII STANDARD - VERSION 2.000000
 WRAP.                  NO:     One Line Per Depth Step
#
~Well Information Block
#MNEM.UNIT                     Data                         Information
#----------   ------------------------------------------   ----------------
 STRT.M                                      1800.0000:     START DEPTH
 STOP.M                                      2199.8976:     STOP DEPTH
 STEP.M                                         0.1524:     STEP
 NULL.                                       -999.2500:     NULL VALUE
 COMP.                                        Alphabow:     COMPANY
 WELL.                   SOC PINE CK 9-20-56-19 #81814:     WELL
 FLD .                                                :     FIELD
 LOC .                           100/09-20-056-19W5/00:     LOCATION
 CNTY.                                                :     COUNTY
 STAT.                                                :     STATE
 CTRY.                                                :     COUNTRY
 SRVC.                                                :     SERVICE COMPANY
 DATE.                                      03/28/2025:     DATE
 API .                                100092005619W500:     API NUMBER
 UWI .                                100092005619W500:     UWI NUMBER
 TVD .                                              NO:     TVD flag
 WSTA.                                             LOC:     Well status
#
~Curve Information Block
#MNEM.UNIT       API CODE      Curve Description
#----------    -------------   -------------------
 DEPT.M                    :   Depth in Meters
 GR  .GAPI     35 310 01 01:   Gamma Ray
 CALI.mm       70 280 01 01:   Caliper
 RHOB.kg/m3     42 350 01 01:   Bulk Density
#
~Parameter Information Block
#MNEM.UNIT            Value               Description
#----------    --------------------    -------------------
 RUN .                         ONE:    Run Number
 PDAT.                         UNK:    Permanent Datum
 EPD .M                 -9999.5000:    Elevation Of Perm. Datum
 WSTA.                         LOC:    
 E   .M                 -9999.5000:    E (Stretch Coefficient Of The Cable)
 TD  .M                  2200.0000:    Total Depth
#
~Other Information Block
<DescLogPlotStart>   NEURALOG PLOT DEFINITION
PLOTDEFVERSION: 3
LASFILE: C:\Users\wadet\Desktop\Alphabow Evaluation\well_info\second_white_spec
DEPTHSCALE: 240.000000
RESOLUTION: 200
DEPTHLABELFREQ: 50.000000
HEAVYGRIDFREQ: 50.000000
MEDIUMGRIDFREQ: 25.000000
LIGHTGRIDFREQ: 5.000000
#
#   TRACK 1
#
STARTTRACK: 
 LEFTX: 0.500000 inch
 RIGHTX: 3.000000 inch
 SCALETYPE: Linear
 NUMCHARTDIVISIONS: 2
CURVE: GR    0.000000   150.000000 (0,0,255)      Solid             2     N    
CURVE: CALI  125.000000 375.000000 (0,131,131)    Dot               2     N    
ENDTRACK: 
#
#   TRACK 2
#
STARTTRACK: 
 LEFTX: 3.500000 inch
 RIGHTX: 8.500000 inch
 SCALETYPE: Linear
 NUMCHARTDIVISIONS: 3
CURVE: RHOB  2000.000000 3000.000000 (255,0,255)    Solid             2     N  
ENDTRACK: 
<DescLogPlotEnd>
~A DEPTH     GR               CALI             RHOB            
# ...
   1895.2500 109.46445606     221.79878049     2451.22192601   
   1895.4024 115.90459471     221.79878049     2430.35927828   
   1895.5548 119.61381825     221.79878049     2410.31242467   
   1895.7072 119.17066419     221.79878049     2382.19154935   
   1895.8596 116.85673916     221.79874486     2370.04420488   
   1896.0120 118.24236226     221.79880837     2374.79244489   
   1896.1644 121.05017688     221.79930961     2381.96691687   
   1896.3168 123.87764317     221.79665952     2381.87568937   
   1896.4692 123.76886022     221.66406247     2377.13284346   
   1896.6216 121.82156553     221.51920315     2351.53253505   
   1896.7740 118.15547954     221.37484198     2293.20473066   
   1896.9264 114.89365978     221.36389754     2258.82760105   
   1897.0788 115.15471233     221.52944362     2277.55136162   
   1897.2312 118.23712918     221.69286497     2310.21071075   
   1897.3836 120.91000355     221.80015592     2326.19757407   
   1897.5360 122.59063867     221.79852390     2329.64200275   
   1897.6884 121.34268760     221.79865205     2368.20247521   
   1897.8408 116.95342677     221.79878208     2424.68137161   
   1897.9932 111.13973214     221.79878049     2434.25731181   
   1898.1456 104.05292980     221.79878049     2418.09488868   
   1898.2980 100.99936575     221.79879713     2436.87202230   
   1898.4504 101.31756974     221.79897354     2459.02955873   
   1898.6028 103.98297591     221.79883274     2425.15426332   
   1898.7552 105.36441996     221.79608489     2370.18206149   
   1898.9076 104.11354469     221.91228704     2338.31792028   
   1899.0600 101.61010577     222.06505661     2346.67842858   
   1899.2124 99.80154999      222.21852732     2348.37123418   
   1899.3648 99.97300120      222.23706928     2326.09421490   
   1899.5172 100.46703787     222.08148230     2296.45757665   
   1899.6696 103.34465285     221.92905127     2312.40605434   
   1899.8220 104.21705846     221.79442574     2356.54044426   
   1899.9744 105.32065193     221.79835271     2382.03111299   
   1900.1268 104.07276271     221.79797241     2391.83565395   
   1900.2792 103.47404741     221.80588860     2378.45295127   
   1900.4316 103.76178768     221.96563608     2362.25440826   
   1900.5840 104.45747762     222.12252274     2347.45368501   
   1900.7364 103.52409571     222.28267810     2345.76189705   
   1900.8888 98.56461568      222.18022503     2361.82786611   
   1901.0412 92.02628674      222.02785252     2392.54128915   
   1901.1936 84.60858601      221.87248586     2459.15796912   
   1901.3460 80.36106557      221.79958661     2575.66730599   
   1901.4984 80.49044113      221.79922572     2515.59653842   
   1901.6508 88.06940009      221.79878226     2454.60135346   
   1901.8032 93.80134859      221.79875491     2393.73649293   
   1901.9556 99.01859881      221.79878049     2333.43864986   
   1902.1080 100.05824423     221.79878049     2324.47526643   
   1902.2604 100.55127855     221.79878049     2384.34522971   
   1902.4128 101.36179486     221.79878049     2398.42576124   
   1902.5652 103.35212099     221.79878049     2401.25930359   
   1902.7176 105.36150860     221.79878049     2348.32770269   
   1902.8700 107.56798787     221.79878049     2364.74313333   
   1903.0224 109.24949388     221.79878049     2413.76288777   
   1903.1748 110.26302999     221.79878049     2489.46853999   
   1903.3272 110.81426754     221.79878049     2476.50355221   
   1903.4796 110.45329995     221.79878049     2400.47500963   
   1903.6320 108.98386890     221.79878049     2246.39367471   
   1903.7844 105.80385862     221.79878049     2254.49108231   
   1903.9368 102.87396906     221.79878049     2278.30291380   
   1904.0892 101.31053692     221.79876530     2310.68461265   
   1904.2416 103.16805115     221.79875050     2353.98634890   
   1904.3940 107.96855843     221.79896726     2396.78232151   
   1904.5464 111.12905966     221.79965498     2400.53473206   
   1904.6988 111.13670256     221.85705335     2393.80482506   
   1904.8512 109.10140229     222.01396169     2382.85301879   
   1905.0036 108.76344518     222.16906137     2358.21706385   
   1905.1560 109.60352940     222.30580964     2303.01447270   
   1905.3084 111.47105552     222.30758910     2260.98818477   
   1905.4608 112.40434540     222.30794214     2299.86342508   
   1905.6132 111.99230079     222.30017324     2383.56517711   
   1905.7656 111.06827182     222.14014160     2434.51841195   
   1905.9180 109.78129366     221.98127738     2446.80411361   
   1906.0704 107.44171868     221.81963100     2450.38282546   
   1906.2228 105.35358514     221.93088852     2389.40100069   
   1906.3752 104.66372895     222.08545814     2329.73835719   
   1906.5276 103.87941392     222.24376563     2262.52726493   
   1906.6800 102.16986087     222.30609423     2211.39067900   
   1906.8324 101.41375573     222.30654459     2231.65778440   
   1906.9848 102.07089200     222.30603137     2268.47086337   
   1907.1372 103.87317364     222.25300343     2322.86635949   
   1907.2896 105.91306502     222.09411805     2317.46412608   
   1907.4420 108.08149626     221.93771258     2314.18739974   
   1907.5944 108.30775963     221.81976497     2321.67645805   
   1907.7468 105.15562560     221.98444056     2339.01158102   
   1907.8992 99.31912417      222.15357658     2356.55770888   
   1908.0516 97.41243466      222.29825227     2374.09303928   
   1908.2040 100.43159578     222.15019067     2391.64635480   
   1908.3564 104.62519015     222.00099272     2409.18458819   
   1908.5088 106.97843295     221.85164732     2426.64512029   
   1908.6612 107.24070322     221.79966449     2444.13321426   
   1908.8136 107.49664645     221.79972241     2459.28929081   
   1908.9660 107.73861281     221.79951763     2449.47262162   
   1909.1184 107.97859317     221.89441140     2420.98100667   
   1909.2708 108.21945951     222.04932681     2404.42495605   
   1909.4232 108.46006919     222.20360506     2403.35247758   
   1909.5756 108.70132234     222.24215998     2407.34284813   
   1909.7280 108.94682589     222.04514932     2418.80580683   
   1909.8804 109.18981740     221.84726889     2435.58048628   
   1910.0328 110.07778996     221.80025633     2446.93841728   
   1910.1852 111.55163442     221.79881233     2448.18174797   
   1910.3376 113.00178758     221.79853910     2425.13434456   
   1910.4900 113.93160244     221.79444116     2421.51559396   
   1910.6424 111.68825270     221.93263400     2448.12015696   
   1910.7948 109.36285346     222.09551890     2458.03106985   
   1910.9472 109.00290552     222.26449335     2427.25468314   
   1911.0996 110.18587969     222.30562680     2388.51927002   
   1911.2520 111.24443278     222.30741457     2346.82591106   
   1911.4044 112.28567046     222.30791863     2307.98224353   
   1911.5568 112.94726859     222.37444856     2261.08663121   
   1911.7092 112.57963022     222.53960526     2272.40758681   
   1911.8616 110.86672394     222.70090099     2310.31439878   
   1912.0140 108.75349913     222.77338200     2322.25075928   
   1912.1664 107.33534155     222.61138920     2312.07570057   
   1912.3188 106.56468533     222.45615015     2311.34606775   
   1912.4712 106.02777078     222.31566998     2325.12842941   
   1912.6236 105.23613092     222.46138202     2354.86106434   
   1912.7760 104.11296782     222.61697781     2399.79861762   
   1912.9284 104.46073656     222.77827730     2443.73324789   
   1913.0808 106.71996839     222.69555508     2488.02485632   
   1913.2332 111.73639154     222.53419433     2527.38396555   
   1913.3856 115.80240307     222.36708152     2494.31636017   
   1913.5380 116.26927719     222.40441598     2433.19177165   
   1913.6904 114.45023235     222.55693918     2386.16399817   
   1913.8428 112.29479788     222.70777555     2399.07654457   
   1913.9952 110.65123887     222.77006352     2431.05915502   
   1914.1476 110.16787274     222.59778689     2442.93606321   
