~Version Information Block
 VERS.                2.00:     CWLS LOG ASCII STANDARD - VERSION 2.000000
 WRAP.                  NO:     One Line Per Depth Step
#
~Well Information Block
#MNEM.UNIT                     Data                         Information
#----------   ------------------------------------------   ----------------
 STRT.M                                      1800.0000:     START DEPTH
 STOP.M                                      2199.8976:     STOP DEPTH
 STEP.M                                         0.1524:     STEP
 NULL.                                       -999.2500:     NULL VALUE
 COMP.                                        Alphabow:     COMPANY
 WELL.                   SOC PINE CK 9-20-56-19 #81814:     WELL
 FLD .                                                :     FIELD
 LOC .                           100/09-20-056-19W5/00:     LOCATION
 CNTY.                                                :     COUNTY
 STAT.                                                :     STATE
 CTRY.                                                :     COUNTRY
 SRVC.                                                :     SERVICE COMPANY
 DATE.                                      03/28/2025:     DATE
 API .                                100092005619W500:     API NUMBER
 UWI .                                100092005619W500:     UWI NUMBER
 TVD .                                              NO:     TVD flag
 WSTA.                                             LOC:     Well status
#
~Curve Information Block
#MNEM.UNIT       API CODE      Curve Description
#----------    -------------   -------------------
 DEPT.M                    :   Depth in Meters
 GR  .GAPI     35 310 01 01:   Gamma Ray
 CALI.mm       70 280 01 01:   Caliper
 RHOB.kg/m3     42 350 01 01:   Bulk Density
#
~Parameter Information Block
#MNEM.UNIT            Value               Description
#----------    --------------------    -------------------
 RUN .                         ONE:    Run Number
 PDAT.                         UNK:    Permanent Datum
 EPD .M                 -9999.5000:    Elevation Of Perm. Datum
 WSTA.                         LOC:    
 E   .M                 -9999.5000:    E (Stretch Coefficient Of The Cable)
 TD  .M                  2200.0000:    Total Depth
#
~Other Information Block
<DescLogPlotStart>   NEURALOG PLOT DEFINITION
PLOTDEFVERSION: 3
LASFILE: C:\Users\wadet\Desktop\Alphabow Evaluation\well_info\second_white_spec
DEPTHSCALE: 240.000000
RESOLUTION: 200
DEPTHLABELFREQ: 50.000000
HEAVYGRIDFREQ: 50.000000
MEDIUMGRIDFREQ: 25.000000
LIGHTGRIDFREQ: 5.000000
#
#   TRACK 1
#
STARTTRACK: 
 LEFTX: 0.500000 inch
 RIGHTX: 3.000000 inch
 SCALETYPE: Linear
 NUMCHARTDIVISIONS: 2
CURVE: GR    0.000000   150.000000 (0,0,255)      Solid             2     N    
CURVE: CALI  125.000000 375.000000 (0,131,131)    Dot               2     N    
ENDTRACK: 
#
#   TRACK 2
#
STARTTRACK: 
 LEFTX: 3.500000 inch
 RIGHTX: 8.500000 inch
 SCALETYPE: Linear
 NUMCHARTDIVISIONS: 3
CURVE: RHOB  2000.000000 3000.000000 (255,0,255)    Solid             2     N  
ENDTRACK: 
<DescLogPlotEnd>
~A DEPTH     GR               CALI             RHOB            
# ...
   1971.4500 130.64224943     267.11615828     2549.64116773   
   1971.6024 130.01511454     268.23567682     2549.86037584   
   1971.7548 130.55135327     269.35799339     2540.67216632   
   1971.9072 130.96039281     270.48886737     2527.36277192   
   1972.0596 131.27503798     271.51956270     2507.50473753   
   1972.2120 133.06021236     270.07330292     2480.57763834   
   1972.3644 136.62638335     268.52204572     2441.87187524   
   1972.5168 137.66545572     266.94782962     2435.74213427   
   1972.6692 137.65614577     265.78461224     2461.46089717   
   1972.8216 137.65154188     264.72007195     2501.65408713   
   1972.9740 137.64529615     263.66992263     2521.13806312   
   1973.1264 137.85411833     262.63358988     2533.42773065   
   1973.2788 137.95657556     262.87079450     2539.07657262   
   1973.4312 137.68453381     265.53630207     2533.05068386   
   1973.5836 137.27559390     268.16126972     2531.12378384   
   1973.7360 136.82695201     269.46007238     2531.41218282   
   1973.8884 136.93890598     269.27237342     2520.23798381   
   1974.0408 137.36937129     269.07928455     2494.20666861   
   1974.1932 138.98589644     269.44855436     2484.88487896   
   1974.3456 140.67651867     269.93590308     2512.13856437   
   1974.4980 142.36864405     270.45249677     2554.13316908   
   1974.6504 144.05815423     270.22656510     2568.83427659   
   1974.8028 145.75893332     269.73974772     2537.33632717   
   1974.9552 147.37785596     269.24523502     2523.97219003   
   1975.1076 146.99381243     268.74698925     2461.04411634   
   1975.2600 142.50731033     268.55157461     2497.42544092   
   1975.4124 137.84617044     268.54340464     2522.84671577   
   1975.5648 133.47689383     268.24203281     2552.95160195   
   1975.7172 131.50301136     266.32488546     2579.64424826   
   1975.8696 131.82104885     264.39922876     2603.08027900   
   1976.0220 133.55516589     262.41657030     2605.97220886   
   1976.1744 136.08497607     262.50135931     2592.63814487   
   1976.3268 137.66955084     263.23138284     2582.23667962   
   1976.4792 137.41114762     263.98601655     2567.15107210   
   1976.6316 136.41806750     264.75651463     2546.19038796   
   1976.7840 135.34882953     265.60530016     2523.24924761   
   1976.9364 138.17074146     266.52973218     2514.86883754   
   1977.0888 141.01389485     267.45996612     2523.22410510   
   1977.2412 143.68457444     268.43652754     2535.41134169   
   1977.3936 143.93005433     267.04367440     2531.43394632   
   1977.5460 142.65337576     265.24759480     2516.20955140   
   1977.6984 139.14488244     263.45036978     2513.06882204   
   1977.8508 135.10056264     262.00282375     2534.79705429   
   1978.0032 136.47666552     262.71405684     2566.26794169   
   1978.1556 137.91219140     263.38001299     2588.13140257   
   1978.3080 138.66750307     264.04073595     2599.97604921   
   1978.4604 142.24271695     264.68291803     2596.75815757   
   1978.6128 145.26007311     265.35858905     2580.22716780   
   1978.7652 141.72913344     266.01639382     2571.37224455   
   1978.9176 137.09813848     266.67335804     2579.16117707   
   1979.0700 132.29137524     266.95862314     2593.93239876   
   1979.2224 131.57427901     266.83395558     2599.88554276   
   1979.3748 132.38500143     266.70891066     2610.60543969   
   1979.5272 133.20540108     266.58014777     2620.66447432   
   1979.6796 134.79468710     265.93344798     2616.21473210   
   1979.8320 134.34460581     264.56694342     2596.33465288   
   1979.9844 133.38568989     263.20570249     2577.58624588   
   1980.1368 131.58301639     261.83317503     2569.79455479   
   1980.2892 129.69444250     260.48354387     2578.71922033   
   1980.4416 126.45396077     261.14012619     2598.16548677   
   1980.5940 121.67774393     261.92309967     2625.28687356   
   1980.7464 119.21300178     262.72434512     2643.10754242   
   1980.8988 118.34748822     263.22822740     2644.90619230   
   1981.0512 119.34363444     263.64788109     2633.42955541   
   1981.2036 119.89358068     264.06144079     2622.56397536   
   1981.3560 118.53749598     264.47380655     2608.45633534   
   1981.5084 114.33010673     264.71379197     2592.49607795   
   1981.6608 108.82011684     264.94781842     2585.06927927   
   1981.8132 104.35322426     265.18357667     2591.95154732   
   1981.9656 101.90016613     265.43407550     2619.75890988   
   1982.1180 102.21205689     265.20782085     2643.79532638   
   1982.2704 105.23443047     264.78801710     2649.42713975   
   1982.4228 105.30238824     264.36329095     2613.28829001   
   1982.5752 101.58738913     263.93758750     2574.39949317   
   1982.7276 96.73642673      263.51356856     2513.03933806   
   1982.8800 94.67980199      263.09962281     2542.16939877   
   1983.0324 95.20364197      262.68305286     2671.25256184   
   1983.1848 96.24561005      263.91924958     2664.39671401   
   1983.3372 97.43045814      266.81643572     2651.97631444   
   1983.4896 98.32629792      268.97061541     2638.66672393   
   1983.6420 97.81342190      268.23263160     2625.55475924   
   1983.7944 97.35766035      267.57657876     2612.36414897   
   1983.9468 99.91977283      267.15674057     2599.27346081   
   1984.0992 104.54050742     268.10869885     2586.04916628   
   1984.2516 107.33123013     269.65525441     2579.54135042   
   1984.4040 108.81561081     271.75043232     2568.32591926   
   1984.5564 110.27650379     273.83100028     2546.91511278   
   1984.7088 110.53815195     273.92043411     2502.93590714   
   1984.8612 110.24619904     273.74193368     2484.39206686   
   1985.0136 110.05749033     271.37047620     2498.81613375   
   1985.1660 110.21997331     268.88635463     2496.18976220   
   1985.3184 109.81253702     268.38231152     2546.38230878   
   1985.4708 108.97707295     267.81162078     2540.93330707   
   1985.6232 107.57314658     267.60367526     2539.03267738   
   1985.7756 106.29892553     267.73181823     2534.19497117   
   1985.9280 105.23511350     267.86064392     2524.94454218   
   1986.0804 105.11610391     268.00325689     2528.49525086   
   1986.2328 105.58251015     267.69239250     2567.40360832   
   1986.3852 105.88796052     267.17242626     2607.28690222   
   1986.5376 105.94496956     266.64667905     2617.97056496   
   1986.6900 106.49180902     266.11092258     2585.91634849   
   1986.8424 106.86041662     266.12486878     2549.68343378   
   1986.9948 106.04738085     266.26799476     2532.25705823   
   1987.1472 104.41032158     266.40047440     2527.37123958   
   1987.2996 103.86847879     266.13818188     2528.75374265   
   1987.4520 105.54497458     264.75706257     2538.40261421   
   1987.6044 109.48499785     263.46461752     2568.39007378   
   1987.7568 111.71615412     263.30667052     2599.66957736   
   1987.9092 112.63398024     267.16202574     2614.92952766   
   1988.0616 113.46505434     270.91963474     2600.31832110   
   1988.2140 115.67892388     272.00964654     2550.28803857   
   1988.3664 117.43095789     272.53978654     2499.67366560   
   1988.5188 117.27054202     273.05838855     2480.68063495   
   1988.6712 115.23835745     273.58625301     2499.88584463   
   1988.8236 110.19435453     274.09264162     2527.41649860   
   1988.9760 105.28782391     272.62106462     2549.89368151   
   1989.1284 100.48755726     271.01616978     2578.38723080   
   1989.2808 98.53217856      268.90779192     2612.54512000   
   1989.4332 98.73901919      266.88314731     2630.21960030   
   1989.5856 102.32596361     264.87181855     2627.59295694   
   1989.7380 108.25220834     262.84962135     2621.01966083   
   1989.8904 112.67144418     260.76185978     2600.88826194   
   1990.0428 114.29819464     262.19407794     2562.81033478   
   1990.1952 114.57888393     264.41538667     2503.53664426   
   1990.3476 115.85645541     265.82075345     2497.87483847   
