~Version Information Block
 VERS.                2.00:     CWLS LOG ASCII STANDARD - VERSION 2.000000
 WRAP.                  NO:     One Line Per Depth Step
#
~Well Information Block
#MNEM.UNIT                     Data                         Information
#----------   ------------------------------------------   ----------------
 STRT.M                                      1800.0000:     START DEPTH
 STOP.M                                      2199.8976:     STOP DEPTH
 STEP.M                                         0.1524:     STEP
 NULL.                                       -999.2500:     NULL VALUE
 COMP.                                        Alphabow:     COMPANY
 WELL.                   SOC PINE CK 9-20-56-19 #81814:     WELL
 FLD .                                                :     FIELD
 LOC .                           100/09-20-056-19W5/00:     LOCATION
 CNTY.                                                :     COUNTY
 STAT.                                                :     STATE
 CTRY.                                                :     COUNTRY
 SRVC.                                                :     SERVICE COMPANY
 DATE.                                      03/28/2025:     DATE
 API .                                100092005619W500:     API NUMBER
 UWI .                                100092005619W500:     UWI NUMBER
 TVD .                                              NO:     TVD flag
 WSTA.                                             LOC:     Well status
#
~Curve Information Block
#MNEM.UNIT       API CODE      Curve Description
#----------    -------------   -------------------
 DEPT.M                    :   Depth in Meters
 GR  .GAPI     35 310 01 01:   Gamma Ray
 CALI.mm       70 280 01 01:   Caliper
 RHOB.kg/m3     42 350 01 01:   Bulk Density
#
~Parameter Information Block
#MNEM.UNIT            Value               Description
#----------    --------------------    -------------------
 RUN .                         ONE:    Run Number
 PDAT.                         UNK:    Permanent Datum
 EPD .M                 -9999.5000:    Elevation Of Perm. Datum
 WSTA.                         LOC:    
 E   .M                 -9999.5000:    E (Stretch Coefficient Of The Cable)
 TD  .M                  2200.0000:    Total Depth
#
~Other Information Block
<DescLogPlotStart>   NEURALOG PLOT DEFINITION
PLOTDEFVERSION: 3
LASFILE: C:\Users\wadet\Desktop\Alphabow Evaluation\well_info\second_white_spec
DEPTHSCALE: 240.000000
RESOLUTION: 200
DEPTHLABELFREQ: 50.000000
HEAVYGRIDFREQ: 50.000000
MEDIUMGRIDFREQ: 25.000000
LIGHTGRIDFREQ: 5.000000
#
#   TRACK 1
#
STARTTRACK: 
 LEFTX: 0.500000 inch
 RIGHTX: 3.000000 inch
 SCALETYPE: Linear
 NUMCHARTDIVISIONS: 2
CURVE: GR    0.000000   150.000000 (0,0,255)      Solid             2     N    
CURVE: CALI  125.000000 375.000000 (0,131,131)    Dot               2     N    
ENDTRACK: 
#
#   TRACK 2
#
STARTTRACK: 
 LEFTX: 3.500000 inch
 RIGHTX: 8.500000 inch
 SCALETYPE: Linear
 NUMCHARTDIVISIONS: 3
CURVE: RHOB  2000.000000 3000.000000 (255,0,255)    Solid             2     N  
ENDTRACK: 
<DescLogPlotEnd>
~A DEPTH     GR               CALI             RHOB            
# ...
   1857.1500 69.63975751      221.29065041     2435.43998445   
   1857.3024 70.45895403      221.29065518     2437.04511518   
   1857.4548 72.12247261      221.29080516     2432.26929628   
   1857.6072 74.19894521      221.29084246     2406.86026747   
   1857.7596 74.83829331      221.28873029     2381.90653202   
   1857.9120 73.95668312      221.40206369     2378.41408847   
   1858.0644 71.10771594      221.56697424     2402.53671318   
   1858.2168 69.74907856      221.73561059     2424.20092429   
   1858.3692 72.68421913      221.70202771     2421.61959737   
   1858.5216 76.70434800      221.54768303     2399.30279541   
   1858.6740 80.06753631      221.39314137     2393.25982404   
   1858.8264 80.61987993      221.28909307     2410.44654669   
   1858.9788 79.73354429      221.29085996     2422.11711798   
   1859.1312 78.86006715      221.29078411     2405.87485587   
   1859.2836 79.19522713      221.29066467     2357.76199190   
   1859.4360 79.42408086      221.29074429     2334.66292394   
   1859.5884 78.59678807      221.29059635     2356.17500347   
   1859.7408 75.43918984      221.28916309     2401.22016734   
   1859.8932 73.52000609      221.33490022     2427.08094035   
   1860.0456 72.58330039      221.38746878     2409.17813050   
   1860.1980 71.89923431      221.44062817     2361.38609230   
   1860.3504 69.06494825      221.49372040     2318.16528636   
   1860.5028 61.33700177      221.54677132     2285.69331782   
   1860.6552 54.35354179      221.59982529     2275.06051446   
   1860.8076 53.74303047      221.65290522     2258.96367405   
   1860.9600 60.54267152      221.70599817     2241.01763292   
   1861.1124 66.83447323      221.75865955     2228.96570366   
   1861.2648 68.60454120      221.79985145     2247.21628947   
   1861.4172 70.52598239      221.79877934     2313.52996553   
   1861.5696 69.61086637      221.79870790     2379.02357057   
   1861.7220 70.09391635      221.79877317     2365.47115216   
   1861.8744 75.15863546      221.79878049     2329.97408521   
   1862.0268 80.54250384      221.79878049     2308.28142778   
   1862.1792 82.10926136      221.79878049     2326.07643688   
   1862.3316 80.20226857      221.79878049     2371.32221369   
   1862.4840 76.61516172      221.79878049     2398.42149137   
   1862.6364 74.70804591      221.79878049     2419.03718265   
   1862.7888 74.99310993      221.79878049     2432.17578837   
   1862.9412 75.90988022      221.79878049     2428.09607339   
   1863.0936 77.51814242      221.79878049     2395.70260132   
   1863.2460 78.71641344      221.79878049     2333.53693888   
   1863.3984 78.73232478      221.79878049     2277.98749308   
   1863.5508 76.88464723      221.79878049     2272.35623506   
   1863.7032 74.87574476      221.79878049     2272.02143146   
   1863.8556 74.83861786      221.79878049     2260.00697550   
   1864.0080 74.86270831      221.79878049     2252.32114099   
   1864.1604 74.38805434      221.79878049     2280.27739616   
   1864.3128 72.39785563      221.79878049     2322.00957998   
   1864.4652 70.32849066      221.79878049     2356.53953585   
   1864.6176 69.23825045      221.79879533     2364.38585200   
   1864.7700 69.46908662      221.79882208     2360.32139520   
   1864.9224 71.07073547      221.79862870     2354.35689094   
   1865.0748 71.84670114      221.79773616     2338.18030179   
   1865.2272 71.81736060      221.73607599     2313.78222677   
   1865.3796 72.04809134      221.55786417     2311.06328709   
   1865.5320 73.12138565      221.38142524     2354.99039074   
   1865.6844 73.64605570      221.29155493     2386.81375985   
   1865.8368 73.62400092      221.29127363     2446.50833732   
   1865.9892 73.61221471      221.29066641     2426.79230283   
   1866.1416 74.19737591      221.29059596     2358.85823689   
   1866.2940 74.42625890      221.29048734     2320.92749273   
   1866.4464 74.33198601      221.29080288     2317.83422931   
   1866.5988 75.28350075      221.31192960     2343.49678509   
   1866.7512 78.05689347      221.46603489     2372.03969408   
   1866.9036 79.38273307      221.62216270     2396.05477299   
   1867.0560 79.16607116      221.77626106     2384.73774508   
   1867.2084 78.15775067      221.65729102     2348.64175917   
   1867.3608 77.21249436      221.49260324     2310.86924118   
   1867.5132 76.26470906      221.32480931     2267.19267785   
   1867.6656 74.58199411      221.29145284     2264.56971983   
   1867.8180 74.23676349      221.29045549     2289.09689787   
   1867.9704 74.29735276      221.29058453     2324.65005766   
   1868.1228 74.50958550      221.29065041     2358.44277163   
   1868.2752 74.25153949      221.29065041     2401.47207075   
   1868.4276 74.25389185      221.29065041     2452.09442867   
   1868.5800 74.51267449      221.29065041     2440.20179736   
   1868.7324 74.24192298      221.29065041     2394.43729926   
   1868.8848 74.24548402      221.29065041     2329.51927275   
   1869.0372 74.25485310      221.29065343     2270.51567840   
   1869.1896 74.48791451      221.29081804     2284.51592810   
   1869.3420 74.48745148      221.29089609     2313.72582101   
   1869.4944 74.27190445      221.28842196     2362.22143373   
   1869.6468 74.51016076      221.41746757     2410.43661395   
   1869.7992 74.24903047      221.60949635     2421.26017306   
   1869.9516 74.30645244      221.77634095     2418.66576133   
   1870.1040 72.48849569      221.31126349     2374.70718953   
   1870.2564 73.48008567      221.28836578     2320.62377473   
   1870.4088 74.01887831      221.28990582     2270.28329447   
   1870.5612 75.00964695      221.29080384     2266.80982258   
   1870.7136 76.15980240      221.29065041     2322.32506660   
   1870.8660 77.74435662      221.29065041     2349.20422410   
   1871.0184 78.60137982      221.29065041     2318.06679886   
   1871.1708 77.41532112      221.29065041     2265.09762951   
   1871.3232 74.51531273      221.29065041     2300.46575131   
   1871.4756 73.97032867      221.29061703     2335.59981501   
   1871.6280 75.01958108      221.29067535     2374.11844878   
   1871.7804 78.28335109      221.29128798     2403.99612959   
   1871.9328 80.99612564      221.29142866     2409.76571861   
   1872.0852 83.60693709      221.37607794     2394.06394924   
   1872.2376 86.24772938      221.53116437     2369.56148778   
   1872.3900 86.50413483      221.68532925     2345.20787752   
   1872.5424 83.89327755      221.80144364     2323.23778870   
   1872.6948 79.61334516      221.79871795     2351.33425523   
   1872.8472 73.23612205      221.79859007     2377.34550418   
   1872.9996 67.57665496      221.79876470     2401.88587707   
   1873.1520 63.27448726      221.79878049     2428.40288301   
   1873.3044 62.94693153      221.79878049     2474.49158932   
   1873.4568 67.58273261      221.79878049     2506.39020867   
   1873.6092 73.19589020      221.79878049     2493.49937185   
   1873.7616 77.91734985      221.79878049     2444.46008588   
   1873.9140 79.98460659      221.79878049     2390.48345162   
   1874.0664 81.30005375      221.79878049     2377.46492933   
   1874.2188 82.15855327      221.79878049     2407.74150375   
   1874.3712 81.81093570      221.79875405     2435.22059439   
   1874.5236 80.08725963      221.79856155     2435.42238644   
   1874.6760 79.20467728      221.79885368     2420.87809009   
   1874.8284 78.58672409      221.80215156     2409.54327916   
   1874.9808 78.11178190      221.68829382     2394.79188939   
   1875.1332 77.97654605      221.55064040     2371.84084159   
   1875.2856 79.03377273      221.41234206     2349.50098339   
   1875.4380 80.56713378      221.31114310     2359.30963184   
   1875.5904 81.81910375      221.46483753     2389.15913736   
   1875.7428 81.65663361      221.62194369     2414.38137681   
   1875.8952 80.91981328      221.77714114     2397.04010117   
   1876.0476 79.45416506      221.79861433     2357.30636541   
