~Version Information Block
 VERS.                2.00:     CWLS LOG ASCII STANDARD - VERSION 2.000000
 WRAP.                  NO:     One Line Per Depth Step
#
~Well Information Block
#MNEM.UNIT                     Data                         Information
#----------   ------------------------------------------   ----------------
 STRT.M                                      1800.0000:     START DEPTH
 STOP.M                                      2199.8976:     STOP DEPTH
 STEP.M                                         0.1524:     STEP
 NULL.                                       -999.2500:     NULL VALUE
 COMP.                                        Alphabow:     COMPANY
 WELL.                   SOC PINE CK 9-20-56-19 #81814:     WELL
 FLD .                                                :     FIELD
 LOC .                           100/09-20-056-19W5/00:     LOCATION
 CNTY.                                                :     COUNTY
 STAT.                                                :     STATE
 CTRY.                                                :     COUNTRY
 SRVC.                                                :     SERVICE COMPANY
 DATE.                                      03/28/2025:     DATE
 API .                                100092005619W500:     API NUMBER
 UWI .                                100092005619W500:     UWI NUMBER
 TVD .                                              NO:     TVD flag
 WSTA.                                             LOC:     Well status
#
~Curve Information Block
#MNEM.UNIT       API CODE      Curve Description
#----------    -------------   -------------------
 DEPT.M                    :   Depth in Meters
 GR  .GAPI     35 310 01 01:   Gamma Ray
 CALI.mm       70 280 01 01:   Caliper
 RHOB.kg/m3     42 350 01 01:   Bulk Density
#
~Parameter Information Block
#MNEM.UNIT            Value               Description
#----------    --------------------    -------------------
 RUN .                         ONE:    Run Number
 PDAT.                         UNK:    Permanent Datum
 EPD .M                 -9999.5000:    Elevation Of Perm. Datum
 WSTA.                         LOC:    
 E   .M                 -9999.5000:    E (Stretch Coefficient Of The Cable)
 TD  .M                  2200.0000:    Total Depth
#
~Other Information Block
<DescLogPlotStart>   NEURALOG PLOT DEFINITION
PLOTDEFVERSION: 3
LASFILE: C:\Users\wadet\Desktop\Alphabow Evaluation\well_info\second_white_spec
DEPTHSCALE: 240.000000
RESOLUTION: 200
DEPTHLABELFREQ: 50.000000
HEAVYGRIDFREQ: 50.000000
MEDIUMGRIDFREQ: 25.000000
LIGHTGRIDFREQ: 5.000000
#
#   TRACK 1
#
STARTTRACK: 
 LEFTX: 0.500000 inch
 RIGHTX: 3.000000 inch
 SCALETYPE: Linear
 NUMCHARTDIVISIONS: 2
CURVE: GR    0.000000   150.000000 (0,0,255)      Solid             2     N    
CURVE: CALI  125.000000 375.000000 (0,131,131)    Dot               2     N    
ENDTRACK: 
#
#   TRACK 2
#
STARTTRACK: 
 LEFTX: 3.500000 inch
 RIGHTX: 8.500000 inch
 SCALETYPE: Linear
 NUMCHARTDIVISIONS: 3
CURVE: RHOB  2000.000000 3000.000000 (255,0,255)    Solid             2     N  
ENDTRACK: 
<DescLogPlotEnd>
~A DEPTH     GR               CALI             RHOB            
# ...
   1876.2000 77.90740309      221.79894499     2344.82271422   
   1876.3524 75.76386072      221.79877937     2426.78780923   
   1876.5048 72.81030804      221.79855379     2491.57450324   
   1876.6572 67.86658017      221.79877491     2540.56511279   
   1876.8096 62.66879318      221.80213845     2506.30687929   
   1876.9620 62.54924388      221.67352743     2427.91619437   
   1877.1144 66.42197704      221.50840869     2345.57430413   
   1877.2668 71.86159463      221.33662896     2352.50232759   
   1877.4192 77.56874524      221.29211114     2372.45439697   
   1877.5716 81.18339700      221.29043284     2381.21784240   
   1877.7240 82.10004955      221.29053930     2393.70245838   
   1877.8764 78.56157498      221.29065041     2406.69836090   
   1878.0288 75.50143735      221.29065041     2392.89349084   
   1878.1812 75.24252648      221.29065041     2340.25604341   
   1878.3336 77.67827390      221.29068957     2285.62831032   
   1878.4860 80.41589593      221.29064013     2296.72303460   
   1878.6384 82.89046509      221.29009740     2375.68789107   
   1878.7908 82.83478960      221.29246247     2429.49450062   
   1878.9432 81.77932762      221.44178104     2420.71472220   
   1879.0956 80.34723667      221.60885297     2392.18399857   
   1879.2480 79.12900231      221.77450101     2397.39430421   
   1879.4004 76.92061057      221.67298083     2428.59962421   
   1879.5528 74.13986905      221.52730983     2396.27243413   
   1879.7052 72.48656947      221.38096949     2325.61573513   
   1879.8576 74.04901180      221.28977233     2242.99651722   
   1880.0100 75.62381156      221.29092976     2243.40727502   
   1880.1624 76.28391503      221.29074456     2279.21788885   
   1880.3148 77.00529171      221.29064403     2309.45622090   
   1880.4672 77.73253463      221.29065041     2358.51327677   
   1880.6196 78.54016854      221.29065041     2423.76453866   
   1880.7720 79.40701894      221.29065041     2494.12540502   
   1880.9244 80.36754331      221.29065041     2514.87070260   
   1881.0768 79.94440911      221.29065041     2499.06719249   
   1881.2292 79.39956545      221.29065041     2496.30385476   
   1881.3816 79.60576902      221.29065041     2503.17487268   
   1881.5340 80.68740764      221.29065041     2512.41773195   
   1881.6864 82.09109750      221.29065041     2331.13128659   
   1881.8388 83.56252752      221.29065041     2396.36079334   
   1881.9912 85.27010208      221.29065041     2435.59812616   
   1882.1436 83.54414605      221.29065041     2461.05265954   
   1882.2960 81.59318612      221.29065041     2494.37094066   
   1882.4484 81.86651787      221.29065041     2496.77827673   
   1882.6008 83.82454318      221.29065041     2551.18260108   
   1882.7532 87.32900359      221.29065041     2550.17685083   
   1882.9056 88.33726076      221.29065041     2535.23750095   
   1883.0580 88.28636197      221.29065041     2491.94228762   
   1883.2104 88.22127544      221.29065041     2487.63770476   
   1883.3628 87.10913105      221.29065041     2526.37949496   
   1883.5152 86.04537930      221.29065041     2577.96925317   
   1883.6676 85.66022894      221.29069574     2586.29177444   
   1883.8200 85.84033080      221.29048676     2552.33441655   
   1883.9724 85.70006659      221.28979750     2525.69939564   
   1884.1248 86.62824769      221.29572583     2538.23089061   
   1884.2772 87.62139663      221.44149471     2559.21881458   
   1884.4296 85.85048089      221.58967250     2560.46889499   
   1884.5820 84.63006975      221.73829599     2535.60113667   
   1884.7344 85.50756722      221.79809780     2532.01423821   
   1884.8868 86.44038364      221.79874166     2560.03810921   
   1885.0392 85.15778518      221.79708674     2585.50858054   
   1885.1916 84.17451679      221.74845738     2613.31148091   
   1885.3440 85.58245912      221.57557295     2593.14278487   
   1885.4964 88.02526475      221.41039625     2555.39461290   
   1885.6488 88.13252956      221.28784622     2493.61900441   
   1885.8012 84.87509191      221.29072897     2430.79816494   
   1885.9536 82.88274759      221.29084894     2431.82077618   
   1886.1060 84.13933252      221.29066611     2461.97229970   
   1886.2584 84.54932219      221.29065041     2489.30483422   
   1886.4108 85.89222413      221.29065041     2499.65639692   
   1886.5632 91.09370351      221.29065041     2511.08406741   
   1886.7156 95.79676248      221.29065041     2511.92692815   
   1886.8680 96.01765378      221.29065041     2485.56450114   
   1887.0204 96.37119481      221.29065151     2462.83247961   
   1887.1728 96.74161036      221.29077451     2460.88091200   
   1887.3252 97.19923163      221.29085213     2481.35451312   
   1887.4776 99.51445633      221.28917978     2494.51537503   
   1887.6300 101.60726570     221.38686507     2496.17514849   
   1887.7824 101.17033630     221.53319340     2498.42313930   
   1887.9348 101.37950120     221.67771715     2499.70027237   
   1888.0872 100.71414722     221.77316805     2491.12865891   
   1888.2396 100.51592949     221.60196375     2470.77442062   
   1888.3920 99.27478426      221.43528222     2461.79024091   
   1888.5444 97.42712445      221.29118378     2446.27605507   
   1888.6968 96.84525897      221.29023362     2423.75796269   
   1888.8492 97.68342141      221.29069828     2404.93820800   
   1889.0016 99.18539106      221.29068559     2405.05257156   
   1889.1540 99.82801053      221.29065041     2435.83451249   
   1889.3064 98.19608920      221.29065041     2455.68858563   
   1889.4588 95.65605278      221.29065041     2470.50137952   
   1889.6112 94.01467407      221.29065041     2483.02611620   
   1889.7636 95.25760604      221.29065041     2496.31662805   
   1889.9160 96.57548019      221.29065041     2501.89883994   
   1890.0684 97.09935921      221.29065041     2524.23656247   
   1890.2208 96.53531173      221.29065041     2548.71928298   
   1890.3732 96.52667751      221.29065041     2557.13557779   
   1890.5256 97.42125212      221.29065041     2544.55812524   
   1890.6780 98.85842227      221.29065041     2527.75278017   
   1890.8304 101.01890913     221.29065041     2531.14677077   
   1890.9828 103.51712673     221.29065041     2534.18819991   
   1891.1352 104.70728553     221.29065041     2511.51928293   
   1891.2876 103.54837300     221.29065041     2482.60376143   
   1891.4400 100.27123860     221.29065041     2466.16409419   
   1891.5924 98.31905639      221.29065041     2468.81704631   
   1891.7448 97.76295513      221.29065041     2475.89041556   
   1891.8972 99.15930163      221.29065041     2471.52838181   
   1892.0496 101.01144532     221.29065041     2459.36244562   
   1892.2020 101.07443104     221.29065041     2456.09206943   
   1892.3544 98.64114660      221.29065041     2476.29547766   
   1892.5068 95.88607054      221.29070539     2504.37454123   
   1892.6592 95.90789755      221.29040523     2515.79137930   
   1892.8116 97.13236135      221.28955046     2517.74238819   
   1892.9640 97.43401963      221.29763359     2536.77154398   
   1893.1164 95.02149470      221.46639165     2558.42253941   
   1893.2688 90.91233202      221.63361062     2564.30417381   
   1893.4212 89.18386430      221.79399092     2529.73199595   
   1893.5736 90.56798677      221.79965058     2472.23764628   
   1893.7260 92.54720739      221.79892754     2452.62435743   
   1893.8784 96.65560640      221.79873221     2455.20703275   
   1894.0308 97.54167484      221.79878049     2454.97834644   
   1894.1832 93.08779781      221.79878049     2447.29121448   
   1894.3356 89.88270674      221.79878049     2448.00787300   
   1894.4880 105.41659586     221.79878049     2469.35473671   
   1894.6404 105.86598777     221.79878049     2503.16656939   
   1894.7928 103.31408204     221.79878049     2528.65871358   
   1894.9452 101.97404160     221.79878049     2521.22866224   
   1895.0976 104.25041076     221.79878049     2481.67794854   
