~Version Information Block
 VERS.                2.00:     CWLS LOG ASCII STANDARD - VERSION 2.000000
 WRAP.                  NO:     One Line Per Depth Step
#
~Well Information Block
#MNEM.UNIT                     Data                         Information
#----------   ------------------------------------------   ----------------
 STRT.M                                      1800.0000:     START DEPTH
 STOP.M                                      2199.8976:     STOP DEPTH
 STEP.M                                         0.1524:     STEP
 NULL.                                       -999.2500:     NULL VALUE
 COMP.                                        Alphabow:     COMPANY
 WELL.                   SOC PINE CK 9-20-56-19 #81814:     WELL
 FLD .                                                :     FIELD
 LOC .                           100/09-20-056-19W5/00:     LOCATION
 CNTY.                                                :     COUNTY
 STAT.                                                :     STATE
 CTRY.                                                :     COUNTRY
 SRVC.                                                :     SERVICE COMPANY
 DATE.                                      03/28/2025:     DATE
 API .                                100092005619W500:     API NUMBER
 UWI .                                100092005619W500:     UWI NUMBER
 TVD .                                              NO:     TVD flag
 WSTA.                                             LOC:     Well status
#
~Curve Information Block
#MNEM.UNIT       API CODE      Curve Description
#----------    -------------   -------------------
 DEPT.M                    :   Depth in Meters
 GR  .GAPI     35 310 01 01:   Gamma Ray
 CALI.mm       70 280 01 01:   Caliper
 RHOB.kg/m3     42 350 01 01:   Bulk Density
#
~Parameter Information Block
#MNEM.UNIT            Value               Description
#----------    --------------------    -------------------
 RUN .                         ONE:    Run Number
 PDAT.                         UNK:    Permanent Datum
 EPD .M                 -9999.5000:    Elevation Of Perm. Datum
 WSTA.                         LOC:    
 E   .M                 -9999.5000:    E (Stretch Coefficient Of The Cable)
 TD  .M                  2200.0000:    Total Depth
#
~Other Information Block
<DescLogPlotStart>   NEURALOG PLOT DEFINITION
PLOTDEFVERSION: 3
LASFILE: C:\Users\wadet\Desktop\Alphabow Evaluation\well_info\second_white_spec
DEPTHSCALE: 240.000000
RESOLUTION: 200
DEPTHLABELFREQ: 50.000000
HEAVYGRIDFREQ: 50.000000
MEDIUMGRIDFREQ: 25.000000
LIGHTGRIDFREQ: 5.000000
#
#   TRACK 1
#
STARTTRACK: 
 LEFTX: 0.500000 inch
 RIGHTX: 3.000000 inch
 SCALETYPE: Linear
 NUMCHARTDIVISIONS: 2
CURVE: GR    0.000000   150.000000 (0,0,255)      Solid             2     N    
CURVE: CALI  125.000000 375.000000 (0,131,131)    Dot               2     N    
ENDTRACK: 
#
#   TRACK 2
#
STARTTRACK: 
 LEFTX: 3.500000 inch
 RIGHTX: 8.500000 inch
 SCALETYPE: Linear
 NUMCHARTDIVISIONS: 3
CURVE: RHOB  2000.000000 3000.000000 (255,0,255)    Solid             2     N  
ENDTRACK: 
<DescLogPlotEnd>
~A DEPTH     GR               CALI             RHOB            
# ...
   1952.4000 119.63029736     266.84643654     2555.95096667   
   1952.5524 119.01655584     267.55921878     2569.30760020   
   1952.7048 118.41696023     268.27166102     2583.01944554   
   1952.8572 117.23600942     269.05175309     2585.68637416   
   1953.0096 116.05026159     269.87244507     2582.73167416   
   1953.1620 116.58578221     270.69736127     2573.54309792   
   1953.3144 117.42803274     271.57570429     2557.07309288   
   1953.4668 117.81101645     273.09790266     2516.52446964   
   1953.6192 117.55936649     274.73752582     2490.88667709   
   1953.7716 118.47577338     275.98318313     2506.13936185   
   1953.9240 120.31136903     276.72316566     2385.18808036   
   1954.0764 120.83709902     277.46495686     2417.07217544   
   1954.2288 119.27388778     278.20201606     2429.47233180   
   1954.3812 117.04270182     278.93763315     2414.15201852   
   1954.5336 115.39884627     279.67369489     2380.58692881   
   1954.6860 113.40326791     280.42198779     2329.52286083   
   1954.8384 111.87525914     281.14605450     2341.91240458   
   1954.9908 112.77064669     278.44276608     2328.26071532   
   1955.1432 116.27009781     275.16183394     2497.85113471   
   1955.2956 119.33343848     275.69368407     2499.24995584   
   1955.4480 119.07532707     276.90648028     2495.73164333   
   1955.6004 117.14193050     276.69810241     2496.43182435   
   1955.7528 116.55833384     274.14060132     2496.21733639   
   1955.9052 117.46495240     269.21670298     2496.57184765   
   1956.0576 117.86265675     262.72860504     2496.42231809   
   1956.2100 117.72356307     264.97616199     2496.39232714   
   1956.3624 118.22498953     267.70007421     2496.62460333   
   1956.5148 120.37607736     269.60107596     2497.34178866   
   1956.6672 122.07451534     269.56061335     2497.76010944   
   1956.8196 121.51622607     269.55810011     2494.11031084   
   1956.9720 119.47726142     269.56673686     2507.72261515   
   1957.1244 118.62896775     270.29688266     2479.08261059   
   1957.2768 117.15246101     271.13216113     2449.80816439   
   1957.4292 117.26326625     271.96890666     2449.22748844   
   1957.5816 115.50468745     272.83178794     2480.44934486   
   1957.7340 111.17568350     273.77256213     2495.33430041   
   1957.8864 109.26843385     274.72588201     2495.09079770   
   1958.0388 111.67772098     275.58602859     2465.33109959   
   1958.1912 115.24650921     274.00092222     2423.41465352   
   1958.3436 118.82576862     272.32218386     2377.37706726   
   1958.4960 119.42827920     269.02169248     2339.65974638   
   1958.6484 118.35589867     267.24088924     2346.12130942   
   1958.8008 116.67333277     267.61908013     2381.74011311   
   1958.9532 114.44551834     267.99254220     2452.70394042   
   1959.1056 114.47905955     268.37214781     2486.58328558   
   1959.2580 117.46456589     270.29088620     2498.10594820   
   1959.4104 121.14915105     273.76975436     2491.44285087   
   1959.5628 125.08610727     277.21324237     2483.26403677   
   1959.7152 123.34389313     277.47372290     2466.42522701   
   1959.8676 117.42598289     277.28440853     2424.89908937   
   1960.0200 114.12078973     275.56633180     2370.76261614   
   1960.1724 113.48507567     273.67000452     2326.54556014   
   1960.3248 115.14084719     271.75343220     2349.13708409   
   1960.4772 116.63190365     269.84411275     2398.92097764   
   1960.6296 117.55336456     267.92688425     2455.35294162   
   1960.7820 117.19044568     265.92669917     2532.04676029   
   1960.9344 117.29736353     267.08596654     2514.79089312   
   1961.0868 119.02711236     269.20583555     2491.08332376   
   1961.2392 121.28382781     271.31174946     2497.94122821   
   1961.3916 123.87733971     269.40002333     2403.72802901   
   1961.5440 122.99985972     266.89730549     2407.36375380   
   1961.6964 121.14849063     264.59793993     2409.63417492   
   1961.8488 120.61898942     266.19131510     2403.47230423   
   1962.0012 121.80763034     267.89982217     2383.75351315   
   1962.1536 122.78161066     269.59279697     2369.81566826   
   1962.3060 122.02007371     271.27476694     2386.56359616   
   1962.4584 121.25004374     272.96602948     2402.51519596   
   1962.6108 121.59743172     274.75401511     2418.53609336   
   1962.7632 121.98647625     273.05131389     2434.55680563   
   1962.9156 121.06403157     270.15741677     2449.49622003   
   1963.0680 118.90564714     269.54001847     2457.37504757   
   1963.2204 118.10485808     271.62826099     2464.79709733   
   1963.3728 119.74197985     273.53518281     2472.17833444   
   1963.5252 121.41939966     272.30811188     2479.62074511   
   1963.6776 123.80311598     270.98449769     2485.30236419   
   1963.8300 125.99266946     269.67190162     2469.56863465   
   1963.9824 129.10586749     268.36383537     2426.96275588   
   1964.1348 132.34646953     267.05618647     2408.26971928   
   1964.2872 133.61099158     265.74767165     2430.60291931   
   1964.4396 133.41080873     264.42267434     2457.50833839   
   1964.5920 131.71213776     263.15898513     2465.82275332   
   1964.7444 129.72131781     267.80390838     2464.85093684   
   1964.8968 127.56963352     272.02066773     2463.34912437   
   1965.0492 127.09588536     271.01497832     2472.82274676   
   1965.2016 126.16754481     270.12258416     2485.12563642   
   1965.3540 124.81532923     269.21594930     2487.05365954   
   1965.5064 123.84986160     269.81768592     2478.25660128   
   1965.6588 123.96581191     270.77842373     2473.93197123   
   1965.8112 124.48364877     271.74733644     2487.54073538   
   1965.9636 124.49056849     272.21356723     2513.07222763   
   1966.1160 124.25456986     268.85215899     2525.09714512   
   1966.2684 124.78000695     265.45160217     2527.03304101   
   1966.4208 126.78885429     264.36435735     2522.09765297   
   1966.5732 129.38367006     263.63616478     2502.97968051   
   1966.7256 133.17153580     262.91419243     2445.52690075   
   1966.8780 135.19292670     262.19170099     2396.29355934   
   1967.0304 134.31211107     261.47731569     2384.97692118   
   1967.1828 130.88569122     260.75279183     2433.26747541   
   1967.3352 128.86340965     261.48583850     2470.84894291   
   1967.4876 130.35434436     263.38358160     2473.20656988   
   1967.6400 136.19325082     265.28770089     2462.97665897   
   1967.7924 140.76799137     266.93751861     2471.67265884   
   1967.9448 147.33754002     265.59547967     2495.02894539   
   1968.0972 149.25712997     264.25294037     2504.88934709   
   1968.2496 149.45283620     264.48139231     2505.64446737   
   1968.4020 148.29147372     266.81641281     2508.78781847   
   1968.5544 145.23208836     269.12627327     2527.01619992   
   1968.7068 142.20047853     270.85969500     2539.60238150   
   1968.8592 139.16488000     271.54826929     2514.59328849   
   1969.0116 136.13129257     272.25959299     2498.43204585   
   1969.1640 133.09197713     271.45462167     2498.39180234   
   1969.3164 129.97376012     269.31518807     2497.55277596   
   1969.4688 128.25402797     267.17546151     2497.52015357   
   1969.6212 128.19825560     266.51069409     2496.26688181   
   1969.7736 128.37107795     267.56609329     2499.61664110   
   1969.9260 128.50584608     268.43735519     2495.62037915   
   1970.0784 128.74632934     265.66644150     2485.06068814   
   1970.2308 129.43929834     264.84141356     2473.70148324   
   1970.3832 130.91708094     265.39680074     2475.45299451   
   1970.5356 132.65871947     265.97248421     2495.58850459   
   1970.6880 134.01308727     265.41933441     2525.10798954   
   1970.8404 134.57533159     264.75612642     2531.14811495   
   1970.9928 133.97617532     264.06428874     2518.34381119   
   1971.1452 132.66914530     264.88786406     2513.08151860   
   1971.2976 131.84445791     265.99439190     2530.15807603   
