~Version Information Block
 VERS.                2.00:     CWLS LOG ASCII STANDARD - VERSION 2.000000
 WRAP.                  NO:     One Line Per Depth Step
#
~Well Information Block
#MNEM.UNIT                     Data                         Information
#----------   ------------------------------------------   ----------------
 STRT.M                                      1800.0000:     START DEPTH
 STOP.M                                      2199.8976:     STOP DEPTH
 STEP.M                                         0.1524:     STEP
 NULL.                                       -999.2500:     NULL VALUE
 COMP.                                        Alphabow:     COMPANY
 WELL.                   SOC PINE CK 9-20-56-19 #81814:     WELL
 FLD .                                                :     FIELD
 LOC .                           100/09-20-056-19W5/00:     LOCATION
 CNTY.                                                :     COUNTY
 STAT.                                                :     STATE
 CTRY.                                                :     COUNTRY
 SRVC.                                                :     SERVICE COMPANY
 DATE.                                      03/28/2025:     DATE
 API .                                100092005619W500:     API NUMBER
 UWI .                                100092005619W500:     UWI NUMBER
 TVD .                                              NO:     TVD flag
 WSTA.                                             LOC:     Well status
#
~Curve Information Block
#MNEM.UNIT       API CODE      Curve Description
#----------    -------------   -------------------
 DEPT.M                    :   Depth in Meters
 GR  .GAPI     35 310 01 01:   Gamma Ray
 CALI.mm       70 280 01 01:   Caliper
 RHOB.kg/m3     42 350 01 01:   Bulk Density
#
~Parameter Information Block
#MNEM.UNIT            Value               Description
#----------    --------------------    -------------------
 RUN .                         ONE:    Run Number
 PDAT.                         UNK:    Permanent Datum
 EPD .M                 -9999.5000:    Elevation Of Perm. Datum
 WSTA.                         LOC:    
 E   .M                 -9999.5000:    E (Stretch Coefficient Of The Cable)
 TD  .M                  2200.0000:    Total Depth
#
~Other Information Block
<DescLogPlotStart>   NEURALOG PLOT DEFINITION
PLOTDEFVERSION: 3
LASFILE: C:\Users\wadet\Desktop\Alphabow Evaluation\well_info\second_white_spec
DEPTHSCALE: 240.000000
RESOLUTION: 200
DEPTHLABELFREQ: 50.000000
HEAVYGRIDFREQ: 50.000000
MEDIUMGRIDFREQ: 25.000000
LIGHTGRIDFREQ: 5.000000
#
#   TRACK 1
#
STARTTRACK: 
 LEFTX: 0.500000 inch
 RIGHTX: 3.000000 inch
 SCALETYPE: Linear
 NUMCHARTDIVISIONS: 2
CURVE: GR    0.000000   150.000000 (0,0,255)      Solid             2     N    
CURVE: CALI  125.000000 375.000000 (0,131,131)    Dot               2     N    
ENDTRACK: 
#
#   TRACK 2
#
STARTTRACK: 
 LEFTX: 3.500000 inch
 RIGHTX: 8.500000 inch
 SCALETYPE: Linear
 NUMCHARTDIVISIONS: 3
CURVE: RHOB  2000.000000 3000.000000 (255,0,255)    Solid             2     N  
ENDTRACK: 
<DescLogPlotEnd>
~A DEPTH     GR               CALI             RHOB            
   1800.0000 78.20121951      272.61178862     2220.34764826   
   1800.1524 75.96207317      272.61178862     2220.34764826   
   1800.3048 72.95124390      272.61178862     2220.34764826   
   1800.4572 69.66463415      272.61178862     2148.77300613   
   1800.6096 69.52963319      272.61178862     2170.75040062   
   1800.7620 69.24414847      272.61178862     2218.50773129   
   1800.9144 68.99382563      272.61178862     2266.96385493   
   1801.0668 68.74718977      272.61161423     2336.41579956   
   1801.2192 68.52079185      272.61105209     2329.72296949   
   1801.3716 67.55857173      272.61369976     2318.01667560   
   1801.5240 66.46220578      272.72517215     2305.74162374   
   1801.6764 65.35366862      273.39498461     2300.36027944   
   1801.8288 64.51998397      274.06662133     2315.85781113   
   1801.9812 63.75212941      274.61586171     2345.27877029   
   1802.1336 63.02111028      272.54946527     2351.46579919   
   1802.2860 64.92864658      263.34616720     2333.95557069   
   1802.4384 67.05996255      263.87778592     2306.25331836   
   1802.5908 69.28066143      267.21120241     2295.74851505   
   1802.7432 70.58205064      270.82292549     2288.17681871   
   1802.8956 70.17769206      274.40697729     2280.36150759   
   1803.0480 69.58554934      284.45437178     2268.23560259   
   1803.2004 68.98291754      287.59262133     2248.54336576   
   1803.3528 68.41734034      284.04556586     2234.96445701   
   1803.5052 66.97733424      273.68624623     2236.24057846   
   1803.6576 63.43741691      266.32135023     2272.49488753   
   1803.8100 58.35390943      260.85566222     2401.32027686   
   1803.9624 52.28472852      258.21803217     2545.28877143   
   1804.1148 46.03106652      255.51487815     2660.02044990   
   1804.2672 40.13995876      255.25772605     2661.04294479   
   1804.4196 36.99182457      256.86035704     2603.22299387   
   1804.5720 38.36795930      258.47223783     2527.45619632   
   1804.7244 43.88127489      260.30333178     2451.68939877   
   1804.8768 51.24149352      263.63158452     2353.27198364   
   1805.0292 57.93548510      266.98181909     2366.56441718   
   1805.1816 67.22881138      269.98867206     2370.02853170   
   1805.3340 72.61542427      269.24643082     2386.30312127   
   1805.4864 75.26912342      268.44013596     2365.42057733   
   1805.6388 75.91782765      267.65623795     2335.93124697   
   1805.7912 75.76565492      266.99909850     2304.59744310   
   1805.9436 75.40548263      267.02846297     2279.21463122   
   1806.0960 75.77053729      267.50572610     2310.82657039   
   1806.2484 77.30021117      270.53629891     2317.63675142   
   1806.4008 78.40788783      273.53140504     2270.47991573   
   1806.5532 79.08936600      275.11264953     2218.20637525   
   1806.7056 79.44190755      272.85534329     2162.69346915   
   1806.8580 79.75207976      270.72244865     2167.46453605   
   1807.0104 79.11262023      267.44426645     2202.76714600   
   1807.1628 76.55483682      261.63802934     2248.20278197   
   1807.3152 74.39709875      264.41955310     2284.71927483   
   1807.4676 71.14963340      269.70845927     2250.35111025   
   1807.6200 69.88452051      279.65305409     2215.34456004   
   1807.7724 69.35839311      284.35150885     2181.02170152   
   1807.9248 68.80217712      284.64179793     2135.22886855   
   1808.0772 68.81345234      282.69493544     2172.18407398   
   1808.2296 69.70830756      278.73778795     2231.03455951   
   1808.3820 71.56935572      277.93074360     2290.23519015   
   1808.5344 72.98446855      280.42713402     2349.52881303   
   1808.6868 73.85019149      282.68745482     2329.74610731   
   1808.8392 72.68941482      281.71724003     2309.00382659   
   1808.9916 72.18510174      280.65501603     2282.40525292   
   1809.1440 73.98756253      281.21748638     2198.87470552   
   1809.2964 76.65522110      282.80489348     2252.50206963   
   1809.4488 80.60766896      284.46406551     2249.61557330   
   1809.6012 81.82377367      283.57148695     2081.64802799   
   1809.7536 80.81951371      281.96770564     2089.58295448   
   1809.9060 77.71664822      280.33232365     2097.30524894   
   1810.0584 75.73367080      278.69337368     2107.37625082   
   1810.2108 74.67648350      277.26714186     2089.34579745   
   1810.3632 74.79563754      278.60029862     2061.78722410   
   1810.5156 74.37631949      279.95313978     2033.75849383   
   1810.6680 72.33045613      280.15617476     2005.69641469   
   1810.8204 71.79952596      278.79146202     2004.30028387   
   1810.9728 72.42917263      277.38726178     2004.83419353   
   1811.1252 74.28302583      278.61240121     2045.18198500   
   1811.2776 75.18794904      280.44373351     2091.13720426   
   1811.4300 77.36716664      278.09281388     2137.01694670   
   1811.5824 78.57536881      274.76522635     2182.94094003   
   1811.7348 77.79846232      273.98436107     2228.50551049   
   1811.8872 75.83598840      273.32129039     2290.44290999   
   1812.0396 74.61066477      272.65342416     2284.24932060   
   1812.1920 74.27333799      271.97620500     2259.69409277   
   1812.3444 74.22975609      271.25323241     2223.84504353   
   1812.4968 74.20772490      272.35291693     2179.71252948   
   1812.6492 72.64212640      274.10714062     2128.08646617   
   1812.8016 70.75503844      275.63097728     2102.10056171   
   1812.9540 69.11821257      282.51952530     2099.31531883   
   1813.1064 68.12464456      286.24588434     2127.27863301   
   1813.2588 69.05369385      280.14824841     2150.02798166   
   1813.4112 70.90026362      275.16502969     2152.61570375   
   1813.5636 72.68030842      272.37516301     2150.86664454   
   1813.7160 73.90408124      273.19377062     2156.41759302   
   1813.8684 72.07665485      274.07096515     2184.64319487   
   1814.0208 68.20556449      270.62844757     2226.45660415   
   1814.1732 62.80269216      266.10035798     2294.11719489   
   1814.3256 56.85768055      263.82713840     2397.28802809   
   1814.4780 51.72431950      263.49834470     2489.25036096   
   1814.6304 48.96903543      263.20732578     2436.73991207   
   1814.7828 48.97507550      263.83901079     2394.89712664   
   1814.9352 51.49688696      267.26544308     2353.57837133   
   1815.0876 55.99482188      270.56954905     2312.19089093   
   1815.2400 59.31237171      273.48235134     2270.82303679   
   1815.3924 61.22888522      274.76922149     2231.89692778   
   1815.5448 62.60656478      276.10262196     2230.33408462   
   1815.6972 65.62351591      277.44229815     2251.97329432   
   1815.8496 70.90098997      278.77915139     2250.09576465   
   1816.0020 74.38098351      280.11728828     2250.02698749   
   1816.1544 75.67205821      281.45851356     2249.95165616   
   1816.3068 74.81897438      282.74361152     2252.25131121   
   1816.4592 73.11439008      282.92669701     2245.87765618   
   1816.6116 71.48713624      283.06666326     2239.77610783   
   1816.7640 70.94085261      283.21031038     2214.43619794   
   1816.9164 70.51648339      283.35463952     2108.72832245   
   1817.0688 69.72407491      283.50278752     2002.50148106   
   1817.2212 69.95848982      283.66042282     2055.73936343   
   1817.3736 72.09093018      283.70740784     2109.68310537   
   1817.5260 74.19586875      280.98131259     2164.58075599   
   1817.6784 72.59112238      278.13327743     2219.67230057   
   1817.8308 69.07362510      275.29434858     2254.66820296   
   1817.9832 66.92351584      272.45752434     2209.97777205   
   1818.1356 67.74029595      269.61671839     2175.50142784   
   1818.2880 70.86289968      266.80686086     2196.32817136   
   1818.4404 71.45683046      264.43350552     2239.86142164   
   1818.5928 69.46852031      264.67913869     2271.32865736   
   1818.7452 67.83424577      264.92295549     2231.81188738   
   1818.8976 68.25840061      266.80131103     2173.23206394   
