~Version Information Block
 VERS.                2.00:     CWLS LOG ASCII STANDARD - VERSION 2.000000
 WRAP.                  NO:     One Line Per Depth Step
#
~Well Information Block
#MNEM.UNIT                     Data                         Information
#----------   ------------------------------------------   ----------------
 STRT.M                                      1800.0000:     START DEPTH
 STOP.M                                      2199.8976:     STOP DEPTH
 STEP.M                                         0.1524:     STEP
 NULL.                                       -999.2500:     NULL VALUE
 COMP.                                        Alphabow:     COMPANY
 WELL.                   SOC PINE CK 9-20-56-19 #81814:     WELL
 FLD .                                                :     FIELD
 LOC .                           100/09-20-056-19W5/00:     LOCATION
 CNTY.                                                :     COUNTY
 STAT.                                                :     STATE
 CTRY.                                                :     COUNTRY
 SRVC.                                                :     SERVICE COMPANY
 DATE.                                      03/28/2025:     DATE
 API .                                100092005619W500:     API NUMBER
 UWI .                                100092005619W500:     UWI NUMBER
 TVD .                                              NO:     TVD flag
 WSTA.                                             LOC:     Well status
#
~Curve Information Block
#MNEM.UNIT       API CODE      Curve Description
#----------    -------------   -------------------
 DEPT.M                    :   Depth in Meters
 GR  .GAPI     35 310 01 01:   Gamma Ray
 CALI.mm       70 280 01 01:   Caliper
 RHOB.kg/m3     42 350 01 01:   Bulk Density
#
~Parameter Information Block
#MNEM.UNIT            Value               Description
#----------    --------------------    -------------------
 RUN .                         ONE:    Run Number
 PDAT.                         UNK:    Permanent Datum
 EPD .M                 -9999.5000:    Elevation Of Perm. Datum
 WSTA.                         LOC:    
 E   .M                 -9999.5000:    E (Stretch Coefficient Of The Cable)
 TD  .M                  2200.0000:    Total Depth
#
~Other Information Block
<DescLogPlotStart>   NEURALOG PLOT DEFINITION
PLOTDEFVERSION: 3
LASFILE: C:\Users\wadet\Desktop\Alphabow Evaluation\well_info\second_white_spec
DEPTHSCALE: 240.000000
RESOLUTION: 200
DEPTHLABELFREQ: 50.000000
HEAVYGRIDFREQ: 50.000000
MEDIUMGRIDFREQ: 25.000000
LIGHTGRIDFREQ: 5.000000
#
#   TRACK 1
#
STARTTRACK: 
 LEFTX: 0.500000 inch
 RIGHTX: 3.000000 inch
 SCALETYPE: Linear
 NUMCHARTDIVISIONS: 2
CURVE: GR    0.000000   150.000000 (0,0,255)      Solid             2     N    
CURVE: CALI  125.000000 375.000000 (0,131,131)    Dot               2     N    
ENDTRACK: 
#
#   TRACK 2
#
STARTTRACK: 
 LEFTX: 3.500000 inch
 RIGHTX: 8.500000 inch
 SCALETYPE: Linear
 NUMCHARTDIVISIONS: 3
CURVE: RHOB  2000.000000 3000.000000 (255,0,255)    Solid             2     N  
ENDTRACK: 
<DescLogPlotEnd>
~A DEPTH     GR               CALI             RHOB            
# ...
   2123.8500 125.36045090     260.23235026     2319.91766651   
   2124.0024 121.94428427     260.36652841     2263.71534574   
   2124.1548 118.29753360     260.93367171     2232.02115503   
   2124.3072 117.48972411     261.69934921     2249.72954758   
   2124.4596 119.59496943     262.44027973     2233.96595746   
   2124.6120 121.21389508     262.76940754     2222.14704672   
   2124.7644 121.49265143     263.07984507     2215.57252672   
   2124.9168 120.87141658     263.38949242     2212.64592318   
   2125.0692 119.40931290     263.70641057     2209.71770451   
   2125.2216 118.43158452     264.34418221     2206.77938034   
   2125.3740 118.73758236     267.05628638     2204.82608899   
   2125.5264 118.67138251     269.90515092     2203.03994477   
   2125.6788 118.76174129     268.62859210     2220.09401608   
   2125.8312 118.67451847     265.97055785     2255.54943106   
   2125.9836 118.13932466     263.47263314     2290.98645292   
   2126.1360 117.57962135     262.63660467     2326.48061988   
   2126.2884 115.77514489     261.87395198     2362.31938780   
   2126.4408 112.76757423     261.56703566     2389.81028634   
   2126.5932 109.19226503     261.86314467     2393.17879200   
   2126.7456 106.21277466     262.15646419     2377.51417294   
   2126.8980 105.37578815     262.43510905     2369.36109424   
   2127.0504 105.81728949     262.27140766     2397.15765067   
   2127.2028 107.81927399     262.09387790     2475.97063458   
   2127.3552 112.22274066     262.03577758     2538.60373065   
   2127.5076 115.43318850     262.66954452     2528.22247543   
   2127.6600 117.17926447     263.30820287     2482.68761470   
   2127.8124 116.31988724     263.67805441     2452.57089650   
   2127.9648 114.20888236     263.97436507     2436.24450038   
   2128.1172 113.92337163     264.29212730     2426.06387505   
   2128.2696 115.75585174     265.18566446     2403.27883127   
   2128.4220 116.59795731     267.92789465     2366.18641497   
   2128.5744 115.30945925     270.60320228     2344.40759554   
   2128.7268 114.25379807     273.04660581     2329.21089916   
   2128.8792 113.55310520     272.37727758     2335.41758385   
   2129.0316 113.01239860     271.41723051     2356.46917741   
   2129.1840 112.92607497     265.68580175     2378.95247360   
   2129.3364 113.95555229     260.05674773     2388.64479258   
   2129.4888 116.30070395     259.15959327     2404.55794953   
   2129.6412 116.92702922     258.47963858     2422.82495680   
   2129.7936 117.22493573     258.16254644     2418.91441908   
   2129.9460 118.16489768     260.08107706     2411.39830620   
   2130.0984 119.63843208     261.98716311     2413.21140404   
   2130.2508 119.46880697     263.92413927     2406.09002393   
   2130.4032 116.97805538     265.64253549     2379.68771253   
   2130.5556 115.08714267     267.35346771     2351.79029159   
   2130.7080 114.22899066     269.07421126     2335.27497793   
   2130.8604 113.49018518     271.29218699     2344.27179790   
   2131.0128 112.47465616     273.53796980     2382.85769902   
   2131.1652 112.61429671     273.63947440     2439.06181159   
   2131.3176 114.63827313     273.62530917     2489.38540839   
   2131.4700 118.34490180     273.66097247     2494.97280361   
   2131.6224 124.18248826     271.17805373     2463.30211167   
   2131.7748 124.59112977     267.39243597     2416.49143464   
   2131.9272 123.98164554     263.62984922     2352.35340004   
   2132.0796 123.28832538     259.92176746     2309.53672978   
   2132.2320 122.73056754     256.27851028     2309.82236979   
   2132.3844 119.94840949     256.87593885     2340.51055758   
   2132.5368 118.43417485     258.03223703     2387.16399238   
   2132.6892 118.54037381     259.19877580     2423.63323868   
   2132.8416 121.96344679     260.61404322     2424.23955125   
   2132.9940 126.59399051     262.46776322     2379.23295458   
   2133.1464 126.00037565     264.31238611     2308.07953089   
   2133.2988 122.77177640     266.00328995     2291.15263834   
   2133.4512 119.27279317     266.47830073     2282.83220579   
   2133.6036 119.63141059     266.89660616     2347.14254357   
   2133.7560 120.83819943     267.33420066     2385.44946031   
   2133.9084 123.35427756     265.85836630     2369.89040381   
   2134.0608 123.63694337     263.02602775     2329.74144825   
   2134.2132 122.07214068     260.25578326     2333.34759055   
   2134.3656 121.78774154     262.10482525     2326.85486299   
   2134.5180 121.78984532     264.55536057     2308.87259912   
   2134.6704 121.85495744     267.07613560     2301.34626624   
   2134.8228 122.42052794     271.29756894     2317.42283115   
   2134.9752 124.57402640     273.31189790     2323.86828104   
   2135.1276 124.85353375     270.64266872     2304.25890241   
   2135.2800 121.81732432     267.77631266     2284.66551098   
   2135.4324 119.12437209     264.87197949     2268.77951912   
   2135.5848 117.49551372     261.35701770     2281.62658844   
   2135.7372 118.97492134     257.97616824     2334.18550045   
   2135.8896 121.87563598     254.65230862     2384.13340203   
   2136.0420 125.78462666     249.48984492     2355.97390562   
   2136.1944 126.62336018     256.39604785     2310.00728681   
   2136.3468 126.15900969     274.06452049     2279.37555975   
   2136.4992 121.95785966     273.54982113     2294.29642863   
   2136.6516 120.27365910     272.20328577     2314.62429596   
   2136.8040 120.81226089     270.93627431     2304.47836181   
   2136.9564 121.88034783     269.69839128     2267.97999214   
   2137.1088 121.77764587     269.02881953     2242.78645462   
   2137.2612 119.37696526     268.96135664     2237.22082288   
   2137.4136 117.18281789     268.89161349     2262.60723833   
   2137.5660 117.08902972     268.82565313     2312.20633076   
   2137.7184 118.75684985     268.76020580     2375.27149978   
   2137.8708 119.66341241     268.69406349     2471.48243352   
   2138.0232 119.45661296     268.62899418     2462.20094168   
   2138.1756 118.72145512     268.57202070     2433.83204637   
   2138.3280 117.89709689     268.17414271     2404.68148144   
   2138.4804 116.09941765     267.67802065     2377.11370571   
   2138.6328 114.21142764     267.14529551     2354.82786955   
   2138.7852 113.20792395     267.82711595     2342.48354955   
   2138.9376 114.79532231     268.96650200     2348.51886711   
   2139.0900 117.84415068     270.11776560     2357.67729232   
   2139.2424 119.10390609     271.26119214     2357.61905166   
   2139.3948 118.35732720     272.38550709     2353.09090493   
   2139.5472 117.75574459     271.45245431     2361.42854542   
   2139.6996 116.95166245     267.14783574     2375.02801803   
   2139.8520 114.74198682     263.51651014     2365.37107964   
   2140.0044 113.01758607     264.88506665     2352.49535702   
   2140.1568 113.51254665     266.14185197     2337.48605547   
   2140.3092 116.86006560     267.37967885     2319.16488446   
   2140.4616 120.37304299     269.11873728     2298.30644058   
   2140.6140 121.40287929     270.94131080     2265.37551828   
   2140.7664 119.41488601     272.80502899     2244.14625343   
   2140.9188 115.92093978     272.16658265     2217.46939286   
   2141.0712 113.91025615     271.01078937     2222.09178192   
   2141.2236 114.16476649     269.82814414     2250.67335862   
   2141.3760 115.65033088     268.58736891     2292.67043617   
   2141.5284 116.96081518     267.16799676     2307.24888404   
   2141.6808 117.50108419     265.65447230     2291.02398896   
   2141.8332 117.22055293     264.18209714     2262.94224346   
   2141.9856 118.06161689     263.82622883     2258.07196920   
   2142.1380 119.40928289     268.33533176     2278.49610114   
   2142.2904 120.22499312     272.25812924     2290.89808586   
   2142.4428 120.06093826     272.24052115     2286.94137791   
   2142.5952 119.11085398     272.33827973     2275.96138303   
   2142.7476 116.25271394     272.45751930     2271.17258360   
