~Version Information Block
 VERS.                2.00:     CWLS LOG ASCII STANDARD - VERSION 2.000000
 WRAP.                  NO:     One Line Per Depth Step
#
~Well Information Block
#MNEM.UNIT                     Data                         Information
#----------   ------------------------------------------   ----------------
 STRT.M                                      1800.0000:     START DEPTH
 STOP.M                                      2199.8976:     STOP DEPTH
 STEP.M                                         0.1524:     STEP
 NULL.                                       -999.2500:     NULL VALUE
 COMP.                                        Alphabow:     COMPANY
 WELL.                   SOC PINE CK 9-20-56-19 #81814:     WELL
 FLD .                                                :     FIELD
 LOC .                           100/09-20-056-19W5/00:     LOCATION
 CNTY.                                                :     COUNTY
 STAT.                                                :     STATE
 CTRY.                                                :     COUNTRY
 SRVC.                                                :     SERVICE COMPANY
 DATE.                                      03/28/2025:     DATE
 API .                                100092005619W500:     API NUMBER
 UWI .                                100092005619W500:     UWI NUMBER
 TVD .                                              NO:     TVD flag
 WSTA.                                             LOC:     Well status
#
~Curve Information Block
#MNEM.UNIT       API CODE      Curve Description
#----------    -------------   -------------------
 DEPT.M                    :   Depth in Meters
 GR  .GAPI     35 310 01 01:   Gamma Ray
 CALI.mm       70 280 01 01:   Caliper
 RHOB.kg/m3     42 350 01 01:   Bulk Density
#
~Parameter Information Block
#MNEM.UNIT            Value               Description
#----------    --------------------    -------------------
 RUN .                         ONE:    Run Number
 PDAT.                         UNK:    Permanent Datum
 EPD .M                 -9999.5000:    Elevation Of Perm. Datum
 WSTA.                         LOC:    
 E   .M                 -9999.5000:    E (Stretch Coefficient Of The Cable)
 TD  .M                  2200.0000:    Total Depth
#
~Other Information Block
<DescLogPlotStart>   NEURALOG PLOT DEFINITION
PLOTDEFVERSION: 3
LASFILE: C:\Users\wadet\Desktop\Alphabow Evaluation\well_info\second_white_spec
DEPTHSCALE: 240.000000
RESOLUTION: 200
DEPTHLABELFREQ: 50.000000
HEAVYGRIDFREQ: 50.000000
MEDIUMGRIDFREQ: 25.000000
LIGHTGRIDFREQ: 5.000000
#
#   TRACK 1
#
STARTTRACK: 
 LEFTX: 0.500000 inch
 RIGHTX: 3.000000 inch
 SCALETYPE: Linear
 NUMCHARTDIVISIONS: 2
CURVE: GR    0.000000   150.000000 (0,0,255)      Solid             2     N    
CURVE: CALI  125.000000 375.000000 (0,131,131)    Dot               2     N    
ENDTRACK: 
#
#   TRACK 2
#
STARTTRACK: 
 LEFTX: 3.500000 inch
 RIGHTX: 8.500000 inch
 SCALETYPE: Linear
 NUMCHARTDIVISIONS: 3
CURVE: RHOB  2000.000000 3000.000000 (255,0,255)    Solid             2     N  
ENDTRACK: 
<DescLogPlotEnd>
~A DEPTH     GR               CALI             RHOB            
# ...
   2085.7500 90.60854678      258.01617547     2518.13723752   
   2085.9024 86.06894901      258.41520149     2532.10757386   
   2086.0548 83.99083047      258.79176349     2546.09102827   
   2086.2072 84.78345702      259.94908604     2555.64813180   
   2086.3596 88.17300578      261.17740984     2561.22460755   
   2086.5120 93.57684762      262.41891643     2551.79714480   
   2086.6644 94.99463552      263.65819016     2490.45844410   
   2086.8168 93.40838055      264.89699588     2506.45110572   
   2086.9692 91.34505859      266.14449689     2452.11583387   
   2087.1216 90.70443208      267.36291283     2652.40449761   
   2087.2740 90.34378907      265.99788341     2663.15533528   
   2087.4264 92.11992094      264.25569865     2555.98982549   
   2087.5788 96.58434752      262.51057390     2428.50625180   
   2087.7312 100.64592244     261.37223345     2437.58598321   
   2087.8836 105.10337652     261.25482003     2446.77209340   
   2088.0360 106.43987173     261.12386074     2450.90986270   
   2088.1884 105.56368364     260.99324419     2434.49779420   
   2088.3408 103.76128789     261.08633994     2393.60149330   
   2088.4932 101.67283333     261.40890468     2355.73597789   
   2088.6456 101.73419562     261.73015646     2368.72142118   
   2088.7980 103.90308737     262.05404556     2406.20193808   
   2088.9504 107.21281416     262.38509985     2434.74700319   
   2089.1028 109.97136410     262.34152573     2436.92291922   
   2089.2552 109.66241568     262.19661872     2413.56790565   
   2089.4076 106.39379566     262.03085295     2402.72249263   
   2089.5600 103.71095832     262.17971606     2410.99230111   
   2089.7124 102.54415535     267.54109589     2422.44686575   
   2089.8648 102.11418309     272.61324948     2418.72852680   
   2090.0172 100.45819202     276.36531529     2426.69976465   
   2090.1696 97.65519467      279.65305143     2433.49608339   
   2090.3220 96.81804125      277.18833459     2440.46434818   
   2090.4744 97.31137842      272.69698370     2447.08486067   
   2090.6268 98.00755718      268.36254192     2416.92480821   
   2090.7792 99.12922481      267.04952640     2392.66865017   
   2090.9316 100.53840470     265.75517847     2396.21561849   
   2091.0840 102.34674953     264.44501986     2364.37318813   
   2091.2364 104.18773907     263.14074129     2313.91486007   
   2091.3888 105.54391613     262.70485796     2264.90313046   
   2091.5412 105.91113435     262.42106814     2208.43800058   
   2091.6936 104.53405871     262.17257537     2249.01740778   
   2091.8460 103.46989931     265.31730733     2303.46022131   
   2091.9984 104.34147240     273.93362897     2379.21749543   
   2092.1508 106.67174877     277.16556878     2370.81087623   
   2092.3032 106.86349438     280.10116381     2355.96167554   
   2092.4556 106.08653708     281.89495358     2340.29251100   
   2092.6080 105.98375725     270.92405442     2330.74623867   
   2092.7604 105.64034862     266.06803113     2365.24564750   
   2092.9128 103.54938551     262.38588298     2421.57008043   
   2093.0652 98.17232888      258.81348113     2413.68612450   
   2093.2176 93.76173054      254.89252217     2409.45727759   
   2093.3700 92.88759617      251.70555472     2509.97657653   
   2093.5224 94.85447906      251.90610739     2575.27677822   
   2093.6748 96.88255493      252.02410764     2557.35677530   
   2093.8272 96.13900914      252.13150977     2535.86803174   
   2093.9796 92.51560388      252.24089393     2544.01152837   
   2094.1320 87.07260337      252.98666801     2559.37849602   
   2094.2844 84.27843492      254.31215568     2575.05446311   
   2094.4368 84.48432105      255.63777394     2590.30415632   
   2094.5892 88.25904331      256.96761152     2552.99614911   
   2094.7416 94.97509835      258.29287553     2507.62776622   
   2094.8940 101.46296129     259.61257146     2462.34540678   
   2095.0464 108.50621185     260.80593287     2416.63466138   
   2095.1988 114.78126172     261.60293383     2400.57509576   
   2095.3512 116.03154555     262.05521528     2388.80278007   
   2095.5036 115.17030951     262.63249768     2360.66364304   
   2095.6560 113.46694512     264.04356073     2332.52133284   
   2095.8084 113.03432676     265.44843546     2304.45571168   
   2095.9608 113.60526269     266.43495767     2276.59194391   
   2096.1132 114.50297266     265.92724632     2259.29522248   
   2096.2656 114.13763394     265.43843275     2282.60368899   
   2096.4180 114.17693900     265.12873533     2320.20975085   
   2096.5704 113.86774119     269.79212088     2349.81371436   
   2096.7228 113.53025641     273.98739432     2356.18114335   
   2096.8752 115.79001250     273.05519396     2360.65800698   
   2097.0276 120.29398761     271.96282329     2338.35111877   
   2097.1800 124.17315758     268.34880189     2325.98088897   
   2097.3324 126.06976454     264.78772425     2329.17448002   
   2097.4848 126.13962454     263.25177012     2344.50088651   
   2097.6372 122.92413245     262.86786319     2353.23808470   
   2097.7896 118.95760665     262.49182999     2356.24091437   
   2097.9420 116.40724040     262.12011874     2359.09422733   
   2098.0944 115.68385712     261.79097953     2359.50377263   
   2098.2468 115.48229806     261.49638892     2354.86515722   
   2098.3992 114.50162022     261.19449566     2335.50721265   
   2098.5516 113.01303147     261.00090238     2296.40084949   
   2098.7040 110.79463956     262.98282487     2273.99271196   
   2098.8564 109.25189651     265.01221643     2290.83685357   
   2099.0088 108.59197759     267.07605015     2321.07461812   
   2099.1612 107.84429696     267.24989359     2349.06963115   
   2099.3136 106.85551560     266.91282942     2366.48350589   
   2099.4660 105.50474682     266.55652033     2395.70003763   
   2099.6184 104.77405784     266.20107753     2429.52231929   
   2099.7708 105.50158648     265.84607397     2467.94045970   
   2099.9232 108.39961623     265.48625269     2473.57515403   
   2100.0756 110.38081025     265.12966843     2435.34843048   
   2100.2280 112.06899060     264.23909691     2388.93347064   
   2100.3804 112.99361495     262.99672981     2345.08959145   
   2100.5328 116.17334576     261.77924217     2322.70384288   
   2100.6852 118.26746405     259.40752686     2298.74048436   
   2100.8376 118.47375236     256.68597803     2274.88563555   
   2100.9900 119.57008015     253.99911852     2251.29562466   
   2101.1424 122.63160234     259.23009251     2235.94100250   
   2101.2948 125.32317453     265.03630865     2273.09841644   
   2101.4472 125.94475065     270.97969378     2302.10939191   
   2101.5996 123.17185578     272.07181443     2331.06593933   
   2101.7520 119.91121785     271.41922302     2347.65330205   
   2101.9044 117.68609952     270.72751867     2329.83674064   
   2102.0568 116.02024953     269.69995889     2298.07486171   
   2102.2092 114.20252676     268.66707619     2285.73634468   
   2102.3616 110.82312537     267.49821658     2307.41620562   
   2102.5140 106.89599146     266.13838255     2342.68118189   
   2102.6664 105.01876760     264.78436707     2362.38181293   
   2102.8188 105.71167345     263.43230946     2383.46559149   
   2102.9712 107.77163302     262.08490725     2385.12806674   
   2103.1236 110.24442722     260.94023871     2357.54507250   
   2103.2760 112.63057539     261.03627492     2315.26023306   
   2103.4284 114.48947453     261.14006306     2322.91320295   
   2103.5808 115.94218796     261.24232499     2353.84871638   
   2103.7332 117.37927916     261.34695365     2366.86469568   
   2103.8856 119.33612968     261.37870692     2345.90417677   
   2104.0380 119.36455151     260.25684004     2309.42627583   
   2104.1904 117.52065456     259.78042091     2285.40222363   
   2104.3428 116.25361128     261.51645142     2292.13202380   
   2104.4952 117.47669564     264.91686326     2311.33729993   
   2104.6476 119.60299735     270.65303618     2334.93912353   
