~Version Information Block
 VERS.                2.00:     CWLS LOG ASCII STANDARD - VERSION 2.000000
 WRAP.                  NO:     One Line Per Depth Step
#
~Well Information Block
#MNEM.UNIT                     Data                         Information
#----------   ------------------------------------------   ----------------
 STRT.M                                      1800.0000:     START DEPTH
 STOP.M                                      2199.8976:     STOP DEPTH
 STEP.M                                         0.1524:     STEP
 NULL.                                       -999.2500:     NULL VALUE
 COMP.                                        Alphabow:     COMPANY
 WELL.                   SOC PINE CK 9-20-56-19 #81814:     WELL
 FLD .                                                :     FIELD
 LOC .                           100/09-20-056-19W5/00:     LOCATION
 CNTY.                                                :     COUNTY
 STAT.                                                :     STATE
 CTRY.                                                :     COUNTRY
 SRVC.                                                :     SERVICE COMPANY
 DATE.                                      03/28/2025:     DATE
 API .                                100092005619W500:     API NUMBER
 UWI .                                100092005619W500:     UWI NUMBER
 TVD .                                              NO:     TVD flag
 WSTA.                                             LOC:     Well status
#
~Curve Information Block
#MNEM.UNIT       API CODE      Curve Description
#----------    -------------   -------------------
 DEPT.M                    :   Depth in Meters
 GR  .GAPI     35 310 01 01:   Gamma Ray
 CALI.mm       70 280 01 01:   Caliper
 RHOB.kg/m3     42 350 01 01:   Bulk Density
#
~Parameter Information Block
#MNEM.UNIT            Value               Description
#----------    --------------------    -------------------
 RUN .                         ONE:    Run Number
 PDAT.                         UNK:    Permanent Datum
 EPD .M                 -9999.5000:    Elevation Of Perm. Datum
 WSTA.                         LOC:    
 E   .M                 -9999.5000:    E (Stretch Coefficient Of The Cable)
 TD  .M                  2200.0000:    Total Depth
#
~Other Information Block
<DescLogPlotStart>   NEURALOG PLOT DEFINITION
PLOTDEFVERSION: 3
LASFILE: C:\Users\wadet\Desktop\Alphabow Evaluation\well_info\second_white_spec
DEPTHSCALE: 240.000000
RESOLUTION: 200
DEPTHLABELFREQ: 50.000000
HEAVYGRIDFREQ: 50.000000
MEDIUMGRIDFREQ: 25.000000
LIGHTGRIDFREQ: 5.000000
#
#   TRACK 1
#
STARTTRACK: 
 LEFTX: 0.500000 inch
 RIGHTX: 3.000000 inch
 SCALETYPE: Linear
 NUMCHARTDIVISIONS: 2
CURVE: GR    0.000000   150.000000 (0,0,255)      Solid             2     N    
CURVE: CALI  125.000000 375.000000 (0,131,131)    Dot               2     N    
ENDTRACK: 
#
#   TRACK 2
#
STARTTRACK: 
 LEFTX: 3.500000 inch
 RIGHTX: 8.500000 inch
 SCALETYPE: Linear
 NUMCHARTDIVISIONS: 3
CURVE: RHOB  2000.000000 3000.000000 (255,0,255)    Solid             2     N  
ENDTRACK: 
<DescLogPlotEnd>
~A DEPTH     GR               CALI             RHOB            
# ...
   1933.3500 115.11552540     222.81581719     2518.75227987   
   1933.5024 110.35040404     222.89819183     2488.09828990   
   1933.6548 106.74006930     223.05253185     2446.28196029   
   1933.8072 106.75292788     223.20566161     2366.06019604   
   1933.9596 110.71842905     223.32630049     2372.77959098   
   1934.1120 115.43436261     223.32317237     2386.16378329   
   1934.2644 116.95259455     223.32295689     2399.44114882   
   1934.4168 115.67018683     223.32314890     2414.05699247   
   1934.5692 114.01257698     223.32317073     2473.06103902   
   1934.7216 113.99113190     223.32317073     2566.37092519   
   1934.8740 116.17946885     223.32317073     2539.55381874   
   1935.0264 118.75261193     223.32317073     2487.01519829   
   1935.1788 119.96390109     223.32317073     2456.49797686   
   1935.3312 120.93551298     223.32317073     2462.90370497   
   1935.4836 122.78543848     223.32317073     2467.97707033   
   1935.6360 124.19340027     223.32317073     2465.34834514   
   1935.7884 125.44530345     223.32305534     2446.92715812   
   1935.9408 125.83311202     223.32242843     2451.30463886   
   1936.0932 123.76058587     223.32436979     2472.06616431   
   1936.2456 117.22411600     223.33611998     2493.44630337   
   1936.3980 110.56915297     222.89684325     2476.35871677   
   1936.5504 107.81043163     222.97767374     2463.30247519   
   1936.7028 108.61517655     223.16541669     2473.17628060   
   1936.8552 110.77802097     223.32766849     2505.77172271   
   1937.0076 111.66796780     223.32113347     2535.22781492   
   1937.1600 110.59258765     223.32148850     2544.69953825   
   1937.3124 108.93160645     223.07905241     2509.30997615   
   1937.4648 108.24464746     222.88277488     2406.53359220   
   1937.6172 107.75598905     223.06930987     2309.28787525   
   1937.7696 107.53154774     223.49175315     2239.16839143   
   1937.9220 107.11492941     231.59657144     2244.72491377   
   1938.0744 108.41392201     240.30093827     2350.27681476   
   1938.2268 110.73850804     249.13201063     2476.09895593   
   1938.3792 111.97402609     253.37711985     2533.31692689   
   1938.5316 110.62514745     256.33794836     2545.82047007   
   1938.6840 108.72834884     259.16693222     2570.27992885   
   1938.8364 108.60243726     261.44878224     2577.64562726   
   1938.9888 109.23051825     263.72718692     2553.01184627   
   1939.1412 109.05712470     266.00744563     2493.42400674   
   1939.2936 108.04360443     268.28778464     2496.78551116   
   1939.4460 107.49522108     270.56645277     2497.13123120   
   1939.5984 109.03718851     272.84818816     2497.67351773   
   1939.7508 111.52918447     275.35319395     2497.04762608   
   1939.9032 112.71363838     277.85647678     2496.49864166   
   1940.0556 113.64030580     276.96184536     2495.74405214   
   1940.2080 115.67243845     275.54506219     2494.25908723   
   1940.3604 118.21800065     274.11757864     2492.81302450   
   1940.5128 119.33886784     272.69481412     2491.24218664   
   1940.6652 118.17417945     271.27028587     2489.60556660   
   1940.8176 116.08261163     270.21906755     2490.38280744   
   1940.9700 114.64106471     269.51458329     2508.55574314   
   1941.1224 114.19451037     268.80906835     2482.18052092   
   1941.2748 114.09590188     268.10572230     2434.00153472   
   1941.4272 112.69635621     267.26958142     2406.01759603   
   1941.5796 111.02383909     265.89487648     2398.81226448   
   1941.7320 109.58604123     264.49073640     2433.51720489   
   1941.8844 109.31745908     263.15599232     2470.76761136   
   1942.0368 110.61546779     267.06481980     2521.74022473   
   1942.1892 112.09644696     271.57111030     2546.12658182   
   1942.3416 112.04400066     274.09810668     2519.05684094   
   1942.4940 110.04320976     275.61200335     2459.22203029   
   1942.6464 109.10947129     271.63254317     2409.53923974   
   1942.7988 109.72955265     267.58720949     2391.80639381   
   1942.9512 110.56660201     266.63297246     2394.83862026   
   1943.1036 109.65389370     266.71749521     2430.14221979   
   1943.2560 108.30232914     266.84788534     2443.67646191   
   1943.4084 108.06243942     266.97451504     2447.26445278   
   1943.5608 108.69585051     267.69316407     2452.84707455   
   1943.7132 109.22052457     268.85133703     2484.24321490   
   1943.8656 110.23632141     270.01277648     2496.50201141   
   1944.0180 112.37995927     271.18045513     2496.29595760   
   1944.1704 114.16951460     272.27405544     2496.18706256   
   1944.3228 114.72116601     273.32999362     2501.96172272   
   1944.4752 114.10124529     274.38534077     2495.52056750   
   1944.6276 113.47440719     275.44082842     2496.41292135   
   1944.7800 112.62009640     276.49805172     2496.45766573   
   1944.9324 111.76696121     277.54647534     2496.65189557   
   1945.0848 110.97188985     277.99126381     2499.53291298   
   1945.2372 109.88664785     277.82358153     2506.19586364   
   1945.3896 108.68017953     276.95272423     2518.65587596   
   1945.5420 106.86986220     276.09210392     2526.54095034   
   1945.6944 105.87884847     275.22171362     2511.56860676   
   1945.8468 108.75331466     274.29820175     2467.74053839   
   1945.9992 114.72839343     275.58272767     2417.76091120   
   1946.1516 120.45849147     277.47037870     2407.72197658   
   1946.3040 122.82779399     279.35310849     2434.87706749   
   1946.4564 122.71718325     280.38917769     2463.28123399   
   1946.6088 120.75510101     278.82033904     2485.96333298   
   1946.7612 117.64432568     277.30878530     2509.43484471   
   1946.9136 114.14341589     275.30195599     2523.87064144   
   1947.0660 111.78553378     271.32000259     2526.22635322   
   1947.2184 110.83662854     267.32054204     2518.61644139   
   1947.3708 110.45661667     266.40839931     2504.99301694   
   1947.5232 109.55511040     266.21498512     2490.74172794   
   1947.6756 109.65074623     265.93754320     2469.03349186   
   1947.8280 111.32743226     270.01428266     2435.36993811   
   1947.9804 113.65381366     275.65508375     2411.06606973   
   1948.1328 115.15306045     276.61094861     2404.45667252   
   1948.2852 116.09210562     275.93266827     2437.15936915   
   1948.4376 117.50626821     273.34621628     2465.54883974   
   1948.5900 119.66770281     269.85739333     2490.91730513   
   1948.7424 119.61451996     267.25681699     2499.92946121   
   1948.8948 116.50329224     269.02172888     2498.47888095   
   1949.0472 113.47724764     270.69615647     2501.62132071   
   1949.1996 112.59176986     272.35617567     2513.62589121   
   1949.3520 114.08789628     273.92763873     2527.16344826   
   1949.5044 115.40289695     275.41856003     2525.67333655   
   1949.6568 114.78846034     276.91010109     2498.44838432   
   1949.8092 112.89154367     278.24596685     2443.36839895   
   1949.9616 111.08578909     279.41139475     2423.82314927   
   1950.1140 110.90165855     280.59932258     2431.29389426   
   1950.2664 112.34819429     283.93268117     2449.47182496   
   1950.4188 115.63487886     289.37055267     2441.11634081   
   1950.5712 118.88611720     285.06645219     2424.58495744   
   1950.7236 120.80806924     280.05410861     2407.98605563   
   1950.8760 120.66981293     278.53686321     2391.50444369   
   1951.0284 118.71704928     277.07590960     2367.76157681   
   1951.1808 117.03963465     275.57525953     2383.59885758   
   1951.3332 117.42465947     272.70178703     2437.06883687   
   1951.4856 117.78296116     269.86649734     2516.59819780   
   1951.6380 115.96085065     267.09921267     2528.26917291   
   1951.7904 114.41160141     266.52155215     2529.54484725   
   1951.9428 115.56414011     266.03033815     2530.69414027   
   1952.0952 118.29921665     265.52930552     2531.63875630   
   1952.2476 119.64545435     266.13575480     2542.77730534   
