~Version Information Block
 VERS.                2.00:     CWLS LOG ASCII STANDARD - VERSION 2.000000
 WRAP.                  NO:     One Line Per Depth Step
#
~Well Information Block
#MNEM.UNIT                     Data                         Information
#----------   ------------------------------------------   ----------------
 STRT.M                                      1800.0000:     START DEPTH
 STOP.M                                      2199.8976:     STOP DEPTH
 STEP.M                                         0.1524:     STEP
 NULL.                                       -999.2500:     NULL VALUE
 COMP.                                        Alphabow:     COMPANY
 WELL.                   SOC PINE CK 9-20-56-19 #81814:     WELL
 FLD .                                                :     FIELD
 LOC .                           100/09-20-056-19W5/00:     LOCATION
 CNTY.                                                :     COUNTY
 STAT.                                                :     STATE
 CTRY.                                                :     COUNTRY
 SRVC.                                                :     SERVICE COMPANY
 DATE.                                      03/28/2025:     DATE
 API .                                100092005619W500:     API NUMBER
 UWI .                                100092005619W500:     UWI NUMBER
 TVD .                                              NO:     TVD flag
 WSTA.                                             LOC:     Well status
#
~Curve Information Block
#MNEM.UNIT       API CODE      Curve Description
#----------    -------------   -------------------
 DEPT.M                    :   Depth in Meters
 GR  .GAPI     35 310 01 01:   Gamma Ray
 CALI.mm       70 280 01 01:   Caliper
 RHOB.kg/m3     42 350 01 01:   Bulk Density
#
~Parameter Information Block
#MNEM.UNIT            Value               Description
#----------    --------------------    -------------------
 RUN .                         ONE:    Run Number
 PDAT.                         UNK:    Permanent Datum
 EPD .M                 -9999.5000:    Elevation Of Perm. Datum
 WSTA.                         LOC:    
 E   .M                 -9999.5000:    E (Stretch Coefficient Of The Cable)
 TD  .M                  2200.0000:    Total Depth
#
~Other Information Block
<DescLogPlotStart>   NEURALOG PLOT DEFINITION
PLOTDEFVERSION: 3
LASFILE: C:\Users\wadet\Desktop\Alphabow Evaluation\well_info\second_white_spec
DEPTHSCALE: 240.000000
RESOLUTION: 200
DEPTHLABELFREQ: 50.000000
HEAVYGRIDFREQ: 50.000000
MEDIUMGRIDFREQ: 25.000000
LIGHTGRIDFREQ: 5.000000
#
#   TRACK 1
#
STARTTRACK: 
 LEFTX: 0.500000 inch
 RIGHTX: 3.000000 inch
 SCALETYPE: Linear
 NUMCHARTDIVISIONS: 2
CURVE: GR    0.000000   150.000000 (0,0,255)      Solid             2     N    
CURVE: CALI  125.000000 375.000000 (0,131,131)    Dot               2     N    
ENDTRACK: 
#
#   TRACK 2
#
STARTTRACK: 
 LEFTX: 3.500000 inch
 RIGHTX: 8.500000 inch
 SCALETYPE: Linear
 NUMCHARTDIVISIONS: 3
CURVE: RHOB  2000.000000 3000.000000 (255,0,255)    Solid             2     N  
ENDTRACK: 
<DescLogPlotEnd>
~A DEPTH     GR               CALI             RHOB            
# ...
   2047.6500 112.60412522     262.69721458     2219.53961139   
   2047.8024 111.79452129     255.36040446     2251.55152658   
   2047.9548 110.19292154     248.89143906     2367.74671595   
   2048.1072 109.02916382     250.67930765     2376.11947297   
   2048.2596 109.06772257     252.53302098     2291.56817617   
   2048.4120 112.03470331     254.34131543     2248.50789830   
   2048.5644 113.30850211     256.25919580     2248.09269806   
   2048.7168 112.04115979     258.44167127     2242.70348006   
   2048.8692 109.82854790     261.13150051     2434.83517443   
   2049.0216 108.30776870     265.40423167     2427.20237752   
   2049.1740 108.57290418     268.65056901     2415.54736961   
   2049.3264 109.52564121     268.62841824     2403.92984863   
   2049.4788 109.91107633     268.68805964     2396.55665847   
   2049.6312 109.93470566     268.75819160     2464.08914532   
   2049.7836 109.61575102     268.82529661     2543.61584659   
   2049.9360 109.85119385     268.88931347     2529.36148145   
   2050.0884 109.71362290     268.93230857     2498.68399976   
   2050.2408 108.56173542     268.95877010     2457.02139927   
   2050.3932 106.65644962     264.78401046     2487.17161527   
   2050.5456 106.11234575     256.06133892     2535.85414768   
   2050.6980 108.05728554     256.79095270     2594.98511288   
   2050.8504 111.99985575     260.65226769     2572.79887172   
   2051.0028 115.32170800     269.95028274     2477.33232185   
   2051.1552 116.96491942     275.03912517     2339.45060006   
   2051.3076 115.74735184     277.49420952     2226.92073593   
   2051.4600 113.77499066     275.72766713     2223.91486928   
   2051.6124 113.22207523     275.46122509     2219.41158408   
   2051.7648 114.02329122     275.26605128     2187.14241309   
   2051.9172 114.46928697     274.73172306     2131.60523517   
   2052.0696 114.29530689     273.25641714     2092.00094704   
   2052.2220 114.74266636     271.82895934     2104.05912951   
   2052.3744 115.69960915     271.77585445     2134.87308308   
   2052.5268 115.96962374     273.12887289     2180.48849718   
   2052.6792 114.77638063     274.09474786     2192.21652182   
   2052.8316 113.03385061     273.78275664     2202.95257708   
   2052.9840 111.12157858     273.50259592     2213.51562989   
   2053.1364 109.67845093     273.22501204     2224.27971378   
   2053.2888 108.93353741     272.94748509     2247.91701236   
   2053.4412 107.86253182     272.68327700     2322.50340137   
   2053.5936 103.56208963     272.03741596     2396.66466469   
   2053.7460 93.31723588      271.32515172     2470.89709729   
   2053.8984 85.40645198      270.60723279     2546.54720243   
   2054.0508 85.29341262      269.88809433     2556.90909718   
   2054.2032 90.91959978      269.17869591     2501.55908003   
   2054.3556 98.67998408      268.73697914     2388.65842287   
   2054.5080 103.00111508     270.05436734     2267.03548234   
   2054.6604 104.75157416     269.61247401     2249.68142838   
   2054.8128 105.63701320     263.86030476     2233.80567769   
   2054.9652 106.34035361     261.50444330     2218.16195330   
   2055.1176 108.01628570     262.66908279     2200.51755644   
   2055.2700 109.52474659     263.80040888     2207.98765402   
   2055.4224 110.50802625     265.04735351     2217.34610433   
   2055.5748 113.64578198     268.61159597     2226.53904682   
   2055.7272 118.39787458     272.31132540     2227.06970847   
   2055.8796 119.65186914     274.39389596     2211.24920248   
   2056.0320 116.10825671     274.93393742     2199.82787165   
   2056.1844 110.66706522     275.47381571     2200.98354507   
   2056.3368 107.14658786     276.01647691     2204.83003243   
   2056.4892 105.93501760     276.63623700     2203.75981034   
   2056.6416 106.52815813     273.90496016     2209.94929030   
   2056.7940 107.65562229     270.35975950     2239.26962972   
   2056.9464 109.50364956     266.86928139     2247.70660850   
   2057.0988 111.22752048     262.23867667     2251.15687340   
   2057.2512 109.44203502     257.97169854     2258.80476934   
   2057.4036 103.30708006     257.27799767     2328.85827278   
   2057.5560 98.47725027      256.72659553     2442.15076131   
   2057.7084 98.42019404      256.16491086     2495.58330292   
   2057.8608 101.15987167     255.59630020     2495.14990290   
   2058.0132 104.32056020     254.98189841     2497.52155630   
   2058.1656 105.92985554     256.19021304     2253.45190869   
   2058.3180 107.96057824     258.20913044     2275.75268524   
   2058.4704 108.70487233     260.08320631     2296.34993208   
   2058.6228 107.19636427     260.73450575     2324.06737403   
   2058.7752 105.06366192     261.45341130     2310.55454405   
   2058.9276 105.04177123     262.64303678     2293.36982752   
   2059.0800 107.23446016     265.38462997     2308.82518799   
   2059.2324 109.00068767     268.11035741     2321.08540436   
   2059.3848 109.00813264     267.32509385     2326.99124879   
   2059.5372 107.17613842     265.86831619     2308.65155744   
   2059.6896 105.69796705     264.38194424     2294.39062179   
   2059.8420 105.00025775     262.90398982     2280.20767093   
   2059.9944 106.03028174     261.42779191     2279.30856245   
   2060.1468 108.93410440     259.87260671     2262.64839142   
   2060.2992 110.91485380     262.77070690     2230.06580248   
   2060.4516 110.14434504     268.01172293     2197.05450547   
   2060.6040 106.72239905     269.81279631     2165.78915044   
   2060.7564 103.01213920     269.46947307     2149.43381000   
   2060.9088 100.38484892     269.11024114     2176.69632887   
   2061.0612 100.88874776     268.74646255     2272.19528435   
   2061.2136 104.04411410     268.39307632     2353.74812079   
   2061.3660 105.62194446     267.89738931     2343.27567579   
   2061.5184 106.02625947     264.74480654     2335.92832575   
   2061.6708 103.82880454     261.69003416     2365.62551630   
   2061.8232 103.27059317     258.73915972     2388.74429855   
   2061.9756 105.30457996     256.62592681     2257.69672131   
   2062.1280 109.85719729     265.98103542     2175.81709004   
   2062.2804 115.52970342     272.71537825     2191.43989544   
   2062.4328 118.77601969     277.63504184     2227.01697184   
   2062.5852 118.08177451     273.05325131     2251.56322220   
   2062.7376 115.26937209     267.98023616     2255.58886388   
   2062.8900 112.20053750     264.66502465     2259.71241065   
   2063.0424 108.60407649     268.13477422     2263.64162419   
   2063.1948 105.23843868     274.22104572     2268.15189677   
   2063.3472 104.48796920     278.46019323     2269.95135549   
   2063.4996 104.37927889     281.98914626     2283.51998374   
   2063.6520 104.79377678     276.24940107     2325.46346006   
   2063.8044 105.63244918     271.63931643     2352.62343673   
   2063.9568 107.22173349     269.11684041     2358.48400715   
   2064.1092 108.31272548     266.55933810     2357.41722332   
   2064.2616 108.08052457     264.10962967     2349.57078786   
   2064.4140 107.07679209     261.49545890     2328.31577854   
   2064.5664 106.62976710     263.51355402     2303.57323528   
   2064.7188 106.94176894     266.98423354     2279.81172377   
   2064.8712 108.09394612     269.86048788     2254.00589455   
   2065.0236 109.60293853     270.77843693     2247.29786667   
   2065.1760 110.49607208     271.74495225     2285.81385414   
   2065.3284 108.97353733     271.74966170     2282.55178202   
   2065.4808 106.46824688     271.19701479     2250.77596305   
   2065.6332 104.92270852     270.63959646     2232.08575230   
   2065.7856 104.73596374     270.07718728     2252.13731192   
   2065.9380 105.06889595     269.51364450     2297.54818219   
   2066.0904 107.30780861     268.99832634     2281.78712383   
   2066.2428 109.80810968     269.66728174     2253.87889209   
   2066.3952 111.22858015     274.44890482     2188.53288249   
   2066.5476 111.38830828     278.18997088     2206.92249021   
