~Version Information Block
 VERS.                2.00:     CWLS LOG ASCII STANDARD - VERSION 2.000000
 WRAP.                  NO:     One Line Per Depth Step
#
~Well Information Block
#MNEM.UNIT                     Data                         Information
#----------   ------------------------------------------   ----------------
 STRT.M                                      1800.0000:     START DEPTH
 STOP.M                                      2199.8976:     STOP DEPTH
 STEP.M                                         0.1524:     STEP
 NULL.                                       -999.2500:     NULL VALUE
 COMP.                                        Alphabow:     COMPANY
 WELL.                   SOC PINE CK 9-20-56-19 #81814:     WELL
 FLD .                                                :     FIELD
 LOC .                           100/09-20-056-19W5/00:     LOCATION
 CNTY.                                                :     COUNTY
 STAT.                                                :     STATE
 CTRY.                                                :     COUNTRY
 SRVC.                                                :     SERVICE COMPANY
 DATE.                                      03/28/2025:     DATE
 API .                                100092005619W500:     API NUMBER
 UWI .                                100092005619W500:     UWI NUMBER
 TVD .                                              NO:     TVD flag
 WSTA.                                             LOC:     Well status
#
~Curve Information Block
#MNEM.UNIT       API CODE      Curve Description
#----------    -------------   -------------------
 DEPT.M                    :   Depth in Meters
 GR  .GAPI     35 310 01 01:   Gamma Ray
 CALI.mm       70 280 01 01:   Caliper
 RHOB.kg/m3     42 350 01 01:   Bulk Density
#
~Parameter Information Block
#MNEM.UNIT            Value               Description
#----------    --------------------    -------------------
 RUN .                         ONE:    Run Number
 PDAT.                         UNK:    Permanent Datum
 EPD .M                 -9999.5000:    Elevation Of Perm. Datum
 WSTA.                         LOC:    
 E   .M                 -9999.5000:    E (Stretch Coefficient Of The Cable)
 TD  .M                  2200.0000:    Total Depth
#
~Other Information Block
<DescLogPlotStart>   NEURALOG PLOT DEFINITION
PLOTDEFVERSION: 3
LASFILE: C:\Users\wadet\Desktop\Alphabow Evaluation\well_info\second_white_spec
DEPTHSCALE: 240.000000
RESOLUTION: 200
DEPTHLABELFREQ: 50.000000
HEAVYGRIDFREQ: 50.000000
MEDIUMGRIDFREQ: 25.000000
LIGHTGRIDFREQ: 5.000000
#
#   TRACK 1
#
STARTTRACK: 
 LEFTX: 0.500000 inch
 RIGHTX: 3.000000 inch
 SCALETYPE: Linear
 NUMCHARTDIVISIONS: 2
CURVE: GR    0.000000   150.000000 (0,0,255)      Solid             2     N    
CURVE: CALI  125.000000 375.000000 (0,131,131)    Dot               2     N    
ENDTRACK: 
#
#   TRACK 2
#
STARTTRACK: 
 LEFTX: 3.500000 inch
 RIGHTX: 8.500000 inch
 SCALETYPE: Linear
 NUMCHARTDIVISIONS: 3
CURVE: RHOB  2000.000000 3000.000000 (255,0,255)    Solid             2     N  
ENDTRACK: 
<DescLogPlotEnd>
~A DEPTH     GR               CALI             RHOB            
# ...
   2161.9500 116.83227836     275.69365528     2229.07207504   
   2162.1024 119.56010785     274.58834278     2235.59462117   
   2162.2548 119.73627236     273.50851654     2250.85708805   
   2162.4072 118.17959952     272.95380954     2243.33230223   
   2162.5596 116.25368778     274.98048261     2204.16875421   
   2162.7120 115.12459770     276.96529422     2197.22156832   
   2162.8644 114.75931149     278.60846760     2238.09126358   
   2163.0168 115.13234435     279.66698098     2313.96642561   
   2163.1692 117.16559363     280.65450828     2343.82833438   
   2163.3216 118.20085081     278.48515743     2318.11451867   
   2163.4740 115.15631255     276.09618530     2265.36358429   
   2163.6264 109.89467978     273.74592302     2233.18662876   
   2163.7788 103.74538262     274.95946906     2196.75855490   
   2163.9312 102.34420633     276.40420613     2162.99142911   
   2164.0836 104.66102494     277.83905214     2143.56012164   
   2164.2360 107.49532428     279.27086862     2139.34342418   
   2164.3884 109.58061499     280.71834770     2146.11956851   
   2164.5408 110.28544513     282.18489878     2153.01654614   
   2164.6932 107.70674753     281.03386876     2159.57065422   
   2164.8456 102.61467726     279.65247131     2159.09362533   
   2164.9980 99.16548444      278.27444905     2145.94199061   
   2165.1504 98.12029649      276.90118571     2111.00527219   
   2165.3028 97.78512668      275.52777315     2080.83774028   
   2165.4552 102.99102184     274.15624883     2075.70002547   
   2165.6076 105.91197748     272.77805379     2106.65322517   
   2165.7600 106.77782368     271.06792659     2147.08198092   
   2165.9124 105.68424679     267.26196526     2186.88840988   
   2166.0648 105.96028146     263.46922565     2206.82303036   
   2166.2172 108.38379636     262.80639097     2211.94773957   
   2166.3696 111.81412054     262.61883383     2206.88407802   
   2166.5220 115.86479891     262.47515264     2207.16596940   
   2166.6744 114.69807739     263.26758237     2213.38314418   
   2166.8268 112.36822472     264.09935707     2210.83686448   
   2166.9792 113.33462929     267.93736534     2201.63728395   
   2167.1316 117.23063296     274.70345171     2196.85215192   
   2167.2840 118.54422908     275.09077256     2197.68875982   
   2167.4364 114.59208560     274.45315652     2198.91527511   
   2167.5888 110.23802998     273.72501776     2201.00065657   
   2167.7412 110.11532687     275.49140830     2199.66684831   
   2167.8936 113.64190950     277.91428917     2184.66284179   
   2168.0460 115.83993547     277.32785279     2152.01234620   
   2168.1984 116.02092966     273.55303895     2136.43714265   
   2168.3508 113.45456599     270.21492511     2131.66160035   
   2168.5032 112.14174941     268.94002649     2150.12158434   
   2168.6556 111.96580235     267.56027922     2163.70221334   
   2168.8080 113.21879488     266.15941670     2174.30161964   
   2168.9604 114.49689268     264.72155199     2192.84465604   
   2169.1128 113.80206180     262.17036385     2220.61343249   
   2169.2652 110.54051405     258.38312336     2264.93718140   
   2169.4176 108.98216134     254.89935039     2338.98293694   
   2169.5700 110.64402627     253.19770162     2399.11561427   
   2169.7224 114.06061700     251.42536570     2454.66993941   
   2169.8748 115.89339990     249.63878819     2416.29115270   
   2170.0272 116.42936647     247.84921392     2340.26100704   
   2170.1796 116.67464652     246.28558707     2262.40237115   
   2170.3320 117.26239828     247.92922951     2209.27026864   
   2170.4844 118.43135807     249.61960481     2192.05740531   
   2170.6368 118.37351451     251.20593498     2200.77429458   
   2170.7892 114.06532569     250.64546410     2232.76160903   
   2170.9416 103.27610689     249.99940940     2257.25353998   
   2171.0940 90.36905023      249.36069698     2287.82593977   
   2171.2464 81.14078907      248.72525718     2333.00334882   
   2171.3988 75.86666720      248.08915090     2401.39953052   
   2171.5512 60.96716843      247.45304463     2585.43845167   
   2171.7036 68.26328029      246.81693836     2578.82628856   
   2171.8560 73.66054161      246.18083209     2567.69138361   
   2172.0084 78.91659263      245.54472582     2557.42352361   
   2172.1608 81.71375994      244.90861955     2547.55391430   
   2172.3132 71.66383046      244.27251327     2537.24145872   
   2172.4656 59.35809130      243.63640700     2510.88150255   
   2172.6180 53.55688037      243.00030073     2483.83264873   
   2172.7704 53.23821443      242.36419446     2473.53496375   
   2172.9228 56.19370381      241.72808819     2447.16946163   
   2173.0752 59.14043334      241.09198191     2383.46570482   
   2173.2276 63.68790543      240.45617253     2319.52199634   
   2173.3800 70.14864054      239.81856673     2297.59404604   
   2173.5324 76.37950308      239.17798473     2342.37380057   
   2173.6848 79.62172396      238.60097815     2376.71576407   
   2173.8372 79.48483629      239.14082104     2420.62314059   
   2173.9896 80.72316426      239.70964026     2465.00802877   
   2174.1420 85.09011709      240.27402072     2509.44910310   
   2174.2944 92.53408245      240.83794357     2553.58408875   
   2174.4468 95.26363159      241.40020003     2576.94022319   
   2174.5992 96.20868051      241.94560147     2564.46276779   
   2174.7516 98.19326538      243.53641534     2559.99238507   
   2174.9040 100.48417607     245.50086791     2570.96793983   
   2175.0564 115.35173531     247.46412370     2563.05955222   
   2175.2088 102.25450176     249.36253343     2548.57829563   
   2175.3612 100.42854071     252.12159877     2534.08789862   
   2175.5136 96.76114579      254.65442441     2529.63946655   
   2175.6660 95.03482885      251.96351124     2544.30309037   
   2175.8184 93.94949050      249.30338926     2566.63857340   
   2175.9708 93.07069098      246.80706476     2594.49638265   
   2176.1232 93.10780354      244.58118852     2576.07296606   
   2176.2756 93.36456638      242.66418158     2568.56913016   
   2176.4280 94.38573431      240.78709468     2585.04237888   
   2176.5804 95.15867427      239.13401068     2581.66096893   
   2176.7328 97.13760139      239.90258419     2543.77121816   
   2176.8852 99.12193992      240.69544301     2532.12862861   
   2177.0376 100.14959536     241.47411481     2548.57991536   
   2177.1900 98.32255200      241.81587952     2578.60908463   
   2177.3424 96.74571485      242.06220195     2584.63103601   
   2177.4948 97.94504521      242.30726144     2599.05091703   
   2177.6472 100.22114265     242.55248353     2661.10724191   
   2177.7996 100.70674660     242.79773691     2652.30781005   
   2177.9520 99.25200897      243.04300280     2636.57019889   
   2178.1044 96.92528947      243.28826869     2620.45927624   
   2178.2568 95.27377659      243.53353459     2604.25789529   
   2178.4092 94.65905565      243.77880914     2587.74039126   
   2178.5616 95.22899697      244.02408141     2581.68431853   
   2178.7140 96.38949438      244.26922068     2596.79143242   
   2178.8664 98.64564517      244.51412561     2633.00910135   
   2179.0188 101.70139571     244.72761828     2624.52711578   
   2179.1712 102.89229433     244.88781153     2599.64047832   
   2179.3236 102.21366404     245.04878842     2540.50489281   
   2179.4760 100.83464435     245.20972022     2496.48345772   
   2179.6284 100.43026904     245.37059009     2523.47256576   
   2179.7808 100.72870688     245.53146341     2542.11544256   
   2179.9332 99.87634089      245.69233674     2549.53923409   
   2180.0856 98.58225604      245.85321007     2556.75302495   
   2180.2380 97.97585986      246.01408340     2564.09872090   
   2180.3904 98.70742172      246.17508916     2571.44045005   
   2180.5428 99.88128549      246.33712111     2578.78533768   
   2180.6952 101.12384037     246.49667945     2581.36955752   
   2180.8476 102.27414709     246.63838203     2573.74075354   
