~Version Information Block
 VERS.                2.00:     CWLS LOG ASCII STANDARD - VERSION 2.000000
 WRAP.                  NO:     One Line Per Depth Step
#
~Well Information Block
#MNEM.UNIT                     Data                         Information
#----------   ------------------------------------------   ----------------
 STRT.M                                      1800.0000:     START DEPTH
 STOP.M                                      2199.8976:     STOP DEPTH
 STEP.M                                         0.1524:     STEP
 NULL.                                       -999.2500:     NULL VALUE
 COMP.                                        Alphabow:     COMPANY
 WELL.                   SOC PINE CK 9-20-56-19 #81814:     WELL
 FLD .                                                :     FIELD
 LOC .                           100/09-20-056-19W5/00:     LOCATION
 CNTY.                                                :     COUNTY
 STAT.                                                :     STATE
 CTRY.                                                :     COUNTRY
 SRVC.                                                :     SERVICE COMPANY
 DATE.                                      03/28/2025:     DATE
 API .                                100092005619W500:     API NUMBER
 UWI .                                100092005619W500:     UWI NUMBER
 TVD .                                              NO:     TVD flag
 WSTA.                                             LOC:     Well status
#
~Curve Information Block
#MNEM.UNIT       API CODE      Curve Description
#----------    -------------   -------------------
 DEPT.M                    :   Depth in Meters
 GR  .GAPI     35 310 01 01:   Gamma Ray
 CALI.mm       70 280 01 01:   Caliper
 RHOB.kg/m3     42 350 01 01:   Bulk Density
#
~Parameter Information Block
#MNEM.UNIT            Value               Description
#----------    --------------------    -------------------
 RUN .                         ONE:    Run Number
 PDAT.                         UNK:    Permanent Datum
 EPD .M                 -9999.5000:    Elevation Of Perm. Datum
 WSTA.                         LOC:    
 E   .M                 -9999.5000:    E (Stretch Coefficient Of The Cable)
 TD  .M                  2200.0000:    Total Depth
#
~Other Information Block
<DescLogPlotStart>   NEURALOG PLOT DEFINITION
PLOTDEFVERSION: 3
LASFILE: C:\Users\wadet\Desktop\Alphabow Evaluation\well_info\second_white_spec
DEPTHSCALE: 240.000000
RESOLUTION: 200
DEPTHLABELFREQ: 50.000000
HEAVYGRIDFREQ: 50.000000
MEDIUMGRIDFREQ: 25.000000
LIGHTGRIDFREQ: 5.000000
#
#   TRACK 1
#
STARTTRACK: 
 LEFTX: 0.500000 inch
 RIGHTX: 3.000000 inch
 SCALETYPE: Linear
 NUMCHARTDIVISIONS: 2
CURVE: GR    0.000000   150.000000 (0,0,255)      Solid             2     N    
CURVE: CALI  125.000000 375.000000 (0,131,131)    Dot               2     N    
ENDTRACK: 
#
#   TRACK 2
#
STARTTRACK: 
 LEFTX: 3.500000 inch
 RIGHTX: 8.500000 inch
 SCALETYPE: Linear
 NUMCHARTDIVISIONS: 3
CURVE: RHOB  2000.000000 3000.000000 (255,0,255)    Solid             2     N  
ENDTRACK: 
<DescLogPlotEnd>
~A DEPTH     GR               CALI             RHOB            
# ...
   2104.8000 119.94999413     274.33796929     2322.09359460   
   2104.9524 119.33538544     274.92272476     2274.44533606   
   2105.1048 118.17586284     275.61487979     2228.14613315   
   2105.2572 117.80396264     272.66074428     2261.04766825   
   2105.4096 117.87076287     268.68918714     2306.08058755   
   2105.5620 117.48302667     266.07135629     2353.48750276   
   2105.7144 117.15460930     263.42030210     2365.49713386   
   2105.8668 115.74510225     262.38284796     2341.73084355   
   2106.0192 113.95572174     263.31061888     2311.31088326   
   2106.1716 112.75449155     264.22638169     2314.57952301   
   2106.3240 112.38122671     265.15067291     2358.25624236   
   2106.4764 112.40440044     266.08181492     2373.35979124   
   2106.6288 111.82411888     266.34922871     2348.90461441   
   2106.7812 111.12882158     266.06531796     2318.60089155   
   2106.9336 110.49889223     265.78914452     2316.56859701   
   2107.0860 110.46973320     265.40785267     2351.76480611   
   2107.2384 111.18552078     262.91102375     2392.13657906   
   2107.3908 112.19064044     260.41481933     2423.80400488   
   2107.5432 113.55082234     257.91321581     2455.45163632   
   2107.6956 113.56382140     256.73902956     2469.70097652   
   2107.8480 111.78333640     255.90251761     2445.19632351   
   2108.0004 110.29117736     255.07635417     2419.67045783   
   2108.1528 110.74443892     254.33562625     2412.90136769   
   2108.3052 113.86917206     254.45567421     2447.63941602   
   2108.4576 118.60892370     254.58925865     2474.07168660   
   2108.6100 121.17277963     254.72366506     2451.25983465   
   2108.7624 122.38359237     255.02211223     2378.13857622   
   2108.9148 123.32423863     256.11018218     2314.46827900   
   2109.0672 123.58191375     257.19862962     2287.12995166   
   2109.2196 122.97854244     258.35386854     2270.53442101   
   2109.3720 121.32503538     260.47302215     2272.10022922   
   2109.5244 119.12690265     262.78579150     2306.49216095   
   2109.6768 117.18313317     264.85223674     2357.26744864   
   2109.8292 115.13915787     262.44678032     2380.12935436   
   2109.9816 113.67628149     259.91933848     2367.00397300   
   2110.1340 113.25099258     257.46501612     2359.75831927   
   2110.2864 114.27293052     257.86652185     2397.36504779   
   2110.4388 115.28436545     258.41194504     2448.98452901   
   2110.5912 116.00793500     258.94834808     2467.44459923   
   2110.7436 114.56780142     259.48043002     2410.08067068   
   2110.8960 112.99204632     260.01333911     2347.99772812   
   2111.0484 112.89298292     260.53404223     2271.02605399   
   2111.2008 114.84659959     260.70605873     2250.58710386   
   2111.3532 117.14222222     259.79016071     2290.51573020   
   2111.5056 118.17077255     258.89586946     2344.90082945   
   2111.6580 119.28842348     257.95892983     2384.04897201   
   2111.8104 119.06531542     259.46913006     2434.67201154   
   2111.9628 116.92371079     261.31925707     2430.79920215   
   2112.1152 116.00303725     263.15108569     2416.06824374   
   2112.2676 116.65817548     264.90756339     2415.84889848   
   2112.4200 118.77953689     265.53834601     2418.81526315   
   2112.5724 119.80407964     264.23798433     2395.99284721   
   2112.7248 119.27635087     263.07079163     2346.46396125   
   2112.8772 118.45086839     266.25616070     2309.44522872   
   2113.0296 118.13755226     269.75494666     2341.88036815   
   2113.1820 118.74242879     272.97570154     2387.52196973   
   2113.3344 119.38582336     275.92912409     2408.81816441   
   2113.4868 118.99267192     278.97878149     2372.51079067   
   2113.6392 118.25380879     277.08160193     2291.99653901   
   2113.7916 116.35208116     273.35123568     2222.27772617   
   2113.9440 113.27535765     269.18909547     2221.68810576   
   2114.0964 109.84534033     263.64936103     2267.99761283   
   2114.2488 106.86555584     259.02641683     2342.49904236   
   2114.4012 106.78280716     257.97870123     2358.43779802   
   2114.5536 110.78488584     256.81899566     2349.24320464   
   2114.7060 115.43550303     257.20362338     2342.81902522   
   2114.8584 115.47587629     258.55008751     2351.72447572   
   2115.0108 110.93424268     259.90386186     2365.16299227   
   2115.1632 105.70770190     261.27031584     2383.18484031   
   2115.3156 103.30952089     261.93371246     2403.41024772   
   2115.4680 101.80203306     261.93585149     2417.71305038   
   2115.6204 101.89276536     261.94370537     2427.99836702   
   2115.7728 103.60682152     262.08767079     2430.64381944   
   2115.9252 107.36693598     262.91018511     2434.43256986   
   2116.0776 110.46223953     263.76681060     2439.07202962   
   2116.2300 111.53153607     263.35082155     2429.75656704   
   2116.3824 113.23443467     262.48912767     2407.46110527   
   2116.5348 116.69298672     261.61154648     2385.89406670   
   2116.6872 117.32721220     261.21961081     2384.11027350   
   2116.8396 115.13811639     260.94469436     2396.77076242   
   2116.9920 112.93039377     260.67191811     2413.08504052   
   2117.1444 111.64903666     260.42724742     2444.27261951   
   2117.2968 111.76913078     260.56623119     2465.67763739   
   2117.4492 111.50519338     260.71134453     2461.47687776   
   2117.6016 111.66202801     260.85556119     2457.09582566   
   2117.7540 112.82991104     260.86484302     2467.57336218   
   2117.9064 116.20149287     260.75429913     2480.43414825   
   2118.0588 119.83719730     260.64412660     2462.17750104   
   2118.2112 121.72974241     260.53409374     2420.96510438   
   2118.3636 120.92810170     260.41095646     2365.25763872   
   2118.5160 118.96542775     259.94982539     2309.99673062   
   2118.6684 116.63582027     259.46184508     2325.05603254   
   2118.8208 116.27873988     258.96841696     2364.81276698   
   2118.9732 117.02307343     258.44615470     2401.31763659   
   2119.1256 117.46724755     259.31699847     2432.94957849   
   2119.2780 117.05427273     260.45419204     2430.79483059   
   2119.4304 117.93388626     261.62834875     2407.44715436   
   2119.5828 120.73407350     263.35984076     2392.81354993   
   2119.7352 124.85989797     267.01750837     2390.47452617   
   2119.8876 127.52825801     270.39760512     2385.87452928   
   2120.0400 129.58823405     267.75040105     2341.61204503   
   2120.1924 130.34162324     264.82508417     2277.15592504   
   2120.3448 129.71654483     262.30229559     2217.09032053   
   2120.4972 128.50908560     260.12321046     2203.15254402   
   2120.6496 127.24130886     257.96538227     2233.63684693   
   2120.8020 125.74104506     256.56399445     2250.89027283   
   2120.9544 124.33014059     257.65382661     2293.61585856   
   2121.1068 124.46843066     258.68854449     2342.30261127   
   2121.2592 126.03477668     259.74752856     2367.57374052   
   2121.4116 127.94487876     259.00460240     2392.33583177   
   2121.5640 129.21892434     257.90928584     2417.46847222   
   2121.7164 129.79209371     256.80207829     2438.38435792   
   2121.8688 129.18322801     255.93207838     2426.89638752   
   2122.0212 126.25482695     256.54842284     2410.95667148   
   2122.1736 122.53488993     257.17936458     2404.96964015   
   2122.3260 120.29803391     257.79506705     2396.91389191   
   2122.4784 119.70783666     257.53064546     2386.92313810   
   2122.6308 120.39342919     257.13678904     2365.69280173   
   2122.7832 123.12258249     256.73625778     2343.66754878   
   2122.9356 125.45461933     256.39133905     2320.26123624   
   2123.0880 125.78024393     257.31946658     2317.40484158   
   2123.2404 124.48584610     258.29455026     2331.19956116   
   2123.3928 124.24030499     259.26213196     2346.42580002   
   2123.5452 124.82569394     259.96111677     2357.76966962   
   2123.6976 125.49701711     260.09333452     2349.13815157   
