~Version Information Block
 VERS.                2.00:     CWLS LOG ASCII STANDARD - VERSION 2.000000
 WRAP.                  NO:     One Line Per Depth Step
#
~Well Information Block
#MNEM.UNIT                     Data                         Information
#----------   ------------------------------------------   ----------------
 STRT.M                                      1800.0000:     START DEPTH
 STOP.M                                      2199.8976:     STOP DEPTH
 STEP.M                                         0.1524:     STEP
 NULL.                                       -999.2500:     NULL VALUE
 COMP.                                        Alphabow:     COMPANY
 WELL.                   SOC PINE CK 9-20-56-19 #81814:     WELL
 FLD .                                                :     FIELD
 LOC .                           100/09-20-056-19W5/00:     LOCATION
 CNTY.                                                :     COUNTY
 STAT.                                                :     STATE
 CTRY.                                                :     COUNTRY
 SRVC.                                                :     SERVICE COMPANY
 DATE.                                      03/28/2025:     DATE
 API .                                100092005619W500:     API NUMBER
 UWI .                                100092005619W500:     UWI NUMBER
 TVD .                                              NO:     TVD flag
 WSTA.                                             LOC:     Well status
#
~Curve Information Block
#MNEM.UNIT       API CODE      Curve Description
#----------    -------------   -------------------
 DEPT.M                    :   Depth in Meters
 GR  .GAPI     35 310 01 01:   Gamma Ray
 CALI.mm       70 280 01 01:   Caliper
 RHOB.kg/m3     42 350 01 01:   Bulk Density
#
~Parameter Information Block
#MNEM.UNIT            Value               Description
#----------    --------------------    -------------------
 RUN .                         ONE:    Run Number
 PDAT.                         UNK:    Permanent Datum
 EPD .M                 -9999.5000:    Elevation Of Perm. Datum
 WSTA.                         LOC:    
 E   .M                 -9999.5000:    E (Stretch Coefficient Of The Cable)
 TD  .M                  2200.0000:    Total Depth
#
~Other Information Block
<DescLogPlotStart>   NEURALOG PLOT DEFINITION
PLOTDEFVERSION: 3
LASFILE: C:\Users\wadet\Desktop\Alphabow Evaluation\well_info\second_white_spec
DEPTHSCALE: 240.000000
RESOLUTION: 200
DEPTHLABELFREQ: 50.000000
HEAVYGRIDFREQ: 50.000000
MEDIUMGRIDFREQ: 25.000000
LIGHTGRIDFREQ: 5.000000
#
#   TRACK 1
#
STARTTRACK: 
 LEFTX: 0.500000 inch
 RIGHTX: 3.000000 inch
 SCALETYPE: Linear
 NUMCHARTDIVISIONS: 2
CURVE: GR    0.000000   150.000000 (0,0,255)      Solid             2     N    
CURVE: CALI  125.000000 375.000000 (0,131,131)    Dot               2     N    
ENDTRACK: 
#
#   TRACK 2
#
STARTTRACK: 
 LEFTX: 3.500000 inch
 RIGHTX: 8.500000 inch
 SCALETYPE: Linear
 NUMCHARTDIVISIONS: 3
CURVE: RHOB  2000.000000 3000.000000 (255,0,255)    Solid             2     N  
ENDTRACK: 
<DescLogPlotEnd>
~A DEPTH     GR               CALI             RHOB            
# ...
   2181.0000 102.87679413     247.52032986     2557.10918979   
   2181.1524 103.77718072     248.59770486     2521.07580404   
   2181.3048 103.81921830     249.68223918     2498.59734674   
   2181.4572 103.81243996     250.76387238     2361.40691353   
   2181.6096 103.83979740     251.79582347     2375.75872349   
   2181.7620 104.88912830     252.66418899     2406.12165764   
   2181.9144 106.54904400     253.50482497     2438.56263403   
   2182.0668 107.98991945     254.27036774     2470.39454786   
   2182.2192 107.24635863     253.44709573     2496.08663202   
   2182.3716 103.52148923     252.56492949     2488.93287966   
   2182.5240 101.44230407     251.67958919     2481.49687918   
   2182.6764 102.19166197     250.81814135     2475.42194769   
   2182.8288 105.32475365     251.91681872     2491.01167411   
   2182.9812 106.65384659     253.16750858     2490.47722756   
   2183.1336 107.08526951     254.11288920     2488.77136578   
   2183.2860 108.47987695     254.73769201     2502.35703231   
   2183.4384 112.03410378     255.36048308     2496.44412177   
   2183.5908 115.10837968     255.92124642     2565.47394262   
   2183.7432 114.36929780     256.21128014     2536.87476632   
   2183.8956 110.36903811     256.50987041     2478.87586356   
   2184.0480 105.40213650     256.80939599     2423.62930748   
   2184.2004 105.30447549     257.10912603     2388.93394312   
   2184.3528 107.77036321     257.43904626     2410.52895895   
   2184.5052 109.52001212     257.96236858     2428.14603206   
   2184.6576 109.63695196     258.49161907     2445.42406412   
   2184.8100 110.22086384     259.03026659     2456.07501787   
   2184.9624 111.27317694     259.72015094     2465.72690674   
   2185.1148 112.59827860     259.22043371     2474.66587576   
   2185.2672 114.53287578     251.08772641     2503.32026296   
   2185.4196 116.34617457     239.71942521     2534.84277395   
   2185.5720 117.14302069     237.32433589     2566.31318797   
   2185.7244 115.02070436     236.92451488     2589.77386653   
   2185.8768 111.00267401     236.59441695     2558.46341528   
   2186.0292 108.08631409     236.26976608     2530.69218359   
   2186.1816 108.23510148     236.28588493     2503.12408265   
   2186.3340 109.65774766     237.25797436     2463.49636256   
   2186.4864 110.83284447     238.19362481     2469.77288572   
   2186.6388 112.18587107     239.12663937     2481.66084931   
   2186.7912 113.19036619     240.06154617     2490.56377848   
   2186.9436 112.24859919     240.99743588     2488.90775356   
   2187.0960 106.61422131     241.93495149     2465.77290192   
   2187.2484 100.77996815     242.85953348     2440.33443792   
   2187.4008 89.35049714      243.59131142     2419.31383426   
   2187.5532 78.90692814      243.04166438     2413.47262597   
   2187.7056 67.38346948      242.51483713     2440.45699592   
   2187.8580 59.45410353      241.99367873     2537.58342826   
   2188.0104 61.39425714      241.47117231     2675.35787321   
   2188.1628 71.33215873      240.94833399     2539.71451943   
   2188.3152 78.89515988      240.42549567     2405.07893661   
   2188.4676 82.70946037      239.90265736     2266.35991820   
   2188.6200 78.89058474      239.37981904     2290.83844581   
   2188.7724 68.46933473      238.85682042     2327.70961145   
   2188.9248 63.78153137      238.33431808     2464.93429675   
   2189.0772 62.89147960      237.81444200     2584.35582822   
   2189.2296 62.16523789      237.29158232     2541.46619865   
   2189.3820 63.46213622      237.26193712     2484.85642801   
   2189.5344 65.35382958      237.66127731     2453.03697071   
   2189.6868 67.26098608      238.06062117     2434.66788061   
   2189.8392 69.09223855      238.46284929     2421.70667446   
   2189.9916 70.78632640      238.86512167     2462.10548859   
   2190.1440 72.42387707      239.26825493     2539.76668322   
   2190.2964 74.06241008      239.67471996     2609.30397525   
   2190.4488 75.71741637      240.06867982     2554.60329571   
   2190.6012 76.60471459      239.72654809     2497.42306100   
   2190.7536 77.47029205      239.32573557     2414.37128808   
   2190.9060 80.64738382      238.90666617     2424.75890061   
   2191.0584 86.39643372      238.78439694     2443.49348371   
   2191.2108 92.12628989      244.77139153     2463.97688745   
   2191.3632 97.87597827      250.91870491     2495.90655241   
   2191.5156 103.66123953     256.80134660     2483.43982955   
   2191.6680 109.65750364     262.47011319     2419.57901063   
   2191.8204 110.55086833     263.02318117     2367.05186911   
   2191.9728 108.25466434     263.49701701     2358.85323437   
   2192.1252 104.91520664     263.92577257     2401.58731829   
   2192.2776 104.88314141     262.89726486     2468.12450860   
   2192.4300 109.26966089     261.82266997     2532.65530618   
   2192.5824 114.02945302     260.75383325     2571.67448483   
   2192.7348 117.24106564     259.68651036     2562.75085056   
   2192.8872 120.07313253     258.61926515     2546.98330367   
   2193.0396 122.03669983     257.57034140     2542.79991590   
   2193.1920 123.32424398     256.68702052     2539.64051114   
   2193.3444 122.29173989     255.87019309     2539.18539709   
   2193.4968 120.25197254     255.04804471     2547.90526276   
   2193.6492 117.35142083     254.15199576     2562.40929926   
   2193.8016 114.61858606     252.71066620     2573.53267264   
   2193.9540 112.80595416     251.26269091     2567.61065399   
   2194.1064 113.61765151     249.80062876     2551.45253428   
   2194.2588 116.35859177     249.46682199     2551.08582251   
   2194.4112 119.16105544     249.82151207     2572.37376128   
   2194.5636 121.17580360     250.18072638     2586.67161093   
   2194.7160 121.69748638     250.54302227     2599.05316706   
   2194.8684 119.24780894     250.90507561     2617.60831500   
   2195.0208 115.22356894     251.26603486     2605.67275674   
   2195.1732 112.69380712     251.63039999     2567.14341766   
   2195.3256 114.35143688     251.70176499     2539.04703541   
   2195.4780 119.65264656     251.58157363     2535.28436781   
   2195.6304 124.34507937     251.46733280     2565.29960654   
   2195.7828 125.81841519     251.35159178     2589.31866774   
   2195.9352 124.58924502     252.49267204     2595.97477612   
   2196.0876 121.22268598     255.13668771     2543.79940108   
   2196.2400 119.04776077     257.78101211     2463.85527032   
   2196.3924 118.42855113     259.74314141     2401.88072399   
   2196.5448 119.84540656     261.20562672     2390.97995406   
   2196.6972 120.98187926     262.67122331     2501.18307012   
   2196.8496 121.13238464     262.34339263     2491.14069630   
   2197.0020 120.55305404     260.02585456     2498.53234535   
   2197.1544 118.98723905     257.71335793     2478.63978034   
   2197.3068 114.19712824     255.38060711     2476.20740205   
   2197.4592 106.71104279     253.78180541     2508.22058854   
   2197.6116 97.27425806      252.17670474     2566.76016150   
   2197.7640 92.32417297      250.55597624     2617.09609554   
   2197.9164 89.85552689      245.14043927     2628.79745222   
   2198.0688 89.21503867      235.75202514     2615.61580701   
   2198.2212 88.90879448      235.73110115     2596.25799516   
   2198.3736 89.38874772      236.03526027     2584.82906301   
   2198.5260 90.18283391      236.30189354     2575.14127106   
   2198.6784 89.06047432      236.54381801     2571.17822682   
   2198.8308 86.05097931      236.80320541     2574.29866573   
   2198.9832 85.31997662      237.05112673     2578.21380700   
   2199.1356 88.58317914      237.29904925     2578.40280156   
   2199.2880 94.76727273      237.54235546     2581.62987100   
   2199.4404 107.11721704     237.53786973     2602.18388831   
   2199.5928 107.10432464     237.53777304     2602.17478550   
   2199.7452 107.10432464     237.53777304     2602.17478550   
   2199.8976 107.10432464     237.53777304     2602.17478550   
