~Version Information Block
 VERS.                2.00:     CWLS LOG ASCII STANDARD - VERSION 2.000000
 WRAP.                  NO:     One Line Per Depth Step
#
~Well Information Block
#MNEM.UNIT                     Data                         Information
#----------   ------------------------------------------   ----------------
 STRT.M                                      1800.0000:     START DEPTH
 STOP.M                                      2199.8976:     STOP DEPTH
 STEP.M                                         0.1524:     STEP
 NULL.                                       -999.2500:     NULL VALUE
 COMP.                                        Alphabow:     COMPANY
 WELL.                   SOC PINE CK 9-20-56-19 #81814:     WELL
 FLD .                                                :     FIELD
 LOC .                           100/09-20-056-19W5/00:     LOCATION
 CNTY.                                                :     COUNTY
 STAT.                                                :     STATE
 CTRY.                                                :     COUNTRY
 SRVC.                                                :     SERVICE COMPANY
 DATE.                                      03/28/2025:     DATE
 API .                                100092005619W500:     API NUMBER
 UWI .                                100092005619W500:     UWI NUMBER
 TVD .                                              NO:     TVD flag
 WSTA.                                             LOC:     Well status
#
~Curve Information Block
#MNEM.UNIT       API CODE      Curve Description
#----------    -------------   -------------------
 DEPT.M                    :   Depth in Meters
 GR  .GAPI     35 310 01 01:   Gamma Ray
 CALI.mm       70 280 01 01:   Caliper
 RHOB.kg/m3     42 350 01 01:   Bulk Density
#
~Parameter Information Block
#MNEM.UNIT            Value               Description
#----------    --------------------    -------------------
 RUN .                         ONE:    Run Number
 PDAT.                         UNK:    Permanent Datum
 EPD .M                 -9999.5000:    Elevation Of Perm. Datum
 WSTA.                         LOC:    
 E   .M                 -9999.5000:    E (Stretch Coefficient Of The Cable)
 TD  .M                  2200.0000:    Total Depth
#
~Other Information Block
<DescLogPlotStart>   NEURALOG PLOT DEFINITION
PLOTDEFVERSION: 3
LASFILE: C:\Users\wadet\Desktop\Alphabow Evaluation\well_info\second_white_spec
DEPTHSCALE: 240.000000
RESOLUTION: 200
DEPTHLABELFREQ: 50.000000
HEAVYGRIDFREQ: 50.000000
MEDIUMGRIDFREQ: 25.000000
LIGHTGRIDFREQ: 5.000000
#
#   TRACK 1
#
STARTTRACK: 
 LEFTX: 0.500000 inch
 RIGHTX: 3.000000 inch
 SCALETYPE: Linear
 NUMCHARTDIVISIONS: 2
CURVE: GR    0.000000   150.000000 (0,0,255)      Solid             2     N    
CURVE: CALI  125.000000 375.000000 (0,131,131)    Dot               2     N    
ENDTRACK: 
#
#   TRACK 2
#
STARTTRACK: 
 LEFTX: 3.500000 inch
 RIGHTX: 8.500000 inch
 SCALETYPE: Linear
 NUMCHARTDIVISIONS: 3
CURVE: RHOB  2000.000000 3000.000000 (255,0,255)    Solid             2     N  
ENDTRACK: 
<DescLogPlotEnd>
~A DEPTH     GR               CALI             RHOB            
# ...
   2009.5500 115.75644070     274.50487944     2407.12884604   
   2009.7024 112.61601098     277.17898431     2421.53527604   
   2009.8548 111.68652860     279.63349381     2435.84412081   
   2010.0072 111.81240870     279.30244652     2437.02548641   
   2010.1596 112.06532359     278.86901448     2394.58273151   
   2010.3120 111.09485048     277.14508663     2349.09924744   
   2010.4644 110.15464260     275.00693681     2300.59797047   
   2010.6168 108.70173169     271.56411911     2262.34167575   
   2010.7692 107.50477922     273.26186846     2269.78291315   
   2010.9216 105.95384897     275.73447286     2327.13334156   
   2011.0740 104.52354448     278.22833579     2395.70573485   
   2011.2264 104.76558520     281.42480774     2459.45312877   
   2011.3788 106.11708833     284.75458478     2447.41160061   
   2011.5312 107.54552589     281.79279805     2413.00379897   
   2011.6836 107.89041957     277.31805495     2375.05423834   
   2011.8360 109.16134846     274.16032274     2353.81900826   
   2011.9884 112.12536308     271.24354071     2338.12932734   
   2012.1408 113.95504330     273.91777059     2317.41542791   
   2012.2932 114.49107940     275.22035238     2293.12515671   
   2012.4456 114.21601722     275.43540390     2268.78614394   
   2012.5980 113.52535392     275.59635205     2244.37372624   
   2012.7504 112.61338736     276.15005390     2219.93800531   
   2012.9028 112.06842301     276.92804627     2195.71094682   
   2013.0552 112.71599158     277.71325730     2179.49232315   
   2013.2076 112.98616865     278.98271198     2191.54181933   
   2013.3600 111.16452135     281.18494714     2266.12915951   
   2013.5124 109.44687903     283.36187008     2310.91202811   
   2013.6648 110.06554456     284.85140156     2362.93021848   
   2013.8172 113.16115294     280.94331585     2343.06946949   
   2013.9696 116.02786237     277.12049140     2312.94164830   
   2014.1220 117.83665094     273.96058773     2308.90805620   
   2014.2744 118.07404817     270.95376630     2321.81201537   
   2014.4268 117.41518823     268.58007542     2313.51205901   
   2014.5792 116.13661881     269.19367162     2268.17529635   
   2014.7316 114.73782316     269.74066196     2212.44671017   
   2014.8840 113.39389239     270.65681709     2206.25350166   
   2015.0364 111.90132531     272.32250305     2266.75914098   
   2015.1888 111.42161353     273.97775951     2337.58568251   
   2015.3412 113.48369578     275.65420142     2378.92223061   
   2015.4936 117.03436259     277.97614299     2406.92192393   
   2015.6460 118.72089070     280.66753099     2366.09590025   
   2015.7984 117.80480238     283.14377843     2294.59885524   
   2015.9508 114.68951708     281.05762142     2250.23086831   
   2016.1032 112.57982449     278.70530164     2251.60360552   
   2016.2556 112.95854109     274.56881060     2264.20073185   
   2016.4080 113.61715438     270.24582233     2272.30174472   
   2016.5604 113.07645062     268.97069490     2291.54139511   
   2016.7128 111.22220743     270.75273397     2317.44905009   
   2016.8652 110.50252216     272.26530257     2328.44369897   
   2017.0176 111.22579708     272.78721981     2313.31547224   
   2017.1700 112.63133755     273.33717778     2271.44065895   
   2017.3224 113.60692311     273.88945205     2244.43981124   
   2017.4748 114.47806906     274.44032500     2248.87839869   
   2017.6272 115.32639953     274.99376916     2247.72495635   
   2017.7796 115.81071938     275.73274328     2252.11760908   
   2017.9320 115.59840724     276.55467243     2245.60739850   
   2018.0844 113.92553944     277.43618229     2241.35062840   
   2018.2368 111.77534617     275.62980780     2248.61356210   
   2018.3892 110.14380253     273.29224992     2267.99160668   
   2018.5416 109.99659719     272.41500795     2289.00985585   
   2018.6940 110.84061846     271.52187318     2306.12328299   
   2018.8464 111.48192748     270.64259685     2317.60415327   
   2018.9988 110.95189281     269.76576050     2333.93588994   
   2019.1512 109.30411493     268.88811822     2351.10392434   
   2019.3036 108.97495434     268.01016635     2352.25887977   
   2019.4560 109.88758071     267.13335253     2310.60896297   
   2019.6084 111.39807074     266.26159826     2262.42440098   
   2019.7608 111.41638190     265.38181788     2227.41324233   
   2019.9132 110.12432730     265.52528900     2196.43486458   
   2020.0656 108.96509064     266.50510650     2219.49960170   
   2020.2180 109.24911961     268.35949810     2262.27629741   
   2020.3704 111.19685368     270.33456913     2281.88357220   
   2020.5228 113.96646594     270.69471428     2254.37742054   
   2020.6752 115.40162623     270.82832817     2235.51016065   
   2020.8276 114.87263524     270.95779566     2256.99254358   
   2020.9800 112.39258606     271.08889602     2313.75256051   
   2021.1324 109.59093708     271.22045330     2351.90298304   
   2021.2848 108.15909694     271.35369334     2317.93381074   
   2021.4372 107.78663117     271.48006222     2250.34878407   
   2021.5896 108.02174625     271.30492913     2235.24328441   
   2021.7420 108.36325757     269.25222315     2289.75467209   
   2021.8944 107.78946497     267.18691254     2355.52163018   
   2022.0468 108.30667930     265.14134055     2399.67258977   
   2022.1992 110.46861181     263.09854971     2396.28930477   
   2022.3516 115.49663049     262.89705233     2372.33075684   
   2022.5040 118.04917222     264.99892229     2344.21851039   
   2022.6564 116.31693104     266.87846749     2295.50101394   
   2022.8088 113.81352673     264.15614587     2236.98270830   
   2022.9612 113.83318739     261.29345718     2196.17297608   
   2023.1136 113.53129278     261.00245299     2184.87123188   
   2023.2660 110.26418483     265.79693489     2206.68918063   
   2023.4184 102.97160827     268.10850814     2263.16522335   
   2023.5708 98.61696595      268.28120682     2249.31767346   
   2023.7232 99.68045076      268.46253337     2248.10961179   
   2023.8756 102.64245334     269.06303046     2247.74171871   
   2024.0280 103.51054451     270.16374355     2247.81398264   
   2024.1804 102.36324270     271.26149767     2248.97862957   
   2024.3328 102.30025073     272.36101523     2247.66181796   
   2024.4852 102.55486072     273.46140050     2248.21904534   
   2024.6376 101.77246595     274.56519739     2249.04428886   
   2024.7900 101.07652782     275.66666610     2248.17991791   
   2024.9424 101.31046201     277.08500733     2240.56784452   
   2025.0948 101.90235803     278.77054980     2190.05536181   
   2025.2472 102.60708792     279.95392531     2165.03576952   
   2025.3996 103.32136769     274.24135952     2177.78322606   
   2025.5520 104.03511046     269.29989240     2211.35204007   
   2025.7044 104.70602799     266.67893894     2246.27014684   
   2025.8568 104.81863476     264.78602224     2267.27653306   
   2026.0092 105.24881288     275.49620503     2289.00050841   
   2026.1616 106.88383751     279.77988233     2298.01476864   
   2026.3140 109.81110979     283.82089379     2279.55893376   
   2026.4664 113.70443622     281.35509757     2225.84400122   
   2026.6188 116.07242173     276.84913124     2192.47303566   
   2026.7712 116.10896200     274.13367871     2205.79034065   
   2026.9236 114.77955577     271.94249129     2259.46562335   
   2027.0760 113.50574629     269.71007345     2282.05077979   
   2027.2284 113.44929700     268.52308382     2285.16655787   
   2027.3808 113.28281814     267.67689222     2302.41990467   
   2027.5332 111.62303305     266.81934205     2341.90785092   
   2027.6856 110.88099692     268.31957787     2365.92472739   
   2027.8380 112.85282719     271.23352994     2351.79521491   
   2027.9904 115.13791280     272.95429010     2290.06277665   
   2028.1428 115.67055202     272.39336223     2212.60385035   
   2028.2952 114.47541169     271.86476059     2150.19012902   
   2028.4476 113.25398857     272.59150922     2166.89064885   
