~Version Information Block
 VERS.                2.00:     CWLS LOG ASCII STANDARD - VERSION 2.000000
 WRAP.                  NO:     One Line Per Depth Step
#
~Well Information Block
#MNEM.UNIT                     Data                         Information
#----------   ------------------------------------------   ----------------
 STRT.M                                      1800.0000:     START DEPTH
 STOP.M                                      2199.8976:     STOP DEPTH
 STEP.M                                         0.1524:     STEP
 NULL.                                       -999.2500:     NULL VALUE
 COMP.                                        Alphabow:     COMPANY
 WELL.                   SOC PINE CK 9-20-56-19 #81814:     WELL
 FLD .                                                :     FIELD
 LOC .                           100/09-20-056-19W5/00:     LOCATION
 CNTY.                                                :     COUNTY
 STAT.                                                :     STATE
 CTRY.                                                :     COUNTRY
 SRVC.                                                :     SERVICE COMPANY
 DATE.                                      03/28/2025:     DATE
 API .                                100092005619W500:     API NUMBER
 UWI .                                100092005619W500:     UWI NUMBER
 TVD .                                              NO:     TVD flag
 WSTA.                                             LOC:     Well status
#
~Curve Information Block
#MNEM.UNIT       API CODE      Curve Description
#----------    -------------   -------------------
 DEPT.M                    :   Depth in Meters
 GR  .GAPI     35 310 01 01:   Gamma Ray
 CALI.mm       70 280 01 01:   Caliper
 RHOB.kg/m3     42 350 01 01:   Bulk Density
#
~Parameter Information Block
#MNEM.UNIT            Value               Description
#----------    --------------------    -------------------
 RUN .                         ONE:    Run Number
 PDAT.                         UNK:    Permanent Datum
 EPD .M                 -9999.5000:    Elevation Of Perm. Datum
 WSTA.                         LOC:    
 E   .M                 -9999.5000:    E (Stretch Coefficient Of The Cable)
 TD  .M                  2200.0000:    Total Depth
#
~Other Information Block
<DescLogPlotStart>   NEURALOG PLOT DEFINITION
PLOTDEFVERSION: 3
LASFILE: C:\Users\wadet\Desktop\Alphabow Evaluation\well_info\second_white_spec
DEPTHSCALE: 240.000000
RESOLUTION: 200
DEPTHLABELFREQ: 50.000000
HEAVYGRIDFREQ: 50.000000
MEDIUMGRIDFREQ: 25.000000
LIGHTGRIDFREQ: 5.000000
#
#   TRACK 1
#
STARTTRACK: 
 LEFTX: 0.500000 inch
 RIGHTX: 3.000000 inch
 SCALETYPE: Linear
 NUMCHARTDIVISIONS: 2
CURVE: GR    0.000000   150.000000 (0,0,255)      Solid             2     N    
CURVE: CALI  125.000000 375.000000 (0,131,131)    Dot               2     N    
ENDTRACK: 
#
#   TRACK 2
#
STARTTRACK: 
 LEFTX: 3.500000 inch
 RIGHTX: 8.500000 inch
 SCALETYPE: Linear
 NUMCHARTDIVISIONS: 3
CURVE: RHOB  2000.000000 3000.000000 (255,0,255)    Solid             2     N  
ENDTRACK: 
<DescLogPlotEnd>
~A DEPTH     GR               CALI             RHOB            
# ...
   2028.6000 111.95156608     274.51184270     2218.35626883   
   2028.7524 112.10067718     276.40810777     2260.26260366   
   2028.9048 114.04917223     275.59416767     2241.64304919   
   2029.0572 116.03562309     274.34410983     2183.74586347   
   2029.2096 115.74147182     271.64306556     2143.34835120   
   2029.3620 113.85587628     266.91653499     2137.81624711   
   2029.5144 113.22513230     263.53130501     2184.37324484   
   2029.6668 114.21838236     267.76266042     2222.72475018   
   2029.8192 116.19063142     276.45654296     2261.34247761   
   2029.9716 118.10881784     277.59947005     2265.83799935   
   2030.1240 118.08321238     275.51945612     2240.87278735   
   2030.2764 116.51986637     273.41440687     2210.49910295   
   2030.4288 114.74346455     276.20809918     2173.90449083   
   2030.5812 113.84002258     279.70230755     2153.90286935   
   2030.7336 113.22377548     281.59924644     2150.28700024   
   2030.8860 112.45996847     281.32221169     2144.56363615   
   2031.0384 111.55631092     278.60937529     2045.18942731   
   2031.1908 109.31338547     274.35493920     2018.99209565   
   2031.3432 106.71602684     270.55789669     1993.78208774   
   2031.4956 103.87598347     267.69709855     2070.37252897   
   2031.6480 103.81280229     264.79768543     2170.29737560   
   2031.8004 105.44111500     261.20939203     2270.22222222   
   2031.9528 107.73266088     258.27835278     2370.14706885   
   2032.1052 109.71893988     260.30092454     2474.05706333   
   2032.2576 110.55133500     264.21432955     2477.20224720   
   2032.4100 109.89453695     267.47892292     2474.63794123   
   2032.5624 109.01883587     269.77970915     2424.19801884   
   2032.7148 110.07946784     272.12390471     2395.23441952   
   2032.8672 113.42354007     270.17536384     2322.57418614   
   2033.0196 116.45636591     265.15739959     2256.28306988   
   2033.1720 116.89637989     262.85359145     2218.32012214   
   2033.3244 113.25173441     261.28246186     2239.65847458   
   2033.4768 108.76518341     259.74957799     2270.42320665   
   2033.6292 105.76825354     258.21944265     2308.40583069   
   2033.7816 106.46579636     257.99221523     2359.35746524   
   2033.9340 109.62169718     259.31773465     2411.28685345   
   2034.0864 111.83327654     260.62836659     2451.04998238   
   2034.2388 112.36389506     261.80130409     2450.83732498   
   2034.3912 112.35140051     262.74407471     2428.37978481   
   2034.5436 113.01324358     263.67987236     2426.39654996   
   2034.6960 115.12689153     264.36694960     2437.59077412   
   2034.8484 117.54522679     263.58152598     2461.27587262   
   2035.0008 117.32126414     262.78781765     2470.20625338   
   2035.1532 114.98721468     261.99680256     2450.42306035   
   2035.3056 113.06682510     261.21816199     2394.55555596   
   2035.4580 113.00697672     260.42612855     2347.90392226   
   2035.6104 113.87801977     259.64188493     2363.44208713   
   2035.7628 114.18257667     258.85998073     2415.51343319   
   2035.9152 113.82714213     258.08780777     2430.89826603   
   2036.0676 112.89564754     257.28785416     2401.97727100   
   2036.2200 112.11477717     256.30618606     2350.11020558   
   2036.3724 111.96248848     262.91448442     2316.33306353   
   2036.5248 111.20973099     270.33959267     2271.78083403   
   2036.6772 108.99430623     273.42238827     2230.56716754   
   2036.8296 107.15114450     276.70458488     2223.73200077   
   2036.9820 107.23586367     276.77655501     2254.26316032   
   2037.1344 109.09522422     274.24844294     2245.04579864   
   2037.2868 111.02726923     272.99006854     2372.72187405   
   2037.4392 111.09944967     272.07083264     2296.01226994   
   2037.5916 109.50192440     273.03530077     2218.30265849   
   2037.7440 106.97268346     275.85759174     2238.75255624   
   2037.8964 104.67810841     278.66998539     2409.53596626   
   2038.0488 104.83121456     279.47305475     2423.92120143   
   2038.2012 106.75919948     277.86258052     2246.93251534   
   2038.3536 108.18044379     276.24738399     2245.66771984   
   2038.5060 108.36006150     275.83734787     2243.44521984   
   2038.6584 108.72112047     276.09059099     2240.92229470   
   2038.8108 110.58995685     276.35435498     2238.95972926   
   2038.9632 112.06127056     276.64139330     2236.73587259   
   2039.1156 111.52708883     276.01916118     2234.35795299   
   2039.2680 109.51989388     275.19269312     2237.91433558   
   2039.4204 108.75484926     274.35189787     2277.83196721   
   2039.5728 109.00543747     273.28827281     2317.85849005   
   2039.7252 108.40588400     270.78829102     2358.15747239   
   2039.8776 104.49034404     268.27583974     2394.17177914   
   2040.0300 102.24952724     264.93538879     2530.83150876   
   2040.1824 100.81778288     263.52045878     2625.25562372   
   2040.3348 102.95198072     264.62902399     2533.57832825   
   2040.4872 107.19212207     265.32687924     2458.25472027   
   2040.6396 108.14019916     264.33857366     2383.07004429   
   2040.7920 107.40254413     263.38837161     2307.91733786   
   2040.9444 107.80555503     262.44331064     2259.57169914   
   2041.0968 108.10694023     261.49523080     2342.54847861   
   2041.2492 106.72864592     260.54637716     2405.80691795   
   2041.4016 104.45210467     259.61199494     2469.00770474   
   2041.5540 104.29426287     259.09439910     2511.14379558   
   2041.7064 108.16446937     260.10485356     2429.72279582   
   2041.8588 111.35784841     261.06707760     2365.05422776   
   2042.0112 112.63179514     263.99641181     2297.85423028   
   2042.1636 112.65965299     268.20351816     2303.04397299   
   2042.3160 112.43904846     270.80500811     2303.29671850   
   2042.4684 111.72037540     269.58156028     2331.46623272   
   2042.6208 108.58175401     268.53967500     2339.87133624   
   2042.7732 106.56063318     268.13470267     2316.43018442   
   2042.9256 106.53003862     267.75305159     2243.02117081   
   2043.0780 107.76327249     266.85083447     2163.86128908   
   2043.2304 109.33767105     265.10839357     2083.73395314   
   2043.3828 109.29948594     263.18548466     2065.13802697   
   2043.5352 107.52351447     269.13478023     2109.39582688   
   2043.6876 105.08781458     277.56548174     2156.70326260   
   2043.8400 105.04599986     286.34196024     2166.42934992   
   2043.9924 107.33726017     277.84721197     2166.70061666   
   2044.1448 110.29068320     269.19074239     2181.94541264   
   2044.2972 111.63515470     266.21859733     2228.59873678   
   2044.4496 111.79819203     266.53764965     2234.61157982   
   2044.6020 112.68838805     264.07014324     2200.05642550   
   2044.7544 113.82379390     260.94589061     2169.61835741   
   2044.9068 114.73305047     259.84871378     2187.64375206   
   2045.0592 114.78433546     260.66001480     2241.89747861   
   2045.2116 114.78916737     261.47063133     2299.84089610   
   2045.3640 114.50706334     262.28919852     2350.89798299   
   2045.5164 115.10793232     262.78308088     2295.96402330   
   2045.6688 115.13522281     263.17346308     2244.52283347   
   2045.8212 114.10678666     262.99788421     2177.72515347   
   2045.9736 112.98943945     261.33943940     2185.57903141   
   2046.1260 112.94864963     259.74154432     2200.28707940   
   2046.2784 114.15596096     258.14154954     2214.28788803   
   2046.4308 115.80831482     257.99864851     2249.65327878   
   2046.5832 115.74357272     258.13391947     2246.62287878   
   2046.7356 114.28127239     258.31366959     2248.18203191   
   2046.8880 112.93473273     259.31744562     2247.81674360   
   2047.0404 111.43134019     262.72205381     2246.64373396   
   2047.1928 109.98011226     265.99884687     2251.97009124   
   2047.3452 109.96422114     266.66245458     2261.28414805   
   2047.4976 111.46857389     266.89468439     2235.04457742   
