~Version Information Block
 VERS.                2.00:     CWLS LOG ASCII STANDARD - VERSION 2.000000
 WRAP.                  NO:     One Line Per Depth Step
#
~Well Information Block
#MNEM.UNIT                     Data                         Information
#----------   ------------------------------------------   ----------------
 STRT.M                                      1800.0000:     START DEPTH
 STOP.M                                      2199.8976:     STOP DEPTH
 STEP.M                                         0.1524:     STEP
 NULL.                                       -999.2500:     NULL VALUE
 COMP.                                        Alphabow:     COMPANY
 WELL.                   SOC PINE CK 12-2-56-19 #82576:     WELL
 FLD .                                                :     FIELD
 LOC .                                                :     LOCATION
 CNTY.                                                :     COUNTY
 STAT.                                                :     STATE
 CTRY.                                                :     COUNTRY
 SRVC.                                                :     SERVICE COMPANY
 DATE.                                      03/28/2025:     DATE
 API .                                100120205619W500:     API NUMBER
 UWI .                                100120205619W500:     UWI NUMBER
 TVD .                                              NO:     TVD flag
 WSTA.                                             LOC:     Well status
#
~Curve Information Block
#MNEM.UNIT       API CODE      Curve Description
#----------    -------------   -------------------
 DEPT.M                    :   Depth in Meters
 GR  .GAPI     35 310 01 01:   Gamma Ray
 CALI.mm       70 280 01 01:   Caliper
 RHOB.kg/m3     42 350 01 01:   Bulk Density
#
~Parameter Information Block
#MNEM.UNIT            Value               Description
#----------    --------------------    -------------------
 RUN .                         ONE:    Run Number
 PDAT.                         UNK:    Permanent Datum
 EPD .M                 -9999.5000:    Elevation Of Perm. Datum
 WSTA.                         LOC:    
 TD  .M                  2200.0000:    Total Depth
#
~Other Information Block
<DescLogPlotStart>   NEURALOG PLOT DEFINITION
PLOTDEFVERSION: 3
LASFILE: C:\Users\wadet\Desktop\Alphabow Evaluation\well_info\second_white_spec
DEPTHSCALE: 240.000000
RESOLUTION: 200
DEPTHLABELFREQ: 50.000000
HEAVYGRIDFREQ: 50.000000
MEDIUMGRIDFREQ: 25.000000
LIGHTGRIDFREQ: 5.000000
#
#   TRACK 1
#
STARTTRACK: 
 LEFTX: 0.500000 inch
 RIGHTX: 3.000000 inch
 SCALETYPE: Linear
 NUMCHARTDIVISIONS: 9
CURVE: GR    0.000000   150.000000 (0,0,255)      Solid             2     N    
CURVE: CALI  125.000000 375.000000 (0,131,131)    Dot               2     N    
ENDTRACK: 
#
#   TRACK 2
#
STARTTRACK: 
 LEFTX: 3.500000 inch
 RIGHTX: 8.500000 inch
 SCALETYPE: Linear
 NUMCHARTDIVISIONS: 10
CURVE: RHOB  2000.000000 3000.000000 (255,0,255)    Solid             2     N  
ENDTRACK: 
<DescLogPlotEnd>
~A DEPTH     GR               CALI             RHOB            
# ...
   2161.9500 136.30310257     221.05677925     2687.88562319   
   2162.1024 139.31223188     221.04923596     2684.78960073   
   2162.2548 142.87209099     220.76028638     2679.89863796   
   2162.4072 144.00168050     220.44729908     2673.34090089   
   2162.5596 142.58500301     220.10455344     2670.79054039   
   2162.7120 140.05725158     220.98879347     2673.73989693   
   2162.8644 137.27475479     222.37831008     2676.15648266   
   2163.0168 129.89544402     223.77136989     2675.18430609   
   2163.1692 118.61264334     224.10564864     2672.72735846   
   2163.3216 103.72156458     222.67634282     2681.33635020   
   2163.4740 95.86454342      221.27703867     2700.36082912   
   2163.6264 98.09203977      220.17912685     2717.90472680   
   2163.7788 105.34456071     221.31824575     2719.91955062   
   2163.9312 115.38163785     222.48207672     2701.65166440   
   2164.0836 119.45772642     223.65601163     2675.50783536   
   2164.2360 120.35416246     223.13636978     2661.73556134   
   2164.3884 120.73099132     221.55174365     2670.97688351   
   2164.5408 121.43252594     219.96280856     2683.55091682   
   2164.6932 124.36584143     219.05075945     2687.03693358   
   2164.8456 127.19946232     219.13724585     2687.96294482   
   2164.9980 128.26766603     219.21595734     2688.38453230   
   2165.1504 126.08306675     219.30226673     2689.20132320   
   2165.3028 122.19809194     219.39580177     2688.25912613   
   2165.4552 119.30527346     219.48443328     2692.90724808   
   2165.6076 119.53942120     220.53605330     2702.07711564   
   2165.7600 121.44951090     222.52687337     2701.63157734   
   2165.9124 123.64098146     224.55403091     2698.02047563   
   2166.0648 122.42336862     224.68999672     2697.33859640   
   2166.2172 120.43435723     223.18496373     2700.01035320   
   2166.3696 119.69982219     221.21795174     2702.06524780   
   2166.5220 119.98922893     219.52020958     2704.42628344   
   2166.6744 120.52178078     219.51416507     2710.82253095   
   2166.8268 121.56033663     219.51929557     2716.16412883   
   2166.9792 121.80032528     219.51924064     2719.10390084   
   2167.1316 120.65924226     219.51866245     2719.09757742   
   2167.2840 118.31896656     219.51327945     2721.76290595   
   2167.4364 117.20828611     219.53046388     2731.54034510   
   2167.5888 117.73505348     221.10984403     2741.61729023   
   2167.7412 119.95425042     222.90556172     2740.75664097   
   2167.8936 121.91414576     224.55077915     2730.68580233   
   2168.0460 122.98971725     223.19406187     2728.02861964   
   2168.1984 122.14865855     221.73400291     2732.43961164   
   2168.3508 120.36581617     220.25543018     2736.44931731   
   2168.5032 119.68007815     220.90846491     2734.79615878   
   2168.6556 121.23004330     221.94897162     2732.73866423   
   2168.8080 124.03370465     223.00516744     2730.46185705   
   2168.9604 125.84844679     223.61169141     2726.62310493   
   2169.1128 124.24872412     223.61197044     2721.54914001   
   2169.2652 121.26458689     223.61657326     2718.79576141   
   2169.4176 120.27029038     223.61705034     2724.74721648   
   2169.5700 119.27313897     223.61680328     2729.34108378   
   2169.7224 119.81358828     223.61680328     2725.32612751   
   2169.8748 121.36704970     223.61680328     2717.84430609   
   2170.0272 122.66066807     223.61680328     2710.83974786   
   2170.1796 122.67346864     223.61680328     2705.49536663   
   2170.3320 119.38850751     223.61680328     2699.50303066   
   2170.4844 117.08676933     223.61680328     2694.63011718   
   2170.6368 119.19751067     223.61680328     2695.55983709   
   2170.7892 122.52092997     223.61687143     2698.62999768   
   2170.9416 123.43160717     223.61732311     2703.68141215   
   2171.0940 121.87432822     223.61653537     2710.29728358   
   2171.2464 121.81462961     223.60870132     2725.27148757   
   2171.3988 124.36046783     223.86619975     2741.26935458   
   2171.5512 127.28192983     224.16477549     2740.85948854   
   2171.7036 127.44802541     224.46569340     2733.29977735   
   2171.8560 125.24443853     224.66520137     2722.07866030   
   2172.0084 124.33707892     224.72436463     2717.08519734   
   2172.1608 124.61404135     224.78444875     2718.12045722   
   2172.3132 126.47705515     224.84342381     2725.11718733   
   2172.4656 128.71086025     224.90222324     2731.63296962   
   2172.6180 129.92942566     224.96108862     2733.49780778   
   2172.7704 129.98146307     225.01995400     2731.36187112   
   2172.9228 128.84089468     225.07881938     2727.16682097   
   2173.0752 128.35587111     225.13768476     2723.34781822   
   2173.2276 128.42395302     225.19655014     2715.52029342   
   2173.3800 127.71829507     225.25541552     2705.37879224   
   2173.5324 125.16915596     225.31428090     2700.57673708   
   2173.6848 123.92578340     225.37314628     2704.14448458   
   2173.8372 125.78648776     225.43201166     2722.42135800   
   2173.9896 127.76741579     225.49087704     2735.56916594   
   2174.1420 126.99425949     225.54974242     2741.26528634   
   2174.2944 122.72608783     225.60860780     2733.81947991   
   2174.4468 117.95923738     225.66747318     2716.11919109   
   2174.5992 118.24104287     225.72633856     2709.37492187   
   2174.7516 122.22032864     225.78520394     2712.86663949   
   2174.9040 126.37609350     225.84406932     2718.71193091   
   2175.0564 127.35759326     225.90293470     2715.47094536   
   2175.2088 128.30738174     225.96180008     2711.66246785   
   2175.3612 129.27761113     226.02066546     2705.88018271   
   2175.5136 131.52226507     226.07953084     2708.77111974   
   2175.6660 132.39403702     226.13839622     2716.33349963   
   2175.8184 131.30399677     226.19726160     2719.81072005   
   2175.9708 130.38336876     226.25612698     2715.22612441   
   2176.1232 135.02943070     226.31499236     2705.28260247   
   2176.2756 135.72072027     226.37385774     2697.96987374   
   2176.4280 135.60086368     226.43272312     2699.75763022   
   2176.5804 132.16834750     226.49158850     2711.57666746   
   2176.7328 130.76665572     226.55045388     2725.11561352   
   2176.8852 130.77333930     226.60931926     2726.36376510   
   2177.0376 132.03442278     226.66818464     2715.58800607   
   2177.1900 137.21426124     226.72705002     2701.33380206   
   2177.3424 141.21420079     226.78591540     2692.27881980   
   2177.4948 139.04302384     226.84478078     2695.58874401   
   2177.6472 135.27221067     226.90364616     2703.65089420   
   2177.7996 134.18209508     226.96251154     2711.14097378   
   2177.9520 134.84397839     227.02120646     2716.51296461   
   2178.1044 133.24508935     227.08035021     2721.07086694   
   2178.2568 130.35455694     227.14162605     2724.11891507   
   2178.4092 126.57243558     227.19306164     2717.94492834   
   2178.5616 124.58202314     226.67419278     2709.29495610   
   2178.7140 123.74890343     226.09567547     2699.17940910   
   2178.8664 124.28319879     225.51702165     2698.21181602   
   2179.0188 124.81526924     224.93909991     2702.60001410   
   2179.1712 125.44775973     224.36114056     2712.21474990   
   2179.3236 127.64996218     223.78296669     2710.71092738   
   2179.4760 131.54076745     223.21451824     2703.83732963   
   2179.6284 134.49143871     222.64410920     2698.60342726   
   2179.7808 134.32474855     221.89170646     2692.61967561   
   2179.9332 131.58898351     222.51630573     2694.89024564   
   2180.0856 130.85250638     224.10943418     2699.60192668   
   2180.2380 132.64875083     224.45677672     2698.53282730   
   2180.3904 134.51212910     222.69942837     2680.29777265   
   2180.5428 134.45790204     220.96372542     2669.19389897   
   2180.6952 134.15353113     219.20782727     2669.00635490   
   2180.8476 136.04878791     218.35957647     2671.22171692   
