~Version Information Block
 VERS.                2.00:     CWLS LOG ASCII STANDARD - VERSION 2.000000
 WRAP.                  NO:     One Line Per Depth Step
#
~Well Information Block
#MNEM.UNIT                     Data                         Information
#----------   ------------------------------------------   ----------------
 STRT.M                                      1800.0000:     START DEPTH
 STOP.M                                      2199.8976:     STOP DEPTH
 STEP.M                                         0.1524:     STEP
 NULL.                                       -999.2500:     NULL VALUE
 COMP.                                        Alphabow:     COMPANY
 WELL.                   SOC PINE CK 12-2-56-19 #82576:     WELL
 FLD .                                                :     FIELD
 LOC .                                                :     LOCATION
 CNTY.                                                :     COUNTY
 STAT.                                                :     STATE
 CTRY.                                                :     COUNTRY
 SRVC.                                                :     SERVICE COMPANY
 DATE.                                      03/28/2025:     DATE
 API .                                100120205619W500:     API NUMBER
 UWI .                                100120205619W500:     UWI NUMBER
 TVD .                                              NO:     TVD flag
 WSTA.                                             LOC:     Well status
#
~Curve Information Block
#MNEM.UNIT       API CODE      Curve Description
#----------    -------------   -------------------
 DEPT.M                    :   Depth in Meters
 GR  .GAPI     35 310 01 01:   Gamma Ray
 CALI.mm       70 280 01 01:   Caliper
 RHOB.kg/m3     42 350 01 01:   Bulk Density
#
~Parameter Information Block
#MNEM.UNIT            Value               Description
#----------    --------------------    -------------------
 RUN .                         ONE:    Run Number
 PDAT.                         UNK:    Permanent Datum
 EPD .M                 -9999.5000:    Elevation Of Perm. Datum
 WSTA.                         LOC:    
 TD  .M                  2200.0000:    Total Depth
#
~Other Information Block
<DescLogPlotStart>   NEURALOG PLOT DEFINITION
PLOTDEFVERSION: 3
LASFILE: C:\Users\wadet\Desktop\Alphabow Evaluation\well_info\second_white_spec
DEPTHSCALE: 240.000000
RESOLUTION: 200
DEPTHLABELFREQ: 50.000000
HEAVYGRIDFREQ: 50.000000
MEDIUMGRIDFREQ: 25.000000
LIGHTGRIDFREQ: 5.000000
#
#   TRACK 1
#
STARTTRACK: 
 LEFTX: 0.500000 inch
 RIGHTX: 3.000000 inch
 SCALETYPE: Linear
 NUMCHARTDIVISIONS: 9
CURVE: GR    0.000000   150.000000 (0,0,255)      Solid             2     N    
CURVE: CALI  125.000000 375.000000 (0,131,131)    Dot               2     N    
ENDTRACK: 
#
#   TRACK 2
#
STARTTRACK: 
 LEFTX: 3.500000 inch
 RIGHTX: 8.500000 inch
 SCALETYPE: Linear
 NUMCHARTDIVISIONS: 10
CURVE: RHOB  2000.000000 3000.000000 (255,0,255)    Solid             2     N  
ENDTRACK: 
<DescLogPlotEnd>
~A DEPTH     GR               CALI             RHOB            
# ...
   2181.0000 139.54914282     218.11152373     2666.93271980   
   2181.1524 143.79872176     218.44345745     2661.44752636   
   2181.3048 143.33723324     219.34758773     2655.09565613   
   2181.4572 138.71869257     220.25029256     2654.79795804   
   2181.6096 135.83815985     221.15610956     2665.71424489   
   2181.7620 134.70204055     222.05910719     2684.39935603   
   2181.9144 133.56280435     222.96804596     2692.11674595   
   2182.0668 132.95663123     223.93348062     2681.36045563   
   2182.2192 133.68575359     222.64656176     2663.54626636   
   2182.3716 135.65388501     220.65195837     2651.82010936   
   2182.5240 135.83891909     218.64146496     2642.86461520   
   2182.6764 134.05273470     218.36432407     2636.59003643   
   2182.8288 130.17395823     220.39007433     2637.52979457   
   2182.9812 130.26577400     222.38426947     2651.02800556   
   2183.1336 131.48284330     223.83619476     2675.49764246   
   2183.2860 131.08892207     221.75372465     2684.70164717   
   2183.4384 131.03298089     219.62488906     2682.97680776   
   2183.5908 135.29799452     217.58391646     2674.42173303   
   2183.7432 141.26289328     219.24379610     2665.41159490   
   2183.8956 144.95350816     221.12153109     2656.42542771   
   2184.0480 144.18426775     222.98428219     2652.36270740   
   2184.2004 141.88703951     224.07100466     2650.46263190   
   2184.3528 141.46297422     223.87882277     2650.20357966   
   2184.5052 142.08766385     223.70349142     2650.85373109   
   2184.6576 140.56112998     223.83835043     2651.97846920   
   2184.8100 137.29164022     224.25359915     2654.07334828   
   2184.9624 136.12130111     224.63542613     2655.38424319   
   2185.1148 137.52400982     224.63662392     2662.08943554   
   2185.2672 136.33457617     224.43977043     2667.61994095   
   2185.4196 134.27697374     224.23811788     2669.64564547   
   2185.5720 132.44022947     224.21813488     2669.53503426   
   2185.7244 129.87984339     224.40445814     2668.95841671   
   2185.8768 126.98930616     224.59429467     2669.52232746   
   2186.0292 129.77988067     224.63992721     2669.53095855   
   2186.1816 143.67265861     224.64162926     2668.61281394   
   2186.3340 150.02725994     224.64150148     2669.23364266   
   2186.4864 150.15122774     224.64285386     2664.10486619   
   2186.6388 150.10146342     224.64408287     2651.80463440   
   2186.7912 149.86140680     224.62199766     2636.61333264   
   2186.9436 149.84585372     224.05484942     2634.41229985   
   2187.0960 149.84535398     221.96728251     2640.54435676   
   2187.2484 149.84631148     219.97000329     2649.76648916   
   2187.4008 149.84631148     218.53448363     2650.62098465   
   2187.5532 149.84631148     218.89252417     2643.12990392   
   2187.7056 149.84631148     219.21093080     2631.94515466   
   2187.8580 149.84631148     219.48941071     2627.37111428   
   2188.0104 149.84631148     218.94774816     2632.81541045   
   2188.1628 149.84631148     218.43784293     2645.24694205   
   2188.3152 149.84631148     219.65560947     2654.10714430   
   2188.4676 149.84631148     223.44467108     2655.45007038   
   2188.6200 149.84631148     220.33975663     2649.68641770   
   2188.7724 149.84631148     217.39634613     2649.12467628   
   2188.9248 149.84631148     217.12811274     2669.18065952   
   2189.0772 149.84631148     217.37296652     2696.63529742   
   2189.2296 149.84631148     218.85633712     2714.70133188   
   2189.3820 149.84631148     223.50501674     2705.21538656   
   2189.5344 149.84631148     221.21371544     2677.52497153   
   2189.6868 149.84631148     217.76061062     2659.99815677   
   2189.8392 149.84631148     216.97994495     2655.97267354   
   2189.9916 149.84631148     216.95279280     2659.00170500   
   2190.1440 149.84631148     216.95524096     2662.39740730   
   2190.2964 149.84631148     216.95680598     2663.41487081   
   2190.4488 149.84631148     216.95678132     2656.06922801   
   2190.6012 149.84631148     216.95900871     2648.53157965   
   2190.7536 149.84631148     216.84265216     2649.57312912   
   2190.9060 149.84631148     216.67440061     2656.70747483   
   2191.0584 149.84631148     216.50499204     2659.88970198   
   2191.2108 149.84631148     216.35398664     2655.42690470   
   2191.3632 149.84631148     216.20845086     2652.74558164   
   2191.5156 149.84631148     216.05679888     2643.31472295   
   2191.6680 149.84631148     216.00383860     2633.27509181   
   2191.8204 149.84631148     217.84105142     2631.26375024   
   2191.9728 149.84631148     219.69559964     2636.33661987   
   2192.1252 149.84631148     221.55731857     2648.57658960   
   2192.2776 149.84631148     223.36734023     2657.63212847   
   2192.4300 149.84631148     220.33286771     2672.58301628   
   2192.5824 149.84631148     216.53337432     2685.50088501   
   2192.7348 149.84631148     217.32604947     2692.26508373   
   2192.8872 149.84631148     218.95969605     2686.43303170   
   2193.0396 149.84631148     220.61698248     2673.09830440   
   2193.1920 149.84631148     222.28141507     2661.70726447   
   2193.3444 149.84631148     221.67344548     2659.53658920   
   2193.4968 149.84631148     218.96603475     2666.34953965   
   2193.6492 149.84631148     216.56079041     2677.30562765   
   2193.8016 149.84349147     218.24171681     2688.12665248   
   2193.9540 149.85238800     219.99090601     2691.29562124   
   2194.1064 149.89815467     221.74841365     2687.12950851   
   2194.2588 149.66816705     223.49663607     2683.91370283   
   2194.4112 143.62532136     220.22645225     2684.14445735   
   2194.5636 135.75068706     216.56369771     2680.23102151   
   2194.7160 128.53016898     216.42420876     2667.76210729   
   2194.8684 122.67984355     216.44126807     2650.26224371   
   2195.0208 112.30523712     216.44579733     2647.91169583   
   2195.1732 101.00171910     216.44463713     2649.57719708   
   2195.3256 92.41651044      216.44432870     2672.03707783   
   2195.4780 89.61311493      216.44625733     2696.44746117   
   2195.6304 90.76555154      216.52265937     2716.83835941   
   2195.7828 96.35979160      216.60499675     2727.38619912   
   2195.9352 104.95071404     216.68757480     2730.44892261   
   2196.0876 114.44618080     216.77345949     2720.87528666   
   2196.2400 122.35231564     216.85251382     2701.56549050   
   2196.3924 125.71695548     216.87409681     2678.61207381   
   2196.5448 126.17506513     219.48954992     2669.30227191   
   2196.6972 125.90965589     222.98654513     2669.51220998   
   2196.8496 127.09449299     223.60369657     2678.26624447   
   2197.0020 128.79474268     223.62067011     2685.75098391   
   2197.1544 129.89542020     223.61783522     2690.49996455   
   2197.3068 128.70380032     223.61702023     2691.98188106   
   2197.4592 126.43992524     223.61832383     2695.12293982   
   2197.6116 124.01289581     223.61500889     2699.40452039   
   2197.7640 121.76506240     223.41261098     2699.37330866   
   2197.9164 120.40498276     221.98528106     2699.30171569   
   2198.0688 119.98011721     220.54986404     2701.91746159   
   2198.2212 120.08547143     219.11383765     2710.82322358   
   2198.3736 120.66379467     217.67983251     2713.06018475   
   2198.5260 120.58329592     217.58555178     2703.39368405   
   2198.6784 119.80440468     217.71391905     2689.39853113   
   2198.8308 119.60358576     217.84994702     2681.26329942   
   2198.9832 120.32325526     217.97196051     2683.56698607   
   2199.1356 119.16572899     217.78354281     2688.51390937   
   2199.2880 115.88159886     217.58163921     2729.67304499   
   2199.4404 98.13201231      218.48003908     2701.79571170   
   2199.5928 98.14508114      218.47943285     2701.79571170   
   2199.7452 98.14508114      218.47943285     2701.79571170   
   2199.8976 98.14508114      218.47943285     2701.79571170   
