~Version Information Block
 VERS.                2.00:     CWLS LOG ASCII STANDARD - VERSION 2.000000
 WRAP.                  NO:     One Line Per Depth Step
#
~Well Information Block
#MNEM.UNIT                     Data                         Information
#----------   ------------------------------------------   ----------------
 STRT.M                                      1800.0000:     START DEPTH
 STOP.M                                      2199.8976:     STOP DEPTH
 STEP.M                                         0.1524:     STEP
 NULL.                                       -999.2500:     NULL VALUE
 COMP.                                        Alphabow:     COMPANY
 WELL.                   SOC PINE CK 12-2-56-19 #82576:     WELL
 FLD .                                                :     FIELD
 LOC .                                                :     LOCATION
 CNTY.                                                :     COUNTY
 STAT.                                                :     STATE
 CTRY.                                                :     COUNTRY
 SRVC.                                                :     SERVICE COMPANY
 DATE.                                      03/28/2025:     DATE
 API .                                100120205619W500:     API NUMBER
 UWI .                                100120205619W500:     UWI NUMBER
 TVD .                                              NO:     TVD flag
 WSTA.                                             LOC:     Well status
#
~Curve Information Block
#MNEM.UNIT       API CODE      Curve Description
#----------    -------------   -------------------
 DEPT.M                    :   Depth in Meters
 GR  .GAPI     35 310 01 01:   Gamma Ray
 CALI.mm       70 280 01 01:   Caliper
 RHOB.kg/m3     42 350 01 01:   Bulk Density
#
~Parameter Information Block
#MNEM.UNIT            Value               Description
#----------    --------------------    -------------------
 RUN .                         ONE:    Run Number
 PDAT.                         UNK:    Permanent Datum
 EPD .M                 -9999.5000:    Elevation Of Perm. Datum
 WSTA.                         LOC:    
 TD  .M                  2200.0000:    Total Depth
#
~Other Information Block
<DescLogPlotStart>   NEURALOG PLOT DEFINITION
PLOTDEFVERSION: 3
LASFILE: C:\Users\wadet\Desktop\Alphabow Evaluation\well_info\second_white_spec
DEPTHSCALE: 240.000000
RESOLUTION: 200
DEPTHLABELFREQ: 50.000000
HEAVYGRIDFREQ: 50.000000
MEDIUMGRIDFREQ: 25.000000
LIGHTGRIDFREQ: 5.000000
#
#   TRACK 1
#
STARTTRACK: 
 LEFTX: 0.500000 inch
 RIGHTX: 3.000000 inch
 SCALETYPE: Linear
 NUMCHARTDIVISIONS: 9
CURVE: GR    0.000000   150.000000 (0,0,255)      Solid             2     N    
CURVE: CALI  125.000000 375.000000 (0,131,131)    Dot               2     N    
ENDTRACK: 
#
#   TRACK 2
#
STARTTRACK: 
 LEFTX: 3.500000 inch
 RIGHTX: 8.500000 inch
 SCALETYPE: Linear
 NUMCHARTDIVISIONS: 10
CURVE: RHOB  2000.000000 3000.000000 (255,0,255)    Solid             2     N  
ENDTRACK: 
<DescLogPlotEnd>
~A DEPTH     GR               CALI             RHOB            
# ...
   1895.2500 115.19190698     265.24923850     2540.31248975   
   1895.4024 118.17376009     262.21120653     2556.93594730   
   1895.5548 120.14484948     256.84531955     2577.32619355   
   1895.7072 121.09974489     252.91796148     2615.41406930   
   1895.8596 122.76904230     249.45369570     2618.79107128   
   1896.0120 122.48458749     247.03833495     2566.27117539   
   1896.1644 120.55350358     246.24818420     2506.11207815   
   1896.3168 118.04322320     248.18358725     2382.59334700   
   1896.4692 117.57865750     251.81905942     2388.26202301   
   1896.6216 117.81930661     251.86820797     2273.31136089   
   1896.7740 118.87593640     250.61207783     2268.36993466   
   1896.9264 120.30904499     249.29619322     2321.04612623   
   1897.0788 123.33252249     247.90273340     2390.50682199   
   1897.2312 124.93756408     249.93096075     2455.51622855   
   1897.3836 124.65745726     252.74616492     2520.62162584   
   1897.5360 123.78445207     254.92977081     2602.00099593   
   1897.6884 123.37169418     256.25707210     2585.52653332   
   1897.8408 120.96175525     257.54585664     2544.11023576   
   1897.9932 117.12307059     258.54383412     2501.15442582   
   1898.1456 113.58379633     259.47611530     2489.82507302   
   1898.2980 113.85089500     259.88308630     2548.47103650   
   1898.4504 115.83750141     260.26435482     2635.08328574   
   1898.6028 116.36728567     260.65173073     2696.93486901   
   1898.7552 115.36538131     261.02585075     2687.28163537   
   1898.9076 114.46559709     261.31789152     2653.36457894   
   1899.0600 114.42395508     265.95701340     2622.00169176   
   1899.2124 114.20818076     266.89963450     2600.71947743   
   1899.3648 113.64623174     264.96458343     2552.29381176   
   1899.5172 113.50137755     263.01635746     2512.41303540   
   1899.6696 112.77339010     261.05558762     2497.67768870   
   1899.8220 110.81159948     260.78772436     2528.72382667   
   1899.9744 109.39865263     262.44279317     2565.10491863   
   1900.1268 108.44311875     264.08114696     2563.13379141   
   1900.2792 111.05564567     264.99748217     2561.88878464   
   1900.4316 112.61808897     264.65016566     2553.90816635   
   1900.5840 111.44817141     264.32588426     2518.53771101   
   1900.7364 109.28072792     263.98831879     2508.97389186   
   1900.8888 108.33392026     263.56884757     2531.64601471   
   1901.0412 109.26146832     266.16865040     2561.13470608   
   1901.1936 110.45891665     267.18340867     2556.31025516   
   1901.3460 110.50144869     266.33144145     2552.46095770   
   1901.4984 110.55637610     266.70490885     2546.44821783   
   1901.6508 111.26030319     267.47835061     2423.20168738   
   1901.8032 112.25800671     268.26417332     2342.92896445   
   1901.9556 112.71242979     269.05252828     2313.40948594   
   1902.1080 113.20699031     269.83558583     2311.34817689   
   1902.2604 113.86818131     270.59237831     2318.84616255   
   1902.4128 114.12984920     271.37349449     2347.95670344   
   1902.5652 112.57915969     267.92795888     2371.92183816   
   1902.7176 109.64244938     260.95298594     2390.62417041   
   1902.8700 109.34002089     256.18759937     2390.88783662   
   1903.0224 112.33385303     251.99036684     2381.20653862   
   1903.1748 115.97534010     249.41519140     2383.68798320   
   1903.3272 118.88687212     252.74649983     2413.22099554   
   1903.4796 121.21243145     257.14587876     2449.75927637   
   1903.6320 125.61525245     260.98104737     2464.51057470   
   1903.7844 131.02543736     264.17237747     2439.05287732   
   1903.9368 134.28427479     264.08930604     2394.50770094   
   1904.0892 134.81718198     264.08407795     2337.79184863   
   1904.2416 132.56560249     264.07613317     2290.77836807   
   1904.3940 127.92229988     263.71641153     2256.62502905   
   1904.5464 122.74210304     263.35463472     2252.92323508   
   1904.6988 119.74448784     263.34994226     2276.36495620   
   1904.8512 119.46826247     264.68258607     2321.14182863   
   1905.0036 121.91136149     265.97854285     2376.92346103   
   1905.1560 126.19541253     267.22502437     2435.08864026   
   1905.3084 129.47945830     271.35566130     2472.00070097   
   1905.4608 129.00434314     277.04265981     2461.83044687   
   1905.6132 125.70397241     271.79550186     2426.18741784   
   1905.7656 122.76525558     264.82643428     2441.15467246   
   1905.9180 120.12041603     256.75223667     2465.96317466   
   1906.0704 117.56805613     254.37473559     2500.85256801   
   1906.2228 116.00588674     254.36966653     2559.08382208   
   1906.3752 116.37542821     254.98992248     2609.17571268   
   1906.5276 119.00314290     256.48790471     2599.08118454   
   1906.6800 121.52674886     259.48864108     2584.54038121   
   1906.8324 125.59083995     262.48872644     2566.65257187   
   1906.9848 127.50640883     263.04393150     2540.67764392   
   1907.1372 127.64616854     263.10241706     2509.11016171   
   1907.2896 126.83654679     264.49010273     2489.99894009   
   1907.4420 126.78322302     265.95511807     2483.67662273   
   1907.5944 126.45886244     268.28375982     2496.45401031   
   1907.7468 124.88910684     271.41229328     2536.88445228   
   1907.8992 123.16217434     274.53846275     2612.19984714   
   1908.0516 122.14390752     277.64213486     2660.78939969   
   1908.2040 123.10823628     280.73756973     2686.28297718   
   1908.3564 125.57044526     281.27712907     2664.07182935   
   1908.5088 127.83259701     272.23193081     2649.70280459   
   1908.6612 129.23686173     268.84489408     2643.89996936   
   1908.8136 129.34893784     266.02707384     2633.80968605   
   1908.9660 128.88693139     263.22249196     2616.82331689   
   1909.1184 127.82443368     260.44492682     2605.76538719   
   1909.2708 126.25728905     257.08933211     2599.54009511   
   1909.4232 124.33542155     255.00191135     2593.72514383   
   1909.5756 122.63002336     255.62254930     2580.25646506   
   1909.7280 120.60310428     256.18388337     2560.27093453   
   1909.8804 118.06630600     256.67312559     2530.75424329   
   1910.0328 115.53970898     257.12025565     2523.03434418   
   1910.1852 112.34120641     257.57131540     2562.57233563   
   1910.3376 108.87258423     258.02835763     2615.12588237   
   1910.4900 106.32450019     258.39896861     2659.60534071   
   1910.6424 106.55615626     257.18311201     2682.58187910   
   1910.7948 108.34273711     255.93925817     2677.90365488   
   1910.9472 109.98170412     254.70515879     2665.92289330   
   1911.0996 112.24691156     253.47304404     2656.61995923   
   1911.2520 113.88638201     252.20679869     2650.29316293   
   1911.4044 114.50970925     252.88648273     2615.81272974   
   1911.5568 114.90218562     254.55092697     2585.08125848   
   1911.7092 115.41965849     256.21225187     2584.49577082   
   1911.8616 115.44081435     256.91206808     2593.76118695   
   1912.0140 114.60462997     257.48387270     2598.94596404   
   1912.1664 113.84033945     258.05307596     2608.07088576   
   1912.3188 113.82822575     258.62038325     2598.87565292   
   1912.4712 113.94527670     259.18942609     2571.46586979   
   1912.6236 114.52589436     259.27451444     2567.69789532   
   1912.7760 116.35494276     258.88658308     2577.06902656   
   1912.9284 116.98710651     258.51346120     2579.83891610   
   1913.0808 115.72357095     258.12002350     2576.53549616   
   1913.2332 114.77311388     259.72095738     2594.11221625   
   1913.3856 115.23729649     262.75305353     2628.87539817   
   1913.5380 116.63798202     268.42083133     2667.98777278   
   1913.6904 117.20425988     275.71483406     2672.88197849   
   1913.8428 116.20112340     280.02439043     2652.09230913   
   1913.9952 115.68996431     279.08624482     2622.33443690   
   1914.1476 115.10161812     274.11062162     2576.33531091   
