~Version Information Block
 VERS.                2.00:     CWLS LOG ASCII STANDARD - VERSION 2.000000
 WRAP.                  NO:     One Line Per Depth Step
#
~Well Information Block
#MNEM.UNIT                     Data                         Information
#----------   ------------------------------------------   ----------------
 STRT.M                                      1800.0000:     START DEPTH
 STOP.M                                      2199.8976:     STOP DEPTH
 STEP.M                                         0.1524:     STEP
 NULL.                                       -999.2500:     NULL VALUE
 COMP.                                        Alphabow:     COMPANY
 WELL.                   SOC PINE CK 12-2-56-19 #82576:     WELL
 FLD .                                                :     FIELD
 LOC .                                                :     LOCATION
 CNTY.                                                :     COUNTY
 STAT.                                                :     STATE
 CTRY.                                                :     COUNTRY
 SRVC.                                                :     SERVICE COMPANY
 DATE.                                      03/28/2025:     DATE
 API .                                100120205619W500:     API NUMBER
 UWI .                                100120205619W500:     UWI NUMBER
 TVD .                                              NO:     TVD flag
 WSTA.                                             LOC:     Well status
#
~Curve Information Block
#MNEM.UNIT       API CODE      Curve Description
#----------    -------------   -------------------
 DEPT.M                    :   Depth in Meters
 GR  .GAPI     35 310 01 01:   Gamma Ray
 CALI.mm       70 280 01 01:   Caliper
 RHOB.kg/m3     42 350 01 01:   Bulk Density
#
~Parameter Information Block
#MNEM.UNIT            Value               Description
#----------    --------------------    -------------------
 RUN .                         ONE:    Run Number
 PDAT.                         UNK:    Permanent Datum
 EPD .M                 -9999.5000:    Elevation Of Perm. Datum
 WSTA.                         LOC:    
 TD  .M                  2200.0000:    Total Depth
#
~Other Information Block
<DescLogPlotStart>   NEURALOG PLOT DEFINITION
PLOTDEFVERSION: 3
LASFILE: C:\Users\wadet\Desktop\Alphabow Evaluation\well_info\second_white_spec
DEPTHSCALE: 240.000000
RESOLUTION: 200
DEPTHLABELFREQ: 50.000000
HEAVYGRIDFREQ: 50.000000
MEDIUMGRIDFREQ: 25.000000
LIGHTGRIDFREQ: 5.000000
#
#   TRACK 1
#
STARTTRACK: 
 LEFTX: 0.500000 inch
 RIGHTX: 3.000000 inch
 SCALETYPE: Linear
 NUMCHARTDIVISIONS: 9
CURVE: GR    0.000000   150.000000 (0,0,255)      Solid             2     N    
CURVE: CALI  125.000000 375.000000 (0,131,131)    Dot               2     N    
ENDTRACK: 
#
#   TRACK 2
#
STARTTRACK: 
 LEFTX: 3.500000 inch
 RIGHTX: 8.500000 inch
 SCALETYPE: Linear
 NUMCHARTDIVISIONS: 10
CURVE: RHOB  2000.000000 3000.000000 (255,0,255)    Solid             2     N  
ENDTRACK: 
<DescLogPlotEnd>
~A DEPTH     GR               CALI             RHOB            
# ...
   1971.4500 117.63028679     261.39432268     2487.63138213   
   1971.6024 117.44462914     259.53204114     2545.19492138   
   1971.7548 115.25446738     258.71653533     2557.17313899   
   1971.9072 114.12242191     257.89903433     2513.05222330   
   1972.0596 115.51417519     257.08323965     2480.48954820   
   1972.2120 118.32097936     256.25568728     2465.40602475   
   1972.3644 121.20761857     255.43732927     2505.39401086   
   1972.5168 121.77427044     257.23955172     2568.87263366   
   1972.6692 120.46042560     259.32168485     2606.84244179   
   1972.8216 118.68843631     261.43526084     2590.74265107   
   1972.9740 115.85745892     261.42994034     2540.17765190   
   1973.1264 112.16024059     261.29875577     2481.19277065   
   1973.2788 108.67915730     261.17445189     2432.95585353   
   1973.4312 107.42826464     261.05626667     2407.33799323   
   1973.5836 105.93847975     260.68439256     2416.40910010   
   1973.7360 101.69706005     260.18689970     2438.77243711   
   1973.8884 94.42040400      259.68795651     2454.18851021   
   1974.0408 85.37859370      259.18411732     2465.01648251   
   1974.1932 76.38664852      258.68285372     2476.91993112   
   1974.3456 65.25936012      257.55928015     2525.89608050   
   1974.4980 72.31825770      255.88145656     2590.77424258   
   1974.6504 83.24093711      254.20306216     2659.30402617   
   1974.8028 86.53608510      252.51999495     2652.90405654   
   1974.9552 86.87094130      250.83363468     2606.31670395   
   1975.1076 87.06072169      249.14515045     2558.80626158   
   1975.2600 87.24001167      247.50337220     2528.77534306   
   1975.4124 87.53065264      247.05351246     2575.99454711   
   1975.5648 90.11662528      251.73602561     2664.49653954   
   1975.7172 92.75758263      257.08113018     2657.86794320   
   1975.8696 95.97556883      262.71873420     2584.79335432   
   1976.0220 89.07167378      257.11268042     2507.63715196   
   1976.1744 78.07708132      251.23080401     2478.70352550   
   1976.3268 70.16492018      245.44952094     2553.64761308   
   1976.4792 79.93309855      247.45693706     2681.73995538   
   1976.6316 88.15452386      250.72773813     2706.80541392   
   1976.7840 95.86140066      254.01683994     2636.13187008   
   1976.9364 99.98740641      256.77763725     2588.32129911   
   1977.0888 103.48586664     258.00641509     2649.21500122   
   1977.2412 106.29079961     259.25949472     2638.26922970   
   1977.3936 108.93693543     260.51379939     2644.34198239   
   1977.5460 109.25407620     261.75715457     2595.65862081   
   1977.6984 108.92617872     263.01457225     2537.63078912   
   1977.8508 109.01530344     262.50074469     2495.36766535   
   1978.0032 110.98688896     260.64812382     2469.36658628   
   1978.1556 114.77214956     258.77895354     2454.05357110   
   1978.3080 117.84395364     256.80639173     2456.42449784   
   1978.4604 119.43587784     258.46276617     2477.76044034   
   1978.6128 119.75623275     261.20898292     2513.03518248   
   1978.7652 119.38895021     263.97673646     2545.84550466   
   1978.9176 117.08684434     264.06413115     2526.44477437   
   1979.0700 115.78555983     264.07426984     2484.63746630   
   1979.2224 115.07941403     258.48430695     2467.25784315   
   1979.3748 114.47584858     251.23435093     2502.30147091   
   1979.5272 112.65033224     248.80746413     2561.08606359   
   1979.6796 110.88863872     246.30891744     2573.01870308   
   1979.8320 110.54206449     249.13163931     2537.25219187   
   1979.9844 112.01870917     252.45235714     2546.49095433   
   1980.1368 114.09505360     255.77150440     2582.35282460   
   1980.2892 116.32760825     256.96109049     2613.93883262   
   1980.4416 118.38061041     257.67375356     2601.28837026   
   1980.5940 119.79807087     258.37098328     2571.46873200   
   1980.7464 120.07507090     259.06639638     2553.26179505   
   1980.8988 118.94724944     259.35281052     2550.27759006   
   1981.0512 116.75885868     259.07030503     2596.55570481   
   1981.2036 116.04309185     258.68314634     2680.18729662   
   1981.3560 117.01522882     258.23073963     2758.37248596   
   1981.5084 119.30510816     257.81025376     2736.84275800   
   1981.6608 120.35863855     257.45207583     2647.81970176   
   1981.8132 120.63100382     257.10171668     2559.32990397   
   1981.9656 120.70312004     256.37838584     2470.28588171   
   1982.1180 121.93586192     255.17421920     2404.63917526   
   1982.2704 123.35730209     260.09821657     2458.55546392   
   1982.4228 123.14755074     264.56595012     2501.29030928   
   1982.5752 120.89263590     260.67536704     2561.15200913   
   1982.7276 120.36445953     255.61292349     2533.20742569   
   1982.8800 120.65674999     251.54299309     2484.85044921   
   1983.0324 121.19264560     247.21425051     2434.68264400   
   1983.1848 122.16174857     247.47233921     2392.49358894   
   1983.3372 120.40713839     249.19862436     2403.54240318   
   1983.4896 117.45374404     250.97806477     2414.50395837   
   1983.6420 114.89590936     252.75753764     2425.80758990   
   1983.7944 115.30933770     254.53389855     2424.07485365   
   1983.9468 119.50179721     256.30487222     2404.48599051   
   1984.0992 123.47605435     258.07718119     2402.47640981   
   1984.2516 125.36030546     259.92268795     2404.27701835   
   1984.4040 117.07209371     257.35526943     2419.71772157   
   1984.5564 102.92302136     252.53074673     2447.86254053   
   1984.7088 92.46595666      246.59248370     2567.66480703   
   1984.8612 86.21368491      240.12035130     2554.88759641   
   1985.0136 87.63024904      239.39480527     2720.35575984   
   1985.1660 90.76276416      238.85141251     2695.31396699   
   1985.3184 92.14997083      238.29054648     2675.08431254   
   1985.4708 90.52706083      237.72545603     2687.83661321   
   1985.6232 90.94838117      237.13769707     2737.79359420   
   1985.7756 97.63755403      238.16714771     2720.40249397   
   1985.9280 105.82237502     240.13102236     2679.20189161   
   1986.0804 107.67616403     242.10578856     2639.15412706   
   1986.2328 108.48693305     244.11885722     2650.58331053   
   1986.3852 105.28252501     245.14030971     2647.25038955   
   1986.5376 101.83803378     245.87766584     2656.63756610   
   1986.6900 98.22444362      246.59795172     2664.68375622   
   1986.8424 96.70743870      247.32055397     2667.97162967   
   1986.9948 98.13596585      247.34539023     2663.16463132   
   1987.1472 101.63737456     246.65258275     2643.25435965   
   1987.2996 104.43699106     245.96278314     2620.15472297   
   1987.4520 103.74070591     244.90374066     2606.06343179   
   1987.6044 99.62092365      243.54071505     2592.10178373   
   1987.7568 94.75206423      242.15714390     2562.49729458   
   1987.9092 92.93541978      243.24367734     2556.77661227   
   1988.0616 95.53169767      246.10136056     2505.33100217   
   1988.2140 100.14294672     248.22839622     2514.69897808   
   1988.3664 104.18955300     248.05972869     2556.77967092   
   1988.5188 106.52296942     247.94335543     2635.48834327   
   1988.6712 108.74486880     247.83472988     2673.29914130   
   1988.8236 109.82810202     247.74158152     2685.14354201   
   1988.9760 109.54640610     246.90678013     2687.26239211   
   1989.1284 108.97606826     245.89243599     2656.40624070   
   1989.2808 108.99326848     244.87029519     2613.35034811   
   1989.4332 108.36421325     243.83999459     2579.56780835   
   1989.5856 107.49259100     242.58248589     2601.76132284   
   1989.7380 107.47657521     240.47126521     2662.45391652   
   1989.8904 107.72258242     238.33736454     2694.90208890   
   1990.0428 106.13537334     238.98044948     2671.10966063   
   1990.1952 103.92805215     239.95463003     2624.87106682   
   1990.3476 104.69980724     239.45131438     2596.18156903   
