~Version Information Block
 VERS.                2.00:     CWLS LOG ASCII STANDARD - VERSION 2.000000
 WRAP.                  NO:     One Line Per Depth Step
#
~Well Information Block
#MNEM.UNIT                     Data                         Information
#----------   ------------------------------------------   ----------------
 STRT.M                                      1800.0000:     START DEPTH
 STOP.M                                      2199.8976:     STOP DEPTH
 STEP.M                                         0.1524:     STEP
 NULL.                                       -999.2500:     NULL VALUE
 COMP.                                        Alphabow:     COMPANY
 WELL.                   SOC PINE CK 12-2-56-19 #82576:     WELL
 FLD .                                                :     FIELD
 LOC .                                                :     LOCATION
 CNTY.                                                :     COUNTY
 STAT.                                                :     STATE
 CTRY.                                                :     COUNTRY
 SRVC.                                                :     SERVICE COMPANY
 DATE.                                      03/28/2025:     DATE
 API .                                100120205619W500:     API NUMBER
 UWI .                                100120205619W500:     UWI NUMBER
 TVD .                                              NO:     TVD flag
 WSTA.                                             LOC:     Well status
#
~Curve Information Block
#MNEM.UNIT       API CODE      Curve Description
#----------    -------------   -------------------
 DEPT.M                    :   Depth in Meters
 GR  .GAPI     35 310 01 01:   Gamma Ray
 CALI.mm       70 280 01 01:   Caliper
 RHOB.kg/m3     42 350 01 01:   Bulk Density
#
~Parameter Information Block
#MNEM.UNIT            Value               Description
#----------    --------------------    -------------------
 RUN .                         ONE:    Run Number
 PDAT.                         UNK:    Permanent Datum
 EPD .M                 -9999.5000:    Elevation Of Perm. Datum
 WSTA.                         LOC:    
 TD  .M                  2200.0000:    Total Depth
#
~Other Information Block
<DescLogPlotStart>   NEURALOG PLOT DEFINITION
PLOTDEFVERSION: 3
LASFILE: C:\Users\wadet\Desktop\Alphabow Evaluation\well_info\second_white_spec
DEPTHSCALE: 240.000000
RESOLUTION: 200
DEPTHLABELFREQ: 50.000000
HEAVYGRIDFREQ: 50.000000
MEDIUMGRIDFREQ: 25.000000
LIGHTGRIDFREQ: 5.000000
#
#   TRACK 1
#
STARTTRACK: 
 LEFTX: 0.500000 inch
 RIGHTX: 3.000000 inch
 SCALETYPE: Linear
 NUMCHARTDIVISIONS: 9
CURVE: GR    0.000000   150.000000 (0,0,255)      Solid             2     N    
CURVE: CALI  125.000000 375.000000 (0,131,131)    Dot               2     N    
ENDTRACK: 
#
#   TRACK 2
#
STARTTRACK: 
 LEFTX: 3.500000 inch
 RIGHTX: 8.500000 inch
 SCALETYPE: Linear
 NUMCHARTDIVISIONS: 10
CURVE: RHOB  2000.000000 3000.000000 (255,0,255)    Solid             2     N  
ENDTRACK: 
<DescLogPlotEnd>
~A DEPTH     GR               CALI             RHOB            
# ...
   2009.5500 111.86240196     240.14218755     2708.67661951   
   2009.7024 109.06670627     241.88809102     2746.39358925   
   2009.8548 109.13330476     243.48032821     2733.96519780   
   2010.0072 111.50764690     241.29573628     2704.63948181   
   2010.1596 113.37968639     238.95639019     2687.97654324   
   2010.3120 112.05199939     236.63350649     2709.92275902   
   2010.4644 110.52766613     234.31068996     2692.37869212   
   2010.6168 110.55950435     231.91906616     2662.53718705   
   2010.7692 112.34027563     231.32031846     2642.63967833   
   2010.9216 115.65768058     231.29823354     2662.18235272   
   2011.0740 118.15176990     231.29976765     2677.74381343   
   2011.2264 119.35344312     231.30122951     2693.41349784   
   2011.3788 119.42920672     231.30122951     2706.75322916   
   2011.5312 119.36873565     231.30122951     2657.09335921   
   2011.6836 118.79173606     231.30122951     2609.06546685   
   2011.8360 117.49583828     231.30122951     2560.42805382   
   2011.9884 115.75117481     231.30113797     2525.79195718   
   2012.1408 114.48632632     231.30072235     2517.37464036   
   2012.2932 113.02694530     231.30211632     2537.95864757   
   2012.4456 110.25563191     231.37329018     2577.33906879   
   2012.5980 107.30183467     231.84164128     2633.52185901   
   2012.7504 106.99154640     232.31335819     2682.59605013   
   2012.9028 109.66046138     232.77202578     2677.24063641   
   2013.0552 113.54402918     233.05551668     2629.79961892   
   2013.2076 116.96071269     233.55485124     2585.02882677   
   2013.3600 117.19967401     238.50063072     2557.71402349   
   2013.5124 116.61050167     242.61038897     2550.23550196   
   2013.6648 115.74024255     244.58950885     2557.99998914   
   2013.8172 113.84063505     240.82983191     2580.48294703   
   2013.9696 112.33531621     234.76764783     2595.93178785   
   2014.1220 111.20789284     232.48292042     2599.51997262   
   2014.2744 110.48545948     230.13840391     2602.54736984   
   2014.4268 110.90935175     227.80397036     2609.26255921   
   2014.5792 111.81785167     227.62007563     2618.96815721   
   2014.7316 112.10984747     227.54596079     2618.95929363   
   2014.8840 109.88312326     227.46428610     2611.10427376   
   2015.0364 106.16779300     227.37789350     2616.58291303   
   2015.1888 104.64141438     227.29161635     2628.14657814   
   2015.3412 107.10406069     227.20715666     2633.48937459   
   2015.4936 111.06182152     227.25350660     2630.61125872   
   2015.6460 111.79855761     227.30794112     2630.90873260   
   2015.7984 110.80612181     227.36203850     2634.74923852   
   2015.9508 110.77742702     227.41590751     2627.49939901   
   2016.1032 113.83835214     227.46981133     2618.11525721   
   2016.2556 115.72762093     227.52376552     2622.00304577   
   2016.4080 115.33323149     227.57764025     2634.30249648   
   2016.5604 112.53817047     227.63061736     2625.36854867   
   2016.7128 109.91274059     227.68341743     2613.18166930   
   2016.8652 109.96552288     227.60410221     2618.12438750   
   2017.0176 112.48488150     227.35628346     2623.54979832   
   2017.1700 115.69220284     227.20371365     2612.42979962   
   2017.3224 119.36650315     227.20378452     2568.27701183   
   2017.4748 123.77486715     227.20607029     2553.94272855   
   2017.6272 129.35949673     227.29803894     2584.94172874   
   2017.7796 131.53022581     227.64088170     2618.75855098   
   2017.9320 128.77143927     227.97198496     2626.63593946   
   2018.0844 121.03073223     228.30229377     2562.69965346   
   2018.2368 113.70554460     228.63320454     2508.79420548   
   2018.3892 109.89340771     228.96414644     2493.07849074   
   2018.5416 110.17905958     229.29508834     2513.32487856   
   2018.6940 111.35011863     229.62603025     2551.61691967   
   2018.8464 110.84297658     229.95697215     2590.06671678   
   2018.9988 109.49553461     230.28791405     2628.61056614   
   2019.1512 108.72603389     230.61885595     2666.87278076   
   2019.3036 109.32417787     230.94979786     2716.83592032   
   2019.4560 110.22786364     231.28073976     2713.44654478   
   2019.6084 109.66096320     231.61168166     2708.65709960   
   2019.7608 108.77734523     231.94262357     2703.83288205   
   2019.9132 107.14869350     232.27420492     2697.30795364   
   2020.0656 105.05865982     232.61098875     2663.25801100   
   2020.2180 102.74949595     232.93639763     2626.44536173   
   2020.3704 102.16560500     233.17945298     2589.54022050   
   2020.5228 104.39654104     237.21991196     2553.75768681   
   2020.6752 107.44434172     242.20519698     2516.47674804   
   2020.8276 110.62935367     250.44051474     2480.18214662   
   2020.9800 112.98622636     253.07798146     2444.13080176   
   2021.1324 115.12614859     246.36762705     2452.47804208   
   2021.2848 116.33436819     238.97264019     2462.49815225   
   2021.4372 117.32995502     232.00709094     2478.50103376   
   2021.5896 118.09984005     231.58016982     2515.49792803   
   2021.7420 118.19956041     231.01297400     2552.29070328   
   2021.8944 118.21298742     230.07494187     2589.05204144   
   2022.0468 118.32677737     228.95711645     2628.14329711   
   2022.1992 119.43874146     228.66900002     2621.58648424   
   2022.3516 118.66756006     228.56952831     2617.45761933   
   2022.5040 117.25534530     228.47596519     2602.83894597   
   2022.6564 115.53234793     228.38201823     2594.77656545   
   2022.8088 114.18333277     228.28774358     2598.03576103   
   2022.9612 113.55538327     228.19346582     2605.39104100   
   2023.1136 113.89372737     228.09918806     2608.88041136   
   2023.2660 115.44904751     228.00501897     2604.29922262   
   2023.4184 117.21673568     227.91051378     2587.41186303   
   2023.5708 119.90630767     227.81466168     2553.08234593   
   2023.7232 121.02779013     227.72271065     2505.35418800   
   2023.8756 120.93728379     227.94036676     2463.18374622   
   2024.0280 120.39394771     228.18526381     2442.10549698   
   2024.1804 120.72718329     228.42988034     2440.24448305   
   2024.3328 121.47395956     228.67383547     2525.25873943   
   2024.4852 122.32331581     228.91782273     2607.16999359   
   2024.6376 120.96851345     229.16443510     2672.89368212   
   2024.7900 120.07718917     229.25066033     2667.15665610   
   2024.9424 120.22661290     229.25182139     2655.76181183   
   2025.0948 121.51640120     229.25210432     2654.17141053   
   2025.2472 121.99729411     229.25207040     2658.15593199   
   2025.3996 119.28888522     229.25204918     2662.09943425   
   2025.5520 115.99645999     229.25204918     2659.71304645   
   2025.7044 113.96278893     229.25204918     2649.07756340   
   2025.8568 112.88036903     229.25204918     2633.50279855   
   2026.0092 111.38831739     229.25204918     2609.37113303   
   2026.1616 109.86850949     229.25204918     2581.34522559   
   2026.3140 109.96150039     229.25204918     2600.19155924   
   2026.4664 110.75457155     229.25204918     2625.38205165   
   2026.6188 109.58387983     229.25204918     2645.27275012   
   2026.7712 106.56430999     229.25114144     2608.36201267   
   2026.9236 105.28474223     229.24766090     2590.63076115   
   2027.0760 105.67222207     229.26157605     2597.76870921   
   2027.2284 107.80687368     229.90168688     2602.96207237   
   2027.3808 111.65694285     233.90537419     2571.26336942   
   2027.5332 115.12579131     237.71426945     2543.36511389   
   2027.6856 117.81976297     240.09426161     2526.09082403   
   2027.8380 120.36829822     242.45579482     2519.04349093   
   2027.9904 121.65067510     244.82197921     2486.83920190   
   2028.1428 123.50296179     247.19130299     2450.26739117   
   2028.2952 124.03958853     249.68080206     2413.83867116   
   2028.4476 125.58378395     252.89796824     2384.20368457   
