~Version Information Block
 VERS.                2.00:     CWLS LOG ASCII STANDARD - VERSION 2.000000
 WRAP.                  NO:     One Line Per Depth Step
#
~Well Information Block
#MNEM.UNIT                     Data                         Information
#----------   ------------------------------------------   ----------------
 STRT.M                                      1800.0000:     START DEPTH
 STOP.M                                      2199.8976:     STOP DEPTH
 STEP.M                                         0.1524:     STEP
 NULL.                                       -999.2500:     NULL VALUE
 COMP.                                        Alphabow:     COMPANY
 WELL.                   SOC PINE CK 12-2-56-19 #82576:     WELL
 FLD .                                                :     FIELD
 LOC .                                                :     LOCATION
 CNTY.                                                :     COUNTY
 STAT.                                                :     STATE
 CTRY.                                                :     COUNTRY
 SRVC.                                                :     SERVICE COMPANY
 DATE.                                      03/28/2025:     DATE
 API .                                100120205619W500:     API NUMBER
 UWI .                                100120205619W500:     UWI NUMBER
 TVD .                                              NO:     TVD flag
 WSTA.                                             LOC:     Well status
#
~Curve Information Block
#MNEM.UNIT       API CODE      Curve Description
#----------    -------------   -------------------
 DEPT.M                    :   Depth in Meters
 GR  .GAPI     35 310 01 01:   Gamma Ray
 CALI.mm       70 280 01 01:   Caliper
 RHOB.kg/m3     42 350 01 01:   Bulk Density
#
~Parameter Information Block
#MNEM.UNIT            Value               Description
#----------    --------------------    -------------------
 RUN .                         ONE:    Run Number
 PDAT.                         UNK:    Permanent Datum
 EPD .M                 -9999.5000:    Elevation Of Perm. Datum
 WSTA.                         LOC:    
 TD  .M                  2200.0000:    Total Depth
#
~Other Information Block
<DescLogPlotStart>   NEURALOG PLOT DEFINITION
PLOTDEFVERSION: 3
LASFILE: C:\Users\wadet\Desktop\Alphabow Evaluation\well_info\second_white_spec
DEPTHSCALE: 240.000000
RESOLUTION: 200
DEPTHLABELFREQ: 50.000000
HEAVYGRIDFREQ: 50.000000
MEDIUMGRIDFREQ: 25.000000
LIGHTGRIDFREQ: 5.000000
#
#   TRACK 1
#
STARTTRACK: 
 LEFTX: 0.500000 inch
 RIGHTX: 3.000000 inch
 SCALETYPE: Linear
 NUMCHARTDIVISIONS: 9
CURVE: GR    0.000000   150.000000 (0,0,255)      Solid             2     N    
CURVE: CALI  125.000000 375.000000 (0,131,131)    Dot               2     N    
ENDTRACK: 
#
#   TRACK 2
#
STARTTRACK: 
 LEFTX: 3.500000 inch
 RIGHTX: 8.500000 inch
 SCALETYPE: Linear
 NUMCHARTDIVISIONS: 10
CURVE: RHOB  2000.000000 3000.000000 (255,0,255)    Solid             2     N  
ENDTRACK: 
<DescLogPlotEnd>
~A DEPTH     GR               CALI             RHOB            
# ...
   1933.3500 122.01467298     266.72823194     2422.01959664   
   1933.5024 122.76874187     266.53919142     2404.87689183   
   1933.6548 122.82672751     266.35870505     2428.64490210   
   1933.8072 122.39075306     266.15770181     2481.35867079   
   1933.9596 118.90544507     263.38183855     2470.64301568   
   1934.1120 109.50141212     260.19786649     2738.65979381   
   1934.2644 96.77013418      257.00465900     2492.26804124   
   1934.4168 91.37993229      253.81252465     2531.44329897   
   1934.5692 89.90334713      250.62443722     2556.18556701   
   1934.7216 94.55536486      247.47850649     2558.79586247   
   1934.8740 101.38199541     243.69220696     2580.23986506   
   1935.0264 106.83248599     238.79061491     2597.32185615   
   1935.1788 113.74669094     246.37120122     2604.13544110   
   1935.3312 116.81069297     254.21243745     2546.33818796   
   1935.4836 115.56651944     256.94582174     2508.69949658   
   1935.6360 113.21998036     259.37007846     2490.69602172   
   1935.7884 113.01185771     257.82378564     2470.48292007   
   1935.9408 115.69476371     256.28136616     2460.24266548   
   1936.0932 117.06797400     254.76481671     2442.97646306   
   1936.2456 117.85788906     253.74229496     2431.99769089   
   1936.3980 116.03092971     253.47860118     2429.24622738   
   1936.5504 114.21510689     252.75024288     2426.53290890   
   1936.7028 113.58175056     251.42192951     2426.15269293   
   1936.8552 113.56272410     250.10476770     2425.37731834   
   1937.0076 114.21239489     248.77424478     2426.98415256   
   1937.1600 116.26155994     247.38289579     2414.77829126   
   1937.3124 118.91302749     249.00883216     2415.64447807   
   1937.4648 119.69377458     251.24216862     2441.87750506   
   1937.6172 117.48625305     253.45874604     2535.69113116   
   1937.7696 112.55981934     256.77312504     2632.73374868   
   1937.9220 107.83676962     260.09929496     2669.27656229   
   1938.0744 106.04272947     263.38541306     2619.07300628   
   1938.2268 106.19319429     263.87243403     2572.90178081   
   1938.3792 105.85625629     263.66664065     2555.87256824   
   1938.5316 104.41933371     262.51695885     2544.51682595   
   1938.6840 102.50117798     261.09291659     2539.25831875   
   1938.8364 101.03924744     260.46977766     2570.77686580   
   1938.9888 101.38905538     262.69344776     2616.81868471   
   1939.1412 104.03383426     264.86506796     2614.57391328   
   1939.2936 107.89691634     267.04888008     2617.51493332   
   1939.4460 111.43235262     265.92075757     2549.65626762   
   1939.5984 113.88463500     264.53514374     2537.18655836   
   1939.7508 112.73335496     263.15592813     2559.78769725   
   1939.9032 109.65104030     261.78301949     2570.01969105   
   1940.0556 107.91612611     260.40951645     2555.69598218   
   1940.2080 106.38565376     259.03369356     2540.07834984   
   1940.3604 108.48111092     257.65750842     2555.34744127   
   1940.5128 111.11827392     256.43830248     2592.62805925   
   1940.6652 112.22658216     256.82480827     2612.32029035   
   1940.8176 111.43981248     257.23767178     2598.89341116   
   1940.9700 111.02752054     257.25943698     2571.65442920   
   1941.1224 111.10440900     256.77145695     2558.66272693   
   1941.2748 111.70271548     263.55692725     2574.11524740   
   1941.4272 113.60657878     274.35856484     2573.42895199   
   1941.5796 115.39755887     284.35320018     2512.29672014   
   1941.7320 115.25767751     289.97829332     2418.45274583   
   1941.8844 112.26125317     285.85771131     2352.34349951   
   1942.0368 91.51869674      281.27315968     2375.02827852   
   1942.1892 91.93476029      276.95104421     2439.05878927   
   1942.3416 90.10176282      271.46818801     2481.37228207   
   1942.4940 90.18219248      260.92097115     2490.38191821   
   1942.6464 90.20388063      261.04462869     2459.51605956   
   1942.7988 90.27145033      261.72647821     2442.14044443   
   1942.9512 90.80371949      262.37075896     2471.65791419   
   1943.1036 88.27289250      262.98351719     2539.82178195   
   1943.2560 111.66158112     263.69945067     2561.95140346   
   1943.4084 108.71948481     266.60274723     2533.01803237   
   1943.5608 105.47022289     269.41807026     2493.82493195   
   1943.7132 104.59488269     272.21722430     2443.47325190   
   1943.8656 105.63387825     275.01394418     2419.35192774   
   1944.0180 106.97346498     277.77154387     2426.40775011   
   1944.1704 108.39102209     279.58238207     2448.18443789   
   1944.3228 108.97931389     277.32465493     2427.04024427   
   1944.4752 110.47437032     275.15240540     2386.16855831   
   1944.6276 112.34116132     272.99473846     2337.37618886   
   1944.7800 112.36857463     270.83204585     2288.34604554   
   1944.9324 111.79424486     268.66913466     2260.92771042   
   1945.0848 111.73082481     266.51458041     2269.86666474   
   1945.2372 112.69014570     264.34849412     2262.92244403   
   1945.3896 114.37309263     262.03330460     2258.15529126   
   1945.5420 115.72332028     265.10376943     2259.37140054   
   1945.6944 116.85955950     270.16152307     2283.36056504   
   1945.8468 116.35300970     270.75074137     2290.07453914   
   1945.9992 116.16779896     268.27098471     2399.02909213   
   1946.1516 118.80478040     265.75998899     2339.49050463   
   1946.3040 123.85781304     263.29905790     2319.41729584   
   1946.4564 127.28055655     260.85812687     2341.75257732   
   1946.6088 126.56239113     258.70610650     2387.11340206   
   1946.7612 122.10857924     257.77565280     2456.18556701   
   1946.9136 119.25263381     256.51803924     2575.77319588   
   1947.0660 119.54238763     253.04935862     2599.24043444   
   1947.2184 120.64767545     249.54745315     2580.35612334   
   1947.3708 121.84815718     249.28889596     2528.17653566   
   1947.5232 120.76331751     252.26170324     2505.74522213   
   1947.6756 117.70377182     252.33582169     2524.38688504   
   1947.8280 113.92699907     250.50636904     2548.77854582   
   1947.9804 110.94326972     248.57042939     2527.04551306   
   1948.1328 110.99876716     250.23613649     2456.53062815   
   1948.2852 111.81410236     257.37634603     2372.24061613   
   1948.4376 111.82033627     268.88173530     2319.27555568   
   1948.5900 107.84309312     270.21140588     2289.22501434   
   1948.7424 101.99806328     271.12128878     2289.87067008   
   1948.8948 98.20306157      272.04896081     2306.13518683   
   1949.0472 98.13936803      272.99449922     2327.26469682   
   1949.1996 100.44190653     273.93708559     2339.73229948   
   1949.3520 103.56995759     274.87967196     2333.47709881   
   1949.5044 104.36561588     275.82225834     2311.38575924   
   1949.6568 103.60440226     276.76484471     2305.01322455   
   1949.8092 101.95645799     277.70743108     2331.42852113   
   1949.9616 102.33185517     278.65001746     2382.40758245   
   1950.1140 104.01809463     279.59266635     2423.48844550   
   1950.2664 105.91183039     280.53329298     2464.21248393   
   1950.4188 105.46224143     281.47354673     2504.87340762   
   1950.5712 102.62346024     282.44380559     2562.64241328   
   1950.7236 101.62898153     283.90508299     2543.11686297   
   1950.8760 104.09521129     286.83065678     2506.58698370   
   1951.0284 107.74065367     289.66935200     2469.07723901   
   1951.1808 110.09874694     292.44465404     2431.55453519   
   1951.3332 109.11172482     291.62866536     2393.93398891   
   1951.4856 106.34923017     290.34106957     2372.04262373   
   1951.6380 105.55198811     288.80338572     2371.37293073   
   1951.7904 104.35231591     285.47873639     2402.03976671   
   1951.9428 101.41787335     282.58071549     2422.48287939   
   1952.0952 100.20118550     282.81072617     2385.58328249   
   1952.2476 100.95411076     282.95886015     2356.44008105   
