~Version Information Block
 VERS.                2.00:     CWLS LOG ASCII STANDARD - VERSION 2.000000
 WRAP.                  NO:     One Line Per Depth Step
#
~Well Information Block
#MNEM.UNIT                     Data                         Information
#----------   ------------------------------------------   ----------------
 STRT.M                                      1800.0000:     START DEPTH
 STOP.M                                      2199.8976:     STOP DEPTH
 STEP.M                                         0.1524:     STEP
 NULL.                                       -999.2500:     NULL VALUE
 COMP.                                        Alphabow:     COMPANY
 WELL.                   SOC PINE CK 12-2-56-19 #82576:     WELL
 FLD .                                                :     FIELD
 LOC .                                                :     LOCATION
 CNTY.                                                :     COUNTY
 STAT.                                                :     STATE
 CTRY.                                                :     COUNTRY
 SRVC.                                                :     SERVICE COMPANY
 DATE.                                      03/28/2025:     DATE
 API .                                100120205619W500:     API NUMBER
 UWI .                                100120205619W500:     UWI NUMBER
 TVD .                                              NO:     TVD flag
 WSTA.                                             LOC:     Well status
#
~Curve Information Block
#MNEM.UNIT       API CODE      Curve Description
#----------    -------------   -------------------
 DEPT.M                    :   Depth in Meters
 GR  .GAPI     35 310 01 01:   Gamma Ray
 CALI.mm       70 280 01 01:   Caliper
 RHOB.kg/m3     42 350 01 01:   Bulk Density
#
~Parameter Information Block
#MNEM.UNIT            Value               Description
#----------    --------------------    -------------------
 RUN .                         ONE:    Run Number
 PDAT.                         UNK:    Permanent Datum
 EPD .M                 -9999.5000:    Elevation Of Perm. Datum
 WSTA.                         LOC:    
 TD  .M                  2200.0000:    Total Depth
#
~Other Information Block
<DescLogPlotStart>   NEURALOG PLOT DEFINITION
PLOTDEFVERSION: 3
LASFILE: C:\Users\wadet\Desktop\Alphabow Evaluation\well_info\second_white_spec
DEPTHSCALE: 240.000000
RESOLUTION: 200
DEPTHLABELFREQ: 50.000000
HEAVYGRIDFREQ: 50.000000
MEDIUMGRIDFREQ: 25.000000
LIGHTGRIDFREQ: 5.000000
#
#   TRACK 1
#
STARTTRACK: 
 LEFTX: 0.500000 inch
 RIGHTX: 3.000000 inch
 SCALETYPE: Linear
 NUMCHARTDIVISIONS: 9
CURVE: GR    0.000000   150.000000 (0,0,255)      Solid             2     N    
CURVE: CALI  125.000000 375.000000 (0,131,131)    Dot               2     N    
ENDTRACK: 
#
#   TRACK 2
#
STARTTRACK: 
 LEFTX: 3.500000 inch
 RIGHTX: 8.500000 inch
 SCALETYPE: Linear
 NUMCHARTDIVISIONS: 10
CURVE: RHOB  2000.000000 3000.000000 (255,0,255)    Solid             2     N  
ENDTRACK: 
<DescLogPlotEnd>
~A DEPTH     GR               CALI             RHOB            
# ...
   1819.0500 113.98483897     249.18682971     2592.35914218   
   1819.2024 113.62011816     250.32405309     2600.25469889   
   1819.3548 113.33190461     250.23123474     2600.44945877   
   1819.5072 115.44008740     250.38403163     2600.41881146   
   1819.6596 117.69776142     247.28931194     2599.67350924   
   1819.8120 119.92972476     242.94491418     2591.56103865   
   1819.9644 121.48045242     239.25054561     2598.07414337   
   1820.1168 120.93017802     261.62056127     2610.34371484   
   1820.2692 120.43045889     246.87008896     2628.76311942   
   1820.4216 119.93601286     250.26689408     2649.13481512   
   1820.5740 119.44010248     249.77586940     2660.20583260   
   1820.7264 118.94736193     250.91230229     2663.26687756   
   1820.8788 118.45916388     250.33871076     2666.49484307   
   1821.0312 117.60200638     250.53488347     2661.04967088   
   1821.1836 116.77928915     249.14131950     2642.64556308   
   1821.3360 115.96138873     244.89970767     2631.17876758   
   1821.4884 115.14592451     241.51843276     2643.94293255   
   1821.6408 114.32609602     238.77316153     2656.09637709   
   1821.7932 113.49319621     239.50900715     2641.61654355   
   1821.9456 112.73888291     242.22317029     2612.92056668   
   1822.0980 115.32151590     245.03163626     2622.72552649   
   1822.2504 118.14643980     245.52027193     2608.67895289   
   1822.4028 120.98593051     246.34355168     2600.48274999   
   1822.5552 122.01618737     249.55799286     2594.22823340   
   1822.7076 121.77078281     256.96874105     2633.96669195   
   1822.8600 121.52076440     260.42808097     2657.78259064   
   1823.0124 121.26393706     262.27166448     2663.49260458   
   1823.1648 121.00637800     263.96503182     2650.62150265   
   1823.3172 120.74535928     265.65348588     2621.25786504   
   1823.4696 120.47923603     267.34376767     2600.54349270   
   1823.6220 119.15632160     269.09541329     2585.49290054   
   1823.7744 116.16470013     266.56744337     2574.47352169   
   1823.9268 113.22285307     261.46094409     2552.12662024   
   1824.0792 110.59017163     256.29259652     2505.17357145   
   1824.2316 109.88298535     251.42716727     2460.02753520   
   1824.3840 109.11226192     250.19196329     2467.03673711   
   1824.5364 108.33144094     250.74363142     2512.75231032   
   1824.6888 107.55510766     251.26626310     2579.93120759   
   1824.8412 106.78983585     250.27617264     2673.71134021   
   1824.9936 106.01860112     249.59934861     2790.20618557   
   1825.1460 107.01094857     248.90150796     2708.76288660   
   1825.2984 110.23582078     250.68255601     2611.85567010   
   1825.4508 110.38133453     250.23299096     2537.67763018   
   1825.6032 109.41366849     250.13739851     2591.14938730   
   1825.7556 111.09471937     249.83511361     2697.44987767   
   1825.9080 113.16749662     251.17725317     2711.59569438   
   1826.0604 115.32232729     255.33942209     2668.30783044   
   1826.2128 115.64373762     259.60708652     2615.18711464   
   1826.3652 115.87082046     261.46403041     2557.23370263   
   1826.5176 116.09574507     261.80257771     2512.11544676   
   1826.6700 116.17765158     258.25790589     2506.52379867   
   1826.8224 116.95325096     255.42322204     2557.48533400   
   1826.9748 118.88526871     253.99404783     2582.89706612   
   1827.1272 119.37782026     253.10319530     2606.46745517   
   1827.2796 119.11268684     254.00230816     2626.29389423   
   1827.4320 119.10260328     256.50806532     2636.70002331   
   1827.5844 119.93352054     259.53305101     2637.42610484   
   1827.7368 121.15067774     266.53863577     2634.52145905   
   1827.8892 124.35958698     269.82027657     2616.91872274   
   1828.0416 126.25706279     270.84000160     2575.88667304   
   1828.1940 126.67497591     268.24045165     2547.08557441   
   1828.3464 123.34434143     266.57537608     2561.36974611   
   1828.4988 120.29792486     273.96581220     2617.21646451   
   1828.6512 118.70834516     275.18958310     2664.91093061   
   1828.8036 117.66411450     272.96533138     2677.10205375   
   1828.9560 115.79767917     277.56838323     2673.84370208   
   1829.1084 112.61879740     284.57198924     2638.99863786   
   1829.2608 110.10205952     261.85151650     2557.61660587   
   1829.4132 109.75530317     248.72297307     2562.43010627   
   1829.5656 111.43912962     251.96094478     2423.89337582   
   1829.7180 113.90033892     257.44083927     2460.77819703   
   1829.8704 113.28648647     259.29609088     2494.28106360   
   1830.0228 110.86585709     254.85008966     2492.12873345   
   1830.1752 109.86743385     250.75909610     2493.11903341   
   1830.3276 112.84401326     250.26896469     2494.36806130   
   1830.4800 118.36247382     250.41184930     2502.59535608   
   1830.6324 120.21744285     250.71572627     2491.22743299   
   1830.7848 117.71182162     250.32350468     2428.41035890   
   1830.9372 113.59670396     250.28700470     2366.08096215   
   1831.0896 111.52491697     255.08502246     2373.04064534   
   1831.2420 110.60289757     253.37888710     2415.45834810   
   1831.3944 109.93265097     249.70320688     2461.20838808   
   1831.5468 108.53509493     249.47251949     2497.87516454   
   1831.6992 105.67379537     249.62986189     2510.01980412   
   1831.8516 104.06518903     250.92489247     2504.47578362   
   1832.0040 103.64637724     250.99788594     2500.87735599   
   1832.1564 104.08528261     250.16135520     2502.52241450   
   1832.3088 104.94316823     249.24431520     2500.84890785   
   1832.4612 105.82803912     251.22216112     2481.72941635   
   1832.6136 108.33464690     250.58172109     2452.48328954   
   1832.7660 108.93651152     250.61061637     2423.46901012   
   1832.9184 106.35653006     248.11794154     2417.70523041   
   1833.0708 104.42101756     275.45084213     2447.86722695   
   1833.2232 101.75546120     274.21872389     2504.18975663   
   1833.3756 103.74083171     274.75077907     2564.36581098   
   1833.5280 107.48282316     274.81505925     2643.89106486   
   1833.6804 113.24710656     274.87749085     2682.56724780   
   1833.8328 116.59377885     275.31044081     2662.90812568   
   1833.9852 117.64642248     274.85482705     2618.26415878   
   1834.1376 118.67217868     274.86133131     2564.49073066   
   1834.2900 119.05730812     274.84639575     2553.79633695   
   1834.4424 119.11654009     274.82461897     2554.35715008   
   1834.5948 118.85211442     274.82633855     2563.37474806   
   1834.7472 117.32267410     275.28450773     2575.27261860   
   1834.8996 116.56865263     275.24593621     2590.34310725   
   1835.0520 115.76671738     275.67805061     2572.28430850   
   1835.2044 115.15880961     276.08321091     2545.19564817   
   1835.3568 116.34838865     276.50168861     2518.58324649   
   1835.5092 117.67656117     277.62920417     2499.87221788   
   1835.6616 117.34561513     282.84953113     2541.30785934   
   1835.8140 114.84392515     280.27255717     2574.51089667   
   1835.9664 113.13173568     277.42767321     2607.54823924   
   1836.1188 111.42790941     277.16435425     2651.36932168   
   1836.2712 110.18468703     276.94739359     2616.53273442   
   1836.4236 108.39591528     276.74026545     2561.44712143   
   1836.5760 106.65836456     276.54099159     2506.01714793   
   1836.7284 105.63236604     275.36461460     2450.77568122   
   1836.8808 105.83735029     266.39608625     2391.89552115   
   1837.0332 106.89877171     259.35433486     2391.07441520   
   1837.1856 108.26928538     256.71604158     2414.36350885   
   1837.3380 110.11605725     254.29636377     2462.19371304   
   1837.4904 113.49480697     251.87073766     2495.77049607   
   1837.6428 115.87239386     250.23863452     2511.42541973   
   1837.7952 116.04733105     249.48578557     2536.28626693   
   1837.9476 114.73461359     243.98957698     2552.51837145   
