~Version Information Block
 VERS.                2.00:     CWLS LOG ASCII STANDARD - VERSION 2.000000
 WRAP.                  NO:     One Line Per Depth Step
#
~Well Information Block
#MNEM.UNIT                     Data                         Information
#----------   ------------------------------------------   ----------------
 STRT.M                                      1800.0000:     START DEPTH
 STOP.M                                      2199.8976:     STOP DEPTH
 STEP.M                                         0.1524:     STEP
 NULL.                                       -999.2500:     NULL VALUE
 COMP.                                        Alphabow:     COMPANY
 WELL.                   SOC PINE CK 12-2-56-19 #82576:     WELL
 FLD .                                                :     FIELD
 LOC .                                                :     LOCATION
 CNTY.                                                :     COUNTY
 STAT.                                                :     STATE
 CTRY.                                                :     COUNTRY
 SRVC.                                                :     SERVICE COMPANY
 DATE.                                      03/28/2025:     DATE
 API .                                100120205619W500:     API NUMBER
 UWI .                                100120205619W500:     UWI NUMBER
 TVD .                                              NO:     TVD flag
 WSTA.                                             LOC:     Well status
#
~Curve Information Block
#MNEM.UNIT       API CODE      Curve Description
#----------    -------------   -------------------
 DEPT.M                    :   Depth in Meters
 GR  .GAPI     35 310 01 01:   Gamma Ray
 CALI.mm       70 280 01 01:   Caliper
 RHOB.kg/m3     42 350 01 01:   Bulk Density
#
~Parameter Information Block
#MNEM.UNIT            Value               Description
#----------    --------------------    -------------------
 RUN .                         ONE:    Run Number
 PDAT.                         UNK:    Permanent Datum
 EPD .M                 -9999.5000:    Elevation Of Perm. Datum
 WSTA.                         LOC:    
 TD  .M                  2200.0000:    Total Depth
#
~Other Information Block
<DescLogPlotStart>   NEURALOG PLOT DEFINITION
PLOTDEFVERSION: 3
LASFILE: C:\Users\wadet\Desktop\Alphabow Evaluation\well_info\second_white_spec
DEPTHSCALE: 240.000000
RESOLUTION: 200
DEPTHLABELFREQ: 50.000000
HEAVYGRIDFREQ: 50.000000
MEDIUMGRIDFREQ: 25.000000
LIGHTGRIDFREQ: 5.000000
#
#   TRACK 1
#
STARTTRACK: 
 LEFTX: 0.500000 inch
 RIGHTX: 3.000000 inch
 SCALETYPE: Linear
 NUMCHARTDIVISIONS: 9
CURVE: GR    0.000000   150.000000 (0,0,255)      Solid             2     N    
CURVE: CALI  125.000000 375.000000 (0,131,131)    Dot               2     N    
ENDTRACK: 
#
#   TRACK 2
#
STARTTRACK: 
 LEFTX: 3.500000 inch
 RIGHTX: 8.500000 inch
 SCALETYPE: Linear
 NUMCHARTDIVISIONS: 10
CURVE: RHOB  2000.000000 3000.000000 (255,0,255)    Solid             2     N  
ENDTRACK: 
<DescLogPlotEnd>
~A DEPTH     GR               CALI             RHOB            
# ...
   1952.4000 104.14358030     280.75534673     2327.01183385   
   1952.5524 105.86497061     278.52060062     2290.48358437   
   1952.7048 106.83641511     275.65877936     2340.80602773   
   1952.8572 107.62174183     272.14558449     2426.37449987   
   1953.0096 108.52102447     269.40771154     2512.20942845   
   1953.1620 109.01311605     267.10964699     2604.37117208   
   1953.3144 109.56246534     263.43785278     2599.75843371   
   1953.4668 112.18811488     260.06607494     2620.54030456   
   1953.6192 115.73217254     260.48281097     2623.98550385   
   1953.7716 119.12923171     260.97711294     2585.78526512   
   1953.9240 120.93782354     261.45987666     2547.33492630   
   1954.0764 120.73463218     261.93403092     2519.98471384   
   1954.2288 119.53152410     262.36470305     2493.00754973   
   1954.3812 118.03315463     265.41798909     2466.69121912   
   1954.5336 117.31451771     269.38445765     2429.74187630   
   1954.6860 117.62442673     272.49431134     2393.92665720   
   1954.8384 117.19920430     269.74482868     2358.82141563   
   1954.9908 116.41224657     267.10875171     2338.87359583   
   1955.1432 115.45012122     264.65279570     2337.20462307   
   1955.2956 115.45711561     259.19271284     2379.91865639   
   1955.4480 116.19582875     255.01001553     2421.65590684   
   1955.6004 116.39172973     256.16757349     2463.47319954   
   1955.7528 110.04855095     257.18224158     2490.07678546   
   1955.9052 89.95938308      257.56837594     2487.41778009   
   1956.0576 89.08648720      255.93105573     2490.00815893   
   1956.2100 64.00662036      254.35038068     2508.27742848   
   1956.3624 67.24782236      252.77581056     2553.53095389   
   1956.5148 68.97179085      251.19808985     2590.28064785   
   1956.6672 74.16075055      249.61994971     2599.61903557   
   1956.8196 74.66924487      248.04004414     2593.29211559   
   1956.9720 75.25537194      246.46315497     2604.34389352   
   1957.1244 77.34933271      244.92711848     2623.76104931   
   1957.2768 80.68824831      243.22211331     2630.80524221   
   1957.4292 80.67363784      241.55838784     2607.90633893   
   1957.5816 78.38711793      239.88307739     2562.97363905   
   1957.7340 75.96994811      238.57384668     2525.91542304   
   1957.8864 76.04396119      237.37074179     2537.54777006   
   1958.0388 76.63741744      236.16916426     2585.20972217   
   1958.1912 78.02355314      234.97295213     2619.11004545   
   1958.3436 80.40211883      233.78163457     2590.50042310   
   1958.4960 87.07955304      232.57439989     2566.44104576   
   1958.6484 94.10452621      232.33766839     2599.04039036   
   1958.8008 97.60111521      232.34706224     2674.84299018   
   1958.9532 95.59115494      233.78204071     2654.90812484   
   1959.1056 88.28001224      238.15526637     2620.63057978   
   1959.2580 82.41065745      244.49516811     2585.45811058   
   1959.4104 81.55560360      250.17920620     2555.21667049   
   1959.5628 83.44807085      255.20302482     2530.46082741   
   1959.7152 85.35553609      254.06078633     2506.09069879   
   1959.8676 86.43894836      252.50934779     2485.38447257   
   1960.0200 86.64799576      244.57224069     2548.22655536   
   1960.1724 86.91512448      237.72977147     2607.27658816   
   1960.3248 88.11945519      237.81484651     2667.20019993   
   1960.4772 90.25087295      237.72554070     2725.15346160   
   1960.6296 94.92483318      237.59711153     2765.54937380   
   1960.7820 98.12701798      237.45452954     2748.38888599   
   1960.9344 98.71320410      238.44448799     2692.66020349   
   1961.0868 97.77832460      239.72890287     2696.10697652   
   1961.2392 97.95171226      241.69135715     2725.09704360   
   1961.3916 99.97866330      243.68449735     2762.27438737   
   1961.5440 103.17586302     245.22901354     2747.28835849   
   1961.6964 105.51910813     245.44864167     2695.90518918   
   1961.8488 106.97514971     245.69285457     2637.76255830   
   1962.0012 107.19842174     245.94001501     2610.07513347   
   1962.1536 107.71724954     246.18553864     2599.62174784   
   1962.3060 108.92586127     246.43131421     2613.85399381   
   1962.4584 110.36561800     246.67586260     2641.97395718   
   1962.6108 110.22321611     246.91504698     2651.88463799   
   1962.7632 107.41224645     247.19771715     2628.64697260   
   1962.9156 102.21304144     249.11441680     2583.08326461   
   1963.0680 96.68040976      251.31661422     2555.18865682   
   1963.2204 93.92729754      248.63641742     2537.16893420   
   1963.3728 94.97117519      247.09761487     2546.15028949   
   1963.5252 99.04041639      246.90001682     2573.81156967   
   1963.6776 103.18455614     246.71803209     2598.62751974   
   1963.8300 105.14227234     246.54153168     2601.10873781   
   1963.9824 105.94816055     246.37005898     2595.70667215   
   1964.1348 105.92114672     246.23354397     2596.42060827   
   1964.2872 104.92956470     244.83485046     2606.82441534   
   1964.4396 104.63409094     243.17610308     2623.03650670   
   1964.5920 105.29171833     241.65230121     2628.18373557   
   1964.7444 106.16253608     243.51315200     2626.16904910   
   1964.8968 105.59117886     245.50077693     2619.36860685   
   1965.0492 104.45846711     247.46614639     2613.89220996   
   1965.2016 104.38528091     250.24076412     2609.15322420   
   1965.3540 105.31588167     253.41553264     2599.51707907   
   1965.5064 105.91187421     255.39372237     2583.51550873   
   1965.6588 107.06228736     252.64084621     2580.69630688   
   1965.8112 106.30715781     248.96396848     2599.58692785   
   1965.9636 104.50411327     246.86899206     2628.59862839   
   1966.1160 100.41156807     245.52920875     2646.63981899   
   1966.2684 98.39150615      244.23361972     2647.74037131   
   1966.4208 98.45106609      243.15091180     2632.36752821   
   1966.5732 98.87848255      243.61894234     2620.86334388   
   1966.7256 100.70341738     244.10778570     2608.05300153   
   1966.8780 102.56746470     244.62337043     2597.81155641   
   1967.0304 103.90732354     245.67250759     2598.59939457   
   1967.1828 104.37892993     246.49190116     2598.72545166   
   1967.3352 104.96832336     245.04823318     2591.81055620   
   1967.4876 107.38100858     243.58909976     2691.22392667   
   1967.6400 110.29850380     242.88863314     2672.82191243   
   1967.7924 111.53539156     244.12423834     2673.51481483   
   1967.9448 111.64537101     245.41430075     2654.90197043   
   1968.0972 112.29393338     247.49084827     2602.90846653   
   1968.2496 113.04464775     250.70292565     2586.86797811   
   1968.4020 113.28863970     254.04729116     2618.23102722   
   1968.5544 112.92105735     257.02887260     2655.93718998   
   1968.7068 113.67640657     257.83465581     2633.95661969   
   1968.8592 113.86687085     258.68047289     2601.70724097   
   1969.0116 113.68043614     255.62923742     2573.72442546   
   1969.1640 112.69996832     251.33539004     2553.26180863   
   1969.3164 112.34667834     247.87874585     2530.53247109   
   1969.4688 110.84139658     250.14332089     2523.25802981   
   1969.6212 110.18080451     252.85096583     2555.13106227   
   1969.7736 111.34504412     255.27575789     2617.95668228   
   1969.9260 114.07731092     253.89112604     2607.55043427   
   1970.0784 116.41577288     252.42655166     2548.16389471   
   1970.2308 116.89846038     251.96702257     2563.40223029   
   1970.3832 116.06236997     252.27669375     2410.06932874   
   1970.5356 115.77962517     254.60301078     2414.69750920   
   1970.6880 115.69134807     257.24683411     2444.29273510   
   1970.8404 115.16266404     259.79087300     2446.61245615   
   1970.9928 114.35361166     262.22530244     2434.14506510   
   1971.1452 113.86970218     264.64747872     2421.64857917   
   1971.2976 115.80955232     264.75938174     2434.53178804   
