~Version Information Block
 VERS.                2.00:     CWLS LOG ASCII STANDARD - VERSION 2.000000
 WRAP.                  NO:     One Line Per Depth Step
#
~Well Information Block
#MNEM.UNIT                     Data                         Information
#----------   ------------------------------------------   ----------------
 STRT.M                                      1800.0000:     START DEPTH
 STOP.M                                      2199.8976:     STOP DEPTH
 STEP.M                                         0.1524:     STEP
 NULL.                                       -999.2500:     NULL VALUE
 COMP.                                        Alphabow:     COMPANY
 WELL.                   SOC PINE CK 12-2-56-19 #82576:     WELL
 FLD .                                                :     FIELD
 LOC .                                                :     LOCATION
 CNTY.                                                :     COUNTY
 STAT.                                                :     STATE
 CTRY.                                                :     COUNTRY
 SRVC.                                                :     SERVICE COMPANY
 DATE.                                      03/28/2025:     DATE
 API .                                100120205619W500:     API NUMBER
 UWI .                                100120205619W500:     UWI NUMBER
 TVD .                                              NO:     TVD flag
 WSTA.                                             LOC:     Well status
#
~Curve Information Block
#MNEM.UNIT       API CODE      Curve Description
#----------    -------------   -------------------
 DEPT.M                    :   Depth in Meters
 GR  .GAPI     35 310 01 01:   Gamma Ray
 CALI.mm       70 280 01 01:   Caliper
 RHOB.kg/m3     42 350 01 01:   Bulk Density
#
~Parameter Information Block
#MNEM.UNIT            Value               Description
#----------    --------------------    -------------------
 RUN .                         ONE:    Run Number
 PDAT.                         UNK:    Permanent Datum
 EPD .M                 -9999.5000:    Elevation Of Perm. Datum
 WSTA.                         LOC:    
 TD  .M                  2200.0000:    Total Depth
#
~Other Information Block
<DescLogPlotStart>   NEURALOG PLOT DEFINITION
PLOTDEFVERSION: 3
LASFILE: C:\Users\wadet\Desktop\Alphabow Evaluation\well_info\second_white_spec
DEPTHSCALE: 240.000000
RESOLUTION: 200
DEPTHLABELFREQ: 50.000000
HEAVYGRIDFREQ: 50.000000
MEDIUMGRIDFREQ: 25.000000
LIGHTGRIDFREQ: 5.000000
#
#   TRACK 1
#
STARTTRACK: 
 LEFTX: 0.500000 inch
 RIGHTX: 3.000000 inch
 SCALETYPE: Linear
 NUMCHARTDIVISIONS: 9
CURVE: GR    0.000000   150.000000 (0,0,255)      Solid             2     N    
CURVE: CALI  125.000000 375.000000 (0,131,131)    Dot               2     N    
ENDTRACK: 
#
#   TRACK 2
#
STARTTRACK: 
 LEFTX: 3.500000 inch
 RIGHTX: 8.500000 inch
 SCALETYPE: Linear
 NUMCHARTDIVISIONS: 10
CURVE: RHOB  2000.000000 3000.000000 (255,0,255)    Solid             2     N  
ENDTRACK: 
<DescLogPlotEnd>
~A DEPTH     GR               CALI             RHOB            
# ...
   2028.6000 127.77885554     255.41024312     2400.53260052   
   2028.7524 128.94145014     257.82965064     2429.22478960   
   2028.9048 128.69690466     257.25325482     2443.52483777   
   2029.0572 128.80583531     254.20479602     2419.37915437   
   2029.2096 129.89108546     250.79189040     2385.54900590   
   2029.3620 130.58912714     239.34496913     2378.73217097   
   2029.5144 130.20263284     237.16190811     2446.43727627   
   2029.6668 129.17119776     236.66375465     2489.64685310   
   2029.8192 128.95615176     242.37106957     2444.30715211   
   2029.9716 128.93733481     245.25808257     2455.70438359   
   2030.1240 127.81336287     245.59154807     2499.46983713   
   2030.2764 124.99279421     247.13644132     2531.41937016   
   2030.4288 120.75230182     248.86339877     2475.54543235   
   2030.5812 118.79881843     250.57804648     2420.67388395   
   2030.7336 118.08232550     252.27985458     2333.69800185   
   2030.8860 116.09809308     252.03138265     2343.31121460   
   2031.0384 114.08258936     248.88729166     2366.78533095   
   2031.1908 112.56244357     245.77442629     2390.86920443   
   2031.3432 113.55905954     242.65483969     2415.06543022   
   2031.4956 114.48482415     239.10813758     2439.19833206   
   2031.6480 114.47162051     235.41096151     2463.36517589   
   2031.8004 113.61326620     233.83492540     2487.53201972   
   2031.9528 113.57479415     237.57966258     2511.70274883   
   2032.1052 113.94239884     241.23608493     2535.83744641   
   2032.2576 114.99720792     241.33139852     2560.15793590   
   2032.4100 116.38835536     240.41933405     2586.13483697   
   2032.5624 117.26007388     239.46938093     2592.81309729   
   2032.7148 116.67106582     238.51538066     2570.54501043   
   2032.8672 116.69859390     237.57842579     2555.53375977   
   2033.0196 117.91344724     238.07718301     2602.24650007   
   2033.1720 119.98897301     238.78745113     2655.26120859   
   2033.3244 120.62763742     239.58473942     2667.46557492   
   2033.4768 120.64481776     242.36242827     2627.54902059   
   2033.6292 120.66006742     245.14020548     2564.83894959   
   2033.7816 120.57097714     247.37598254     2510.80323507   
   2033.9340 119.33329351     248.95570814     2495.37451107   
   2034.0864 116.81915153     250.49923755     2521.07327277   
   2034.2388 116.28618500     251.07225591     2565.03275591   
   2034.3912 116.80333960     246.81796085     2604.73217752   
   2034.5436 117.93523638     242.63364289     2599.28601922   
   2034.6960 117.88550570     239.34473547     2578.49029629   
   2034.8484 117.52315278     236.12723238     2558.84397727   
   2035.0008 116.01946435     235.60182532     2556.35799974   
   2035.1532 113.35453837     235.80932008     2580.77349008   
   2035.3056 109.98303961     237.38051571     2584.06980209   
   2035.4580 110.13684594     240.21158355     2538.55351362   
   2035.6104 114.34198409     242.22194096     2463.41218248   
   2035.7628 118.18180489     243.50544345     2468.60030032   
   2035.9152 120.88833337     244.44401791     2496.82252283   
   2036.0676 122.86542961     243.20989522     2523.51344036   
   2036.2200 123.98876977     241.91844080     2556.21018065   
   2036.3724 122.88330613     240.61358177     2601.56565273   
   2036.5248 119.23883387     239.61005969     2652.92409979   
   2036.6772 114.35866846     240.59093061     2662.87571756   
   2036.8296 111.65647750     241.53961967     2621.57786708   
   2036.9820 110.87515864     242.47705269     2594.29952831   
   2037.1344 113.09731754     243.42163082     2584.82670389   
   2037.2868 114.94493599     244.41058039     2595.81931588   
   2037.4392 115.11962258     243.63271059     2608.30319966   
   2037.5916 115.17055815     242.33531169     2622.67361152   
   2037.7440 115.46793797     240.81401413     2628.06025033   
   2037.8964 115.75700196     234.61394968     2622.29803949   
   2038.0488 114.22413333     231.11494983     2614.84613116   
   2038.2012 113.94908088     232.18472186     2614.94848851   
   2038.3536 115.99883423     238.34085035     2604.63625225   
   2038.5060 119.41660794     241.28123931     2572.11755363   
   2038.6584 120.95603089     244.09570291     2535.78277321   
   2038.8108 121.30912810     245.54636436     2518.37980421   
   2038.9632 121.55577952     242.96609996     2505.72303386   
   2039.1156 124.89653646     240.48254745     2493.53502642   
   2039.2680 127.70363986     238.09769061     2505.85179916   
   2039.4204 127.26428097     240.08573095     2555.49419205   
   2039.5728 123.40845573     242.32258981     2602.97942996   
   2039.7252 117.05308612     244.31504629     2618.20150356   
   2039.8776 113.58535509     245.04619679     2614.39549853   
   2040.0300 113.08297978     245.83534731     2598.01506186   
   2040.1824 112.59371718     246.60984768     2577.68625686   
   2040.3348 112.40133705     243.92743965     2557.44615129   
   2040.4872 113.86143438     240.76663078     2550.34571776   
   2040.6396 116.05725560     241.27555397     2552.96178259   
   2040.7920 116.91540775     242.94127877     2556.98798865   
   2040.9444 115.23861942     244.02313667     2551.75432681   
   2041.0968 112.65613705     243.63912450     2543.84974382   
   2041.2492 111.75034497     243.28852933     2539.63514390   
   2041.4016 113.97855079     242.94001731     2536.46233864   
   2041.5540 117.59870380     242.58932010     2523.62909633   
   2041.7064 120.62522464     242.23853526     2505.15980903   
   2041.8588 121.32135468     241.88775041     2503.73328385   
   2042.0112 119.16746385     241.53696557     2511.37943765   
   2042.1636 115.71260794     241.18618073     2523.23063761   
   2042.3160 115.39922386     240.83541221     2528.66941362   
   2042.4684 117.63818981     240.48388748     2538.31811301   
   2042.6208 119.32138547     240.13106037     2557.70531875   
   2042.7732 119.41479258     239.79122279     2573.59633687   
   2042.9256 119.74908683     239.79581198     2571.64454411   
   2043.0780 121.96416022     241.52244071     2565.22305950   
   2043.2304 123.85254000     243.09892646     2564.26072709   
   2043.3828 124.93019005     243.86523669     2574.33754352   
   2043.5352 124.64500390     244.61061976     2578.77131257   
   2043.6876 123.40684180     246.04048427     2550.10733278   
   2043.8400 120.89272661     249.98379002     2512.00553193   
   2043.9924 119.50857698     252.86425884     2499.19774489   
   2044.1448 117.29101210     251.47433062     2540.77620805   
   2044.2972 117.88321349     245.33538491     2585.92598841   
   2044.4496 118.85827203     243.13706409     2606.61246142   
   2044.6020 119.40444890     242.32257430     2603.61470176   
   2044.7544 119.24692856     241.60197353     2588.53576108   
   2044.9068 118.16696550     241.79237846     2571.18749261   
   2045.0592 116.58288539     244.89917867     2577.93658673   
   2045.2116 115.36141009     247.95030283     2600.15916187   
   2045.3640 115.37957092     251.27786836     2626.68319119   
   2045.5164 116.03255588     248.56953104     2599.39616741   
   2045.6688 117.27360844     245.01476882     2552.48908895   
   2045.8212 119.42767980     243.22543599     2540.17790480   
   2045.9736 120.06996281     241.96985078     2554.47556402   
   2046.1260 120.27969271     240.73608513     2556.31110639   
   2046.2784 120.33550270     242.30128700     2552.43361416   
   2046.4308 120.34491939     247.43420348     2522.72485053   
   2046.5832 120.33557007     248.93214000     2478.20559670   
   2046.7356 120.23347373     247.53125334     2451.06880927   
   2046.8880 118.67404337     246.21803941     2457.81438695   
   2047.0404 121.33360048     246.82483968     2497.64518503   
   2047.1928 124.08652566     247.50341941     2542.98998776   
   2047.3452 122.61022628     248.31920913     2559.39852210   
   2047.4976 119.67700747     252.10680005     2551.62495786   
