~Version Information Block
 VERS.                2.00:     CWLS LOG ASCII STANDARD - VERSION 2.000000
 WRAP.                  NO:     One Line Per Depth Step
#
~Well Information Block
#MNEM.UNIT                     Data                         Information
#----------   ------------------------------------------   ----------------
 STRT.M                                      1800.0000:     START DEPTH
 STOP.M                                      2199.8976:     STOP DEPTH
 STEP.M                                         0.1524:     STEP
 NULL.                                       -999.2500:     NULL VALUE
 COMP.                                        Alphabow:     COMPANY
 WELL.                   SOC PINE CK 12-2-56-19 #82576:     WELL
 FLD .                                                :     FIELD
 LOC .                                                :     LOCATION
 CNTY.                                                :     COUNTY
 STAT.                                                :     STATE
 CTRY.                                                :     COUNTRY
 SRVC.                                                :     SERVICE COMPANY
 DATE.                                      03/28/2025:     DATE
 API .                                100120205619W500:     API NUMBER
 UWI .                                100120205619W500:     UWI NUMBER
 TVD .                                              NO:     TVD flag
 WSTA.                                             LOC:     Well status
#
~Curve Information Block
#MNEM.UNIT       API CODE      Curve Description
#----------    -------------   -------------------
 DEPT.M                    :   Depth in Meters
 GR  .GAPI     35 310 01 01:   Gamma Ray
 CALI.mm       70 280 01 01:   Caliper
 RHOB.kg/m3     42 350 01 01:   Bulk Density
#
~Parameter Information Block
#MNEM.UNIT            Value               Description
#----------    --------------------    -------------------
 RUN .                         ONE:    Run Number
 PDAT.                         UNK:    Permanent Datum
 EPD .M                 -9999.5000:    Elevation Of Perm. Datum
 WSTA.                         LOC:    
 TD  .M                  2200.0000:    Total Depth
#
~Other Information Block
<DescLogPlotStart>   NEURALOG PLOT DEFINITION
PLOTDEFVERSION: 3
LASFILE: C:\Users\wadet\Desktop\Alphabow Evaluation\well_info\second_white_spec
DEPTHSCALE: 240.000000
RESOLUTION: 200
DEPTHLABELFREQ: 50.000000
HEAVYGRIDFREQ: 50.000000
MEDIUMGRIDFREQ: 25.000000
LIGHTGRIDFREQ: 5.000000
#
#   TRACK 1
#
STARTTRACK: 
 LEFTX: 0.500000 inch
 RIGHTX: 3.000000 inch
 SCALETYPE: Linear
 NUMCHARTDIVISIONS: 9
CURVE: GR    0.000000   150.000000 (0,0,255)      Solid             2     N    
CURVE: CALI  125.000000 375.000000 (0,131,131)    Dot               2     N    
ENDTRACK: 
#
#   TRACK 2
#
STARTTRACK: 
 LEFTX: 3.500000 inch
 RIGHTX: 8.500000 inch
 SCALETYPE: Linear
 NUMCHARTDIVISIONS: 10
CURVE: RHOB  2000.000000 3000.000000 (255,0,255)    Solid             2     N  
ENDTRACK: 
<DescLogPlotEnd>
~A DEPTH     GR               CALI             RHOB            
# ...
   2123.8500 137.15036805     219.50651732     2684.02404382   
   2124.0024 135.71149486     219.52452429     2686.18812378   
   2124.1548 135.06149543     219.46609078     2690.10313487   
   2124.3072 133.07712184     221.01146060     2686.48162489   
   2124.4596 131.59247718     222.74996417     2680.76642603   
   2124.6120 131.45203511     222.12409457     2683.31671532   
   2124.7644 131.10617518     219.92050599     2695.54792417   
   2124.9168 129.50730798     219.82255416     2702.59956267   
   2125.0692 125.94666200     219.66355845     2698.19368550   
   2125.2216 122.77287047     219.55932580     2693.18509861   
   2125.3740 121.26493543     219.85022473     2697.08747710   
   2125.5264 122.80365721     220.13898968     2702.74545977   
   2125.6788 127.08967959     220.42637104     2702.32548641   
   2125.8312 130.16059502     220.77527093     2691.26041227   
   2125.9836 131.21153657     221.16563756     2679.53064720   
   2126.1360 131.64661446     221.56270362     2674.69191984   
   2126.2884 132.46998569     221.94155489     2682.16910048   
   2126.4408 133.48805920     222.32578889     2690.49164034   
   2126.5932 134.10195735     222.71052462     2697.42586536   
   2126.7456 132.91926708     223.09544616     2695.92481138   
   2126.8980 131.80513200     223.48032199     2688.81450634   
   2127.0504 131.21339371     223.86516559     2688.28505721   
   2127.2028 132.00576349     224.24905772     2694.74226321   
   2127.3552 132.98396305     224.63391741     2698.64093230   
   2127.5076 131.81836042     225.03679691     2696.98645021   
   2127.6600 129.93623042     225.03094562     2694.43335205   
   2127.8124 130.73160284     224.85615336     2698.70538666   
   2127.9648 134.77752014     224.67574377     2703.54216353   
   2128.1172 138.79593108     224.49506173     2707.89372563   
   2128.2696 139.25670388     224.31470763     2708.63178695   
   2128.4220 135.56154186     224.13434575     2702.34457229   
   2128.5744 132.83633467     223.95383722     2700.25260495   
   2128.7268 131.39793762     223.77381646     2705.49263500   
   2128.8792 130.83029391     223.61738685     2718.36097876   
   2129.0316 131.46960696     223.61635776     2722.98849380   
   2129.1840 133.63049946     223.61685805     2714.39451881   
   2129.3364 134.50025269     223.61674632     2701.87516652   
   2129.4888 133.77191307     223.61579804     2695.82901040   
   2129.6412 130.00071326     223.61667588     2688.39666280   
   2129.7936 126.69273729     223.63142903     2678.07115915   
   2129.9460 126.78090118     223.04587564     2667.46529993   
   2130.0984 130.40282166     222.28554720     2661.83429378   
   2130.2508 134.38741860     221.51826122     2661.46894463   
   2130.4032 136.07206099     220.75033720     2669.51801543   
   2130.5556 136.04775452     220.04727110     2676.71963643   
   2130.7080 135.08346958     220.11100320     2677.97588572   
   2130.8604 132.53352921     220.19373836     2678.00302079   
   2131.0128 129.57799486     220.27361625     2684.40953276   
   2131.1652 127.30105064     220.35365372     2684.00066663   
   2131.3176 126.21874231     220.43532865     2686.12842560   
   2131.4700 127.48510355     220.50498089     2687.87633741   
   2131.6224 130.95813933     221.39240026     2688.14918608   
   2131.7748 134.68374426     222.77770318     2688.40108517   
   2131.9272 137.37255579     223.39510377     2689.94925004   
   2132.0796 140.79308799     222.87578876     2689.59484077   
   2132.2320 141.59945396     222.38044037     2687.93104754   
   2132.3844 139.77919299     221.87939838     2682.90737295   
   2132.5368 136.36477261     223.66183799     2679.86238309   
   2132.6892 134.05953451     228.33039569     2681.85723523   
   2132.8416 130.94311149     234.04173896     2695.11041276   
   2132.9940 127.01342147     227.58375899     2728.33307997   
   2133.1464 121.81488226     220.37875896     2769.65184209   
   2133.2988 120.27408167     220.58572524     2762.57750781   
   2133.4512 122.49342610     220.61661280     2748.53608773   
   2133.6036 127.90509157     220.63176387     2734.53270582   
   2133.7560 131.61126878     220.65744423     2716.21306869   
   2133.9084 133.73822803     220.68427182     2704.51050420   
   2134.0608 134.71904984     220.71109940     2699.70586411   
   2134.2132 135.72090422     220.73792698     2694.14519044   
   2134.3656 137.33860795     220.76475457     2688.02975902   
   2134.5180 136.07991545     220.79158215     2683.37575802   
   2134.6704 134.84287664     220.81840974     2682.01005527   
   2134.8228 134.77395331     220.84523732     2685.33036301   
   2134.9752 135.41052713     220.87206491     2686.69992413   
   2135.1276 134.50703455     220.89889249     2682.77385897   
   2135.2800 132.14578214     220.92572008     2678.83097514   
   2135.4324 129.87010489     220.95254766     2676.89957655   
   2135.5848 127.70017983     220.97937525     2678.80083460   
   2135.7372 125.34644040     221.00620283     2681.07234426   
   2135.8896 123.79754945     221.03303041     2680.69028872   
   2136.0420 124.35887080     221.05985800     2678.81950988   
   2136.1944 126.94352081     221.08668558     2674.71180463   
   2136.3468 130.31031836     221.11351317     2666.67658415   
   2136.4992 132.36565131     221.14034075     2658.85932016   
   2136.6516 132.86990852     221.16716834     2653.82673529   
   2136.8040 130.81583744     221.19399592     2656.97667532   
   2136.9564 122.80502679     221.22082351     2683.70525282   
   2137.1088 110.86089014     221.24765109     2730.46494173   
   2137.2612 100.28973633     221.27447868     2751.11396311   
   2137.4136 96.01909650      221.30130626     2746.19517586   
   2137.5660 101.64409489     221.32813384     2797.00158845   
   2137.7184 113.37368287     221.35496143     2781.63706352   
   2137.8708 121.78317890     221.38178901     2767.61263721   
   2138.0232 125.77229358     221.40861660     2751.89560805   
   2138.1756 128.67059020     221.43544418     2730.50047337   
   2138.3280 131.80659993     221.46227177     2706.25463287   
   2138.4804 137.25644644     221.48909769     2689.00960777   
   2138.6328 140.80664660     221.51595268     2679.29851333   
   2138.7852 140.52050931     221.54280440     2682.32293641   
   2138.9376 136.12362702     221.56723722     2697.36245344   
   2139.0900 132.60691495     221.56772105     2701.69719526   
   2139.2424 134.82929315     221.56762839     2697.00289676   
   2139.3948 138.33266362     221.56761637     2690.05357718   
   2139.5472 139.55611571     221.56762295     2689.05102040   
   2139.6996 140.04547580     221.56762295     2686.94340434   
   2139.8520 139.09270802     221.56762295     2683.92424170   
   2140.0044 137.76733682     221.56762295     2682.62686821   
   2140.1568 135.93275153     221.56762295     2681.36013777   
   2140.3092 135.72910546     221.56761825     2676.33942728   
   2140.4616 135.03495771     221.56760950     2670.74195098   
   2140.6140 132.77928596     221.56767042     2673.54193523   
   2140.7664 130.56928146     221.56794634     2678.12105135   
   2140.9188 128.92692612     221.58762560     2677.75288043   
   2141.0712 129.96269566     221.64485796     2675.60632291   
   2141.2236 131.20179678     221.70146119     2674.00799180   
   2141.3760 131.79486875     221.75806117     2677.93345866   
   2141.5284 132.06835781     221.81470657     2684.29210246   
   2141.6808 132.86098491     221.87135445     2688.71364369   
   2141.8332 134.71202065     221.92798729     2687.20192999   
   2141.9856 136.40221187     221.98458640     2724.97692410   
   2142.1380 138.40412450     222.04132759     2669.40036213   
   2142.2904 139.36081911     222.09218216     2672.98374002   
   2142.4428 140.00542261     222.13324186     2679.06466149   
   2142.5952 139.99962606     222.17371297     2685.21842089   
   2142.7476 140.40633516     222.21414583     2691.30699017   
