~Version Information Block
 VERS.                2.00:     CWLS LOG ASCII STANDARD - VERSION 2.000000
 WRAP.                  NO:     One Line Per Depth Step
#
~Well Information Block
#MNEM.UNIT                     Data                         Information
#----------   ------------------------------------------   ----------------
 STRT.M                                      1800.0000:     START DEPTH
 STOP.M                                      2199.8976:     STOP DEPTH
 STEP.M                                         0.1524:     STEP
 NULL.                                       -999.2500:     NULL VALUE
 COMP.                                        Alphabow:     COMPANY
 WELL.                   SOC PINE CK 12-2-56-19 #82576:     WELL
 FLD .                                                :     FIELD
 LOC .                                                :     LOCATION
 CNTY.                                                :     COUNTY
 STAT.                                                :     STATE
 CTRY.                                                :     COUNTRY
 SRVC.                                                :     SERVICE COMPANY
 DATE.                                      03/28/2025:     DATE
 API .                                100120205619W500:     API NUMBER
 UWI .                                100120205619W500:     UWI NUMBER
 TVD .                                              NO:     TVD flag
 WSTA.                                             LOC:     Well status
#
~Curve Information Block
#MNEM.UNIT       API CODE      Curve Description
#----------    -------------   -------------------
 DEPT.M                    :   Depth in Meters
 GR  .GAPI     35 310 01 01:   Gamma Ray
 CALI.mm       70 280 01 01:   Caliper
 RHOB.kg/m3     42 350 01 01:   Bulk Density
#
~Parameter Information Block
#MNEM.UNIT            Value               Description
#----------    --------------------    -------------------
 RUN .                         ONE:    Run Number
 PDAT.                         UNK:    Permanent Datum
 EPD .M                 -9999.5000:    Elevation Of Perm. Datum
 WSTA.                         LOC:    
 TD  .M                  2200.0000:    Total Depth
#
~Other Information Block
<DescLogPlotStart>   NEURALOG PLOT DEFINITION
PLOTDEFVERSION: 3
LASFILE: C:\Users\wadet\Desktop\Alphabow Evaluation\well_info\second_white_spec
DEPTHSCALE: 240.000000
RESOLUTION: 200
DEPTHLABELFREQ: 50.000000
HEAVYGRIDFREQ: 50.000000
MEDIUMGRIDFREQ: 25.000000
LIGHTGRIDFREQ: 5.000000
#
#   TRACK 1
#
STARTTRACK: 
 LEFTX: 0.500000 inch
 RIGHTX: 3.000000 inch
 SCALETYPE: Linear
 NUMCHARTDIVISIONS: 9
CURVE: GR    0.000000   150.000000 (0,0,255)      Solid             2     N    
CURVE: CALI  125.000000 375.000000 (0,131,131)    Dot               2     N    
ENDTRACK: 
#
#   TRACK 2
#
STARTTRACK: 
 LEFTX: 3.500000 inch
 RIGHTX: 8.500000 inch
 SCALETYPE: Linear
 NUMCHARTDIVISIONS: 10
CURVE: RHOB  2000.000000 3000.000000 (255,0,255)    Solid             2     N  
ENDTRACK: 
<DescLogPlotEnd>
~A DEPTH     GR               CALI             RHOB            
# ...
   1857.1500 119.47081709     264.96390765     2533.02604040   
   1857.3024 120.93813456     264.08266207     2477.96999032   
   1857.4548 122.38788458     262.94076543     2473.79200082   
   1857.6072 123.16840294     262.12436844     2531.68959472   
   1857.7596 121.36484182     262.70489031     2600.76768653   
   1857.9120 120.63501919     263.25521799     2632.44883677   
   1858.0644 120.86271094     263.80870196     2602.55824796   
   1858.2168 121.30391346     264.36073558     2602.92168915   
   1858.3692 121.19147286     266.12096181     2703.88157447   
   1858.5216 119.84219357     268.87096759     2695.85385849   
   1858.6740 115.93557187     271.17315232     2703.39204758   
   1858.8264 110.97961158     269.92446477     2707.96504444   
   1858.9788 108.29908001     267.30344972     2675.22671722   
   1859.1312 108.64541269     261.90280810     2699.99044963   
   1859.2836 111.43482206     258.12229525     2691.94086504   
   1859.4360 115.16025041     259.37928905     2662.95457018   
   1859.5884 119.24686381     260.50478064     2625.03022826   
   1859.7408 122.24788447     261.60189215     2626.58683857   
   1859.8932 125.09535263     263.46342374     2634.69671592   
   1860.0456 124.12952757     265.24972499     2627.58393461   
   1860.1980 120.68011962     267.05392540     2614.54661991   
   1860.3504 116.59807048     269.07259161     2618.25734362   
   1860.5028 112.48871752     271.94887892     2638.23010541   
   1860.6552 109.32503036     274.97676322     2661.21628574   
   1860.8076 105.05528413     277.24179375     2677.39112986   
   1860.9600 101.70738203     276.24789664     2709.19806011   
   1861.1124 102.54766088     275.33587341     2756.03038758   
   1861.2648 102.28658452     274.43306425     2771.44634477   
   1861.4172 102.41797496     273.52547157     2747.41903686   
   1861.5696 99.91660155      272.61741823     2720.34259126   
   1861.7220 97.43070657      271.70929584     2714.07341581   
   1861.8744 91.33199775      270.80002200     2715.90204265   
   1862.0268 88.30098758      269.89183527     2716.01902398   
   1862.1792 92.74078568      268.99547567     2717.12512087   
   1862.3316 92.60784815      266.65165121     2717.59560323   
   1862.4840 91.26669193      263.68850690     2724.54533053   
   1862.6364 89.87661814      261.03740351     2740.36760842   
   1862.7888 88.30846657      260.90075699     2747.16739866   
   1862.9412 92.80711584      260.81344276     2724.51024208   
   1863.0936 93.89827322      260.72015560     2712.84821690   
   1863.2460 94.96882920      260.62114265     2702.83239353   
   1863.3984 96.06107154      260.48897875     2701.51707472   
   1863.5508 97.15192729      261.73383772     2703.03270700   
   1863.7032 98.24106684      263.35170805     2699.77374142   
   1863.8556 99.33020639      264.97522774     2704.95862378   
   1864.0080 100.42044173     268.20634872     2710.67928613   
   1864.1604 101.51148075     272.51297671     2725.82075011   
   1864.3128 102.57842467     276.18119895     2726.90785757   
   1864.4652 103.61625858     274.78389344     2712.45007776   
   1864.6176 104.28288764     273.30426469     2656.45435693   
   1864.7700 101.79674014     271.84135170     2606.35543266   
   1864.9224 100.23987162     270.38462249     2614.64018063   
   1865.0748 102.31678773     268.91361944     2652.78059365   
   1865.2272 105.05499568     267.37892798     2700.11597188   
   1865.3796 105.59935466     269.24568192     2742.91551294   
   1865.5320 105.37803076     271.68930917     2756.92231202   
   1865.6844 105.27268763     276.07768005     2750.87873832   
   1865.8368 105.56463907     280.69513997     2752.64439711   
   1865.9892 105.36406860     281.87438195     2768.70218670   
   1866.1416 105.68254980     282.35731238     2776.62921584   
   1866.2940 106.06552233     282.81839539     2748.83823190   
   1866.4464 103.95533587     284.03233700     2724.92429223   
   1866.5988 98.94136977      286.01538595     2723.82907232   
   1866.7512 96.41706959      287.98951447     2726.34871223   
   1866.9036 98.24957769      290.00846983     2728.48863968   
   1867.0560 100.66480179     292.08782836     2726.75841101   
   1867.2084 101.98956701     292.99409283     2717.71881127   
   1867.3608 104.12789286     275.08720963     2694.77390445   
   1867.5132 105.42330125     259.43549940     2665.15970977   
   1867.6656 106.13864507     261.44778029     2639.47080947   
   1867.8180 107.04193739     263.90786502     2631.07576920   
   1867.9704 108.65377782     264.62657945     2643.33891311   
   1868.1228 110.05331258     263.68207131     2665.14300271   
   1868.2752 109.54725946     262.76792771     2675.69864463   
   1868.4276 108.05810479     262.36335133     2683.25642661   
   1868.5800 107.93812406     263.94719629     2702.56118616   
   1868.7324 110.04074381     265.49504476     2720.23634581   
   1868.8848 112.75508726     266.26915543     2709.42440481   
   1869.0372 113.77256240     266.52384557     2697.13812997   
   1869.1896 112.55591597     265.55313117     2707.21948708   
   1869.3420 105.76573582     263.60354636     2738.36816908   
   1869.4944 94.02372730      261.65020469     2742.93937734   
   1869.6468 90.21606559      259.68893189     2727.27947803   
   1869.7992 90.22967882      257.73170971     2697.57451399   
   1869.9516 90.43377924      255.76293262     2670.17924437   
   1870.1040 90.23033169      253.71372808     2627.33440983   
   1870.2564 89.96114398      255.25215306     2580.45951994   
   1870.4088 94.75921870      257.70165071     2598.18222271   
   1870.5612 97.77895220      260.10351432     2644.42458763   
   1870.7136 99.81748825      263.20694904     2682.90494609   
   1870.8660 100.88933455     266.11362786     2669.69303054   
   1871.0184 101.16165963     268.72714065     2630.88400202   
   1871.1708 100.28057217     269.33244935     2604.20015961   
   1871.3232 99.69941245      263.59559329     2618.70081575   
   1871.4756 101.24309312     264.54314196     2662.98653432   
   1871.6280 104.53998891     265.34634961     2704.30919047   
   1871.7804 108.29087558     266.44971588     2718.04788868   
   1871.9328 111.84561256     273.57802706     2710.81236616   
   1872.0852 114.59777064     272.52154775     2695.47567150   
   1872.2376 116.07268002     269.29516881     2683.93325787   
   1872.3900 116.57473284     262.81285623     2689.62363890   
   1872.5424 116.96723586     261.82090690     2701.62152247   
   1872.6948 117.94338609     261.12721467     2699.18677879   
   1872.8472 118.48500760     260.84879724     2673.02671465   
   1872.9996 116.97538155     263.18146660     2655.60621610   
   1873.1520 113.47163596     265.51954154     2639.05061348   
   1873.3044 110.80021766     267.91036907     2625.10357043   
   1873.4568 112.15726371     265.88345062     2605.86310282   
   1873.6092 118.85787057     263.22496730     2615.81407179   
   1873.7616 119.72159668     261.81529727     2663.54269432   
   1873.9140 115.41127036     262.64981522     2712.47009784   
   1874.0664 110.63749136     263.45564257     2727.57589308   
   1874.2188 107.78358907     264.26522376     2704.10476300   
   1874.3712 108.02593117     265.08866413     2673.87563055   
   1874.5236 110.91838123     265.90870151     2665.38604914   
   1874.6760 115.33686430     266.73861745     2668.24280201   
   1874.8284 116.66526810     265.73734934     2615.53537745   
   1874.9808 115.90731858     263.02195188     2626.66952577   
   1875.1332 114.89656601     260.30969796     2644.57572264   
   1875.2856 113.87660375     257.57593137     2651.95146315   
   1875.4380 112.92062992     254.78069493     2651.96052294   
   1875.5904 111.05032253     251.91947284     2652.24496070   
   1875.7428 108.64675662     250.34626655     2652.20522548   
   1875.8952 106.19746685     255.55587070     2652.28570203   
   1876.0476 104.71799583     258.07169311     2650.71636072   
