~Version Information Block
 VERS.                2.00:     CWLS LOG ASCII STANDARD - VERSION 2.000000
 WRAP.                  NO:     One Line Per Depth Step
#
~Well Information Block
#MNEM.UNIT                     Data                         Information
#----------   ------------------------------------------   ----------------
 STRT.M                                      1800.0000:     START DEPTH
 STOP.M                                      2199.8976:     STOP DEPTH
 STEP.M                                         0.1524:     STEP
 NULL.                                       -999.2500:     NULL VALUE
 COMP.                                        Alphabow:     COMPANY
 WELL.                   SOC PINE CK 12-2-56-19 #82576:     WELL
 FLD .                                                :     FIELD
 LOC .                                                :     LOCATION
 CNTY.                                                :     COUNTY
 STAT.                                                :     STATE
 CTRY.                                                :     COUNTRY
 SRVC.                                                :     SERVICE COMPANY
 DATE.                                      03/28/2025:     DATE
 API .                                100120205619W500:     API NUMBER
 UWI .                                100120205619W500:     UWI NUMBER
 TVD .                                              NO:     TVD flag
 WSTA.                                             LOC:     Well status
#
~Curve Information Block
#MNEM.UNIT       API CODE      Curve Description
#----------    -------------   -------------------
 DEPT.M                    :   Depth in Meters
 GR  .GAPI     35 310 01 01:   Gamma Ray
 CALI.mm       70 280 01 01:   Caliper
 RHOB.kg/m3     42 350 01 01:   Bulk Density
#
~Parameter Information Block
#MNEM.UNIT            Value               Description
#----------    --------------------    -------------------
 RUN .                         ONE:    Run Number
 PDAT.                         UNK:    Permanent Datum
 EPD .M                 -9999.5000:    Elevation Of Perm. Datum
 WSTA.                         LOC:    
 TD  .M                  2200.0000:    Total Depth
#
~Other Information Block
<DescLogPlotStart>   NEURALOG PLOT DEFINITION
PLOTDEFVERSION: 3
LASFILE: C:\Users\wadet\Desktop\Alphabow Evaluation\well_info\second_white_spec
DEPTHSCALE: 240.000000
RESOLUTION: 200
DEPTHLABELFREQ: 50.000000
HEAVYGRIDFREQ: 50.000000
MEDIUMGRIDFREQ: 25.000000
LIGHTGRIDFREQ: 5.000000
#
#   TRACK 1
#
STARTTRACK: 
 LEFTX: 0.500000 inch
 RIGHTX: 3.000000 inch
 SCALETYPE: Linear
 NUMCHARTDIVISIONS: 9
CURVE: GR    0.000000   150.000000 (0,0,255)      Solid             2     N    
CURVE: CALI  125.000000 375.000000 (0,131,131)    Dot               2     N    
ENDTRACK: 
#
#   TRACK 2
#
STARTTRACK: 
 LEFTX: 3.500000 inch
 RIGHTX: 8.500000 inch
 SCALETYPE: Linear
 NUMCHARTDIVISIONS: 10
CURVE: RHOB  2000.000000 3000.000000 (255,0,255)    Solid             2     N  
ENDTRACK: 
<DescLogPlotEnd>
~A DEPTH     GR               CALI             RHOB            
# ...
   1876.2000 102.82403540     259.13342823     2647.50408579   
   1876.3524 102.22247535     260.19252248     2643.48446156   
   1876.5048 103.28703869     261.24692116     2637.81417214   
   1876.6572 105.29518383     262.30133411     2697.23266636   
   1876.8096 105.31326802     263.35612749     2716.73372316   
   1876.9620 103.28189727     264.41092086     2692.77892090   
   1877.1144 100.97298066     265.46571424     2637.00951964   
   1877.2668 100.97348702     266.52050762     2596.62562103   
   1877.4192 102.10597419     267.57457960     2603.35827344   
   1877.5716 102.03404425     268.63040025     2649.65173236   
   1877.7240 98.52865186      269.69653167     2693.90521783   
   1877.8764 91.60030253      270.75886257     2701.90609530   
   1878.0288 90.14259806      273.72097562     2687.35441587   
   1878.1812 92.74189825      278.40507750     2676.90031617   
   1878.3336 92.52148178      276.97536712     2674.62024714   
   1878.4860 97.16595999      274.77773785     2643.87289103   
   1878.6384 105.79676073     272.57124327     2598.16671264   
   1878.7908 115.00032293     270.37083383     2575.91069659   
   1878.9432 120.73119073     268.17581596     2568.65896043   
   1879.0956 121.13843868     265.97421906     2548.25894454   
   1879.2480 119.16879359     263.67738484     2513.21490880   
   1879.4004 117.23047948     263.98152587     2486.54999279   
   1879.5528 117.36992855     265.25994779     2499.33779799   
   1879.7052 117.56167020     266.56048749     2514.29686329   
   1879.8576 117.57804030     267.83290440     2502.67041941   
   1880.0100 118.12457308     266.45619520     2479.68104288   
   1880.1624 119.81364651     260.19174723     2466.49727739   
   1880.3148 121.21139462     253.95817655     2474.73722096   
   1880.4672 121.18748166     249.87388620     2498.68634953   
   1880.6196 119.94891216     245.82825982     2533.07793695   
   1880.7720 116.84523830     247.29391317     2553.21351375   
   1880.9244 115.17563452     249.01478006     2543.24875704   
   1881.0768 117.11560871     250.71825849     2507.01797796   
   1881.2292 121.16203141     252.41267681     2520.19317544   
   1881.3816 124.94227327     254.10663967     2566.95914601   
   1881.5340 125.33109307     255.80524532     2606.38921097   
   1881.6864 121.43480961     257.54152296     2633.24875068   
   1881.8388 119.14116870     257.83208659     2659.69899096   
   1881.9912 118.27386654     257.71328811     2679.70356230   
   1882.1436 119.17197990     257.58731674     2673.06630134   
   1882.2960 118.65163299     257.51431712     2609.56648048   
   1882.4484 116.51939027     255.44282920     2544.67999870   
   1882.6008 114.27323844     252.95274092     2552.18090143   
   1882.7532 112.03228136     250.42481856     2587.79676377   
   1882.9056 109.76730029     248.44223174     2607.59750640   
   1883.0580 107.48435420     253.14748179     2630.60529570   
   1883.2104 105.21143799     258.09365869     2659.68057112   
   1883.3628 105.00263372     264.48932528     2689.72382069   
   1883.5152 107.06122498     268.47506124     2684.19824984   
   1883.6676 110.83130946     270.12244245     2654.58984679   
   1883.8200 113.49716359     271.76816070     2647.64576374   
   1883.9724 113.59962006     273.44807608     2647.24175312   
   1884.1248 112.95556644     275.41399880     2614.70428704   
   1884.2772 113.92685902     263.41595477     2564.18119362   
   1884.4296 116.43019536     259.65745331     2520.51502174   
   1884.5820 117.77552579     256.05822390     2521.59936403   
   1884.7344 117.65927041     257.50206326     2532.02655583   
   1884.8868 117.82084332     260.15665080     2511.04621370   
   1885.0392 118.92131038     262.83942463     2468.91829648   
   1885.1916 120.12569643     265.49012927     2427.02562883   
   1885.3440 120.31768068     267.36515368     2406.65917322   
   1885.4964 120.62214681     269.43978382     2432.16398350   
   1885.6488 121.33680777     265.42592620     2506.18488625   
   1885.8012 120.87958148     260.13442429     2591.56413687   
   1885.9536 119.60583397     258.61947008     2640.86680764   
   1886.1060 119.07991100     257.26326011     2646.79667439   
   1886.2584 118.41181755     255.35933511     2633.37695092   
   1886.4108 116.07220041     252.39762684     2624.28571854   
   1886.5632 111.69382153     249.38082034     2613.22949218   
   1886.7156 110.27429655     250.27715109     2582.48517794   
   1886.8680 111.65758910     251.47659944     2500.93331042   
   1887.0204 114.03130669     252.66834412     2503.78115813   
   1887.1728 116.05868000     253.83410828     2502.65612332   
   1887.3252 116.93615648     254.68214100     2502.63890025   
   1887.4776 117.94231002     255.52048810     2502.60688124   
   1887.6300 119.23753023     256.36656770     2501.98169749   
   1887.7824 118.95842534     256.29458131     2502.50606227   
   1887.9348 118.08181048     256.16506583     2502.56760735   
   1888.0872 117.63662339     256.04268430     2502.58115663   
   1888.2396 118.01460740     255.95136272     2502.57731959   
   1888.3920 119.23865539     254.71740915     2502.57731959   
   1888.5444 120.58604119     253.22115930     2502.57731959   
   1888.6968 121.78016915     251.70766902     2502.57731959   
   1888.8492 122.47052963     250.19603603     2502.57731959   
   1889.0016 121.19978888     248.75489750     2502.57731959   
   1889.1540 120.16031116     249.36488793     2502.57731959   
   1889.3064 117.52988004     255.33372875     2502.57731959   
   1889.4588 114.34027224     255.47676961     2502.57743264   
   1889.6112 111.74412653     254.35571749     2502.57852436   
   1889.7636 111.75478247     253.20043198     2502.57153631   
   1889.9160 113.79309700     252.04905689     2502.58730693   
   1890.0684 114.94566322     250.90045734     2503.28190824   
   1890.2208 114.79108306     249.75111312     2503.75937207   
   1890.3732 115.37466971     248.60254266     2518.28414634   
   1890.5256 119.64824136     247.46552165     2551.75458371   
   1890.6780 124.41342592     246.33669354     2573.86450756   
   1890.8304 125.29022956     246.90452451     2580.06951224   
   1890.9828 122.85349034     249.88442466     2576.88001998   
   1891.1352 119.89011610     252.84428621     2578.88102067   
   1891.2876 117.11654698     255.99197824     2591.32689242   
   1891.4400 113.36311324     260.22349981     2618.66088553   
   1891.5924 111.34708442     264.15179746     2645.22444413   
   1891.7448 109.98340074     266.56794144     2651.27478811   
   1891.8972 110.82440319     268.82267674     2609.49275219   
   1892.0496 113.13089713     270.05014241     2566.19670342   
   1892.2020 115.05576758     270.99880707     2532.89921768   
   1892.3544 115.68408505     273.40826954     2545.39344604   
   1892.5068 117.05791524     276.04619521     2581.53019727   
   1892.6592 119.49933239     276.97474038     2608.18999607   
   1892.8116 121.42612718     273.46482246     2620.05006245   
   1892.9640 123.79753785     270.11217904     2606.03158807   
   1893.1164 124.81622239     266.77340516     2605.18796064   
   1893.2688 123.08530638     263.40261459     2604.60701013   
   1893.4212 121.02098240     260.00035278     2584.98666974   
   1893.5736 120.83021832     257.34887440     2556.83126791   
   1893.7260 121.31444799     266.97785349     2564.61096773   
   1893.8784 119.61099559     278.54155699     2605.39038059   
   1894.0308 117.32587003     276.69719800     2623.30571775   
   1894.1832 115.82643790     271.99517013     2621.20039031   
   1894.3356 117.46180050     265.68858575     2595.35121625   
   1894.4880 119.39951050     261.58691508     2544.56164860   
   1894.6404 117.99079303     257.38792186     2483.24614970   
   1894.7928 116.43637028     257.50567820     2465.28641124   
   1894.9452 114.79247981     258.90381441     2489.06747862   
   1895.0976 114.49942273     260.48749265     2525.49660711   
