~Version Information Block
 VERS.                2.00:     CWLS LOG ASCII STANDARD - VERSION 2.000000
 WRAP.                  NO:     One Line Per Depth Step
#
~Well Information Block
#MNEM.UNIT                     Data                         Information
#----------   ------------------------------------------   ----------------
 STRT.M                                      1800.0000:     START DEPTH
 STOP.M                                      2199.8976:     STOP DEPTH
 STEP.M                                         0.1524:     STEP
 NULL.                                       -999.2500:     NULL VALUE
 COMP.                                        Alphabow:     COMPANY
 WELL.                   SOC PINE CK 12-2-56-19 #82576:     WELL
 FLD .                                                :     FIELD
 LOC .                                                :     LOCATION
 CNTY.                                                :     COUNTY
 STAT.                                                :     STATE
 CTRY.                                                :     COUNTRY
 SRVC.                                                :     SERVICE COMPANY
 DATE.                                      03/28/2025:     DATE
 API .                                100120205619W500:     API NUMBER
 UWI .                                100120205619W500:     UWI NUMBER
 TVD .                                              NO:     TVD flag
 WSTA.                                             LOC:     Well status
#
~Curve Information Block
#MNEM.UNIT       API CODE      Curve Description
#----------    -------------   -------------------
 DEPT.M                    :   Depth in Meters
 GR  .GAPI     35 310 01 01:   Gamma Ray
 CALI.mm       70 280 01 01:   Caliper
 RHOB.kg/m3     42 350 01 01:   Bulk Density
#
~Parameter Information Block
#MNEM.UNIT            Value               Description
#----------    --------------------    -------------------
 RUN .                         ONE:    Run Number
 PDAT.                         UNK:    Permanent Datum
 EPD .M                 -9999.5000:    Elevation Of Perm. Datum
 WSTA.                         LOC:    
 TD  .M                  2200.0000:    Total Depth
#
~Other Information Block
<DescLogPlotStart>   NEURALOG PLOT DEFINITION
PLOTDEFVERSION: 3
LASFILE: C:\Users\wadet\Desktop\Alphabow Evaluation\well_info\second_white_spec
DEPTHSCALE: 240.000000
RESOLUTION: 200
DEPTHLABELFREQ: 50.000000
HEAVYGRIDFREQ: 50.000000
MEDIUMGRIDFREQ: 25.000000
LIGHTGRIDFREQ: 5.000000
#
#   TRACK 1
#
STARTTRACK: 
 LEFTX: 0.500000 inch
 RIGHTX: 3.000000 inch
 SCALETYPE: Linear
 NUMCHARTDIVISIONS: 9
CURVE: GR    0.000000   150.000000 (0,0,255)      Solid             2     N    
CURVE: CALI  125.000000 375.000000 (0,131,131)    Dot               2     N    
ENDTRACK: 
#
#   TRACK 2
#
STARTTRACK: 
 LEFTX: 3.500000 inch
 RIGHTX: 8.500000 inch
 SCALETYPE: Linear
 NUMCHARTDIVISIONS: 10
CURVE: RHOB  2000.000000 3000.000000 (255,0,255)    Solid             2     N  
ENDTRACK: 
<DescLogPlotEnd>
~A DEPTH     GR               CALI             RHOB            
   1800.0000 109.57991803     248.20696721     2402.57731959   
   1800.1524 109.57991803     248.20696721     2402.57731959   
   1800.3048 109.57991803     248.20696721     2417.24248568   
   1800.4572 109.56481135     248.20696721     2434.53608247   
   1800.6096 109.49359905     248.19261286     2431.16281293   
   1800.7620 109.39650401     248.29327835     2387.96399667   
   1800.9144 109.28474481     250.72807217     2361.00269629   
   1801.0668 109.79638024     253.19124865     2342.08132907   
   1801.2192 110.51191988     255.64583410     2373.33803791   
   1801.3716 111.23195587     256.64376191     2404.57564562   
   1801.5240 111.94905423     256.12149149     2435.76578916   
   1801.6764 112.68523529     255.59860927     2466.98396859   
   1801.8288 114.05547062     255.07067814     2498.21594873   
   1801.9812 115.41076219     253.87531870     2529.17483051   
   1802.1336 116.14259916     252.25632383     2565.89022923   
   1802.2860 115.36061972     250.63300898     2537.85817147   
   1802.4384 114.62507341     249.11763388     2500.10263380   
   1802.5908 113.89109482     248.30817790     2462.24952894   
   1802.7432 113.14328341     247.50434360     2423.90929808   
   1802.8956 112.76334323     246.69520695     2409.27727188   
   1803.0480 112.48645978     245.87728978     2408.13225019   
   1803.2004 112.21392899     245.08423591     2446.36067571   
   1803.3528 111.94128348     243.44529632     2495.49117529   
   1803.5052 111.66862510     244.85718011     2536.32771123   
   1803.6576 111.39604187     246.39410398     2525.68580922   
   1803.8100 111.11981737     246.17293695     2481.43409049   
   1803.9624 110.84946436     246.18377441     2446.01368616   
   1804.1148 111.67759253     246.84856638     2475.41642835   
   1804.2672 112.69011495     249.85670523     2511.57651582   
   1804.4196 113.70712723     252.81695326     2544.22676744   
   1804.5720 114.72217197     255.76528934     2552.17933625   
   1804.7244 115.73861137     258.20640135     2556.67053481   
   1804.8768 116.76838068     256.44970098     2569.14666318   
   1805.0292 117.73514472     254.89809883     2581.44616765   
   1805.1816 114.71585941     255.83293723     2553.19615065   
   1805.3340 111.17585223     257.91269925     2536.36271356   
   1805.4864 107.62352152     256.37737416     2537.40346672   
   1805.6388 104.08840652     254.39715093     2545.18189270   
   1805.7912 101.25636178     256.38756534     2559.35986669   
   1805.9436 103.31664387     259.04823371     2582.04970855   
   1806.0960 105.43591691     258.19840584     2594.37139819   
   1806.2484 107.53509453     257.46180705     2579.03664319   
   1806.4008 109.63962096     257.97351820     2537.17801063   
   1806.5532 111.81414186     260.91803170     2486.13177674   
   1806.7056 111.80703345     267.15819717     2472.01772805   
   1806.8580 111.10483489     272.91726203     2505.59655151   
   1807.0104 110.37746400     271.38351688     2547.30008368   
   1807.1628 109.65143861     264.71630246     2554.58748486   
   1807.3152 108.92286814     260.60399118     2486.79534196   
   1807.4676 108.17052530     257.20358343     2423.40324400   
   1807.6200 108.59794609     249.57861227     2379.21930691   
   1807.7724 109.29611831     249.93395381     2397.54532073   
   1807.9248 109.02908319     249.78811991     2418.73647732   
   1808.0772 108.15438994     254.99526285     2397.16047516   
   1808.2296 107.27232026     260.86802522     2368.14399655   
   1808.3820 106.38419554     266.77073657     2342.16973591   
   1808.5344 105.49957066     272.65970712     2312.56844162   
   1808.6868 104.62570888     278.54397198     2274.28765413   
   1808.8392 104.75211067     282.26632897     2248.01247147   
   1808.9916 106.76590867     271.73487389     2297.83390415   
   1809.1440 108.75335267     260.79226917     2249.08365989   
   1809.2964 110.82006161     251.44761748     2308.10758952   
   1809.4488 111.40360757     252.85850590     2471.70205321   
   1809.6012 111.42663567     253.80046178     2458.08838059   
   1809.7536 111.42578860     255.78693194     2430.80586213   
   1809.9060 111.42864895     258.62687306     2403.76851258   
   1810.0584 111.43149464     261.49311713     2376.96529342   
   1810.2108 112.11915790     264.18772757     2350.47009513   
   1810.3632 113.52861791     266.54399059     2323.32353029   
   1810.5156 114.93771490     264.00905315     2296.22799186   
   1810.6680 116.36258550     257.60435108     2326.08499797   
   1810.8204 117.80748526     254.90535663     2383.11299425   
   1810.9728 117.29815649     254.71769797     2406.17349496   
   1811.1252 116.64395301     251.74725860     2405.57838877   
   1811.2776 115.99410893     257.11783898     2424.36345112   
   1811.4300 115.34815574     264.33085466     2460.85799073   
   1811.5824 114.70170492     264.09808864     2445.08968786   
   1811.7348 114.05525410     263.62176764     2381.18270151   
   1811.8872 113.40880328     264.23166093     2278.84265824   
   1812.0396 112.76351370     264.87406887     2250.63628485   
   1812.1920 112.11313503     265.51117246     2288.94615416   
   1812.3444 111.44953874     265.94030724     2366.21941175   
   1812.4968 110.91319689     264.62153421     2430.90203496   
   1812.6492 114.08748208     264.88844978     2474.43387935   
   1812.8016 117.47175008     259.97804067     2511.57489756   
   1812.9540 120.84364859     250.41394797     2548.56097420   
   1813.1064 124.14813083     250.18868077     2553.43981982   
   1813.2588 126.27209566     249.83901607     2538.09268648   
   1813.4112 121.38249384     249.73488485     2506.63901734   
   1813.5636 117.52966097     249.73924879     2498.72046475   
   1813.7160 113.70773830     249.74401494     2510.39339664   
   1813.8684 109.88225350     249.74456622     2547.62137161   
   1814.0208 108.26669566     249.77124769     2589.32307552   
   1814.1732 109.39377990     249.89600593     2637.44891032   
   1814.3256 110.50141253     250.01880884     2662.11989274   
   1814.4780 112.11666168     250.14134963     2650.09649308   
   1814.6304 114.34690818     250.25408148     2629.26751022   
   1814.7828 116.55290831     250.25662791     2623.22118449   
   1814.9352 118.22662847     250.25618622     2640.09384751   
   1815.0876 118.18635629     250.25611656     2644.08279922   
   1815.2400 118.18384493     250.25614754     2632.49983009   
   1815.3924 118.17718564     250.25614754     2600.12748082   
   1815.5448 118.16637723     250.29349991     2598.04572507   
   1815.6972 116.50883637     250.19124160     2628.47460505   
   1815.8496 112.73550211     251.18050017     2645.64731374   
   1816.0020 108.97721186     243.59920529     2555.04620499   
   1816.1544 106.24367964     253.46572081     2446.93386974   
   1816.3068 108.07608109     250.87810083     2449.82349287   
   1816.4592 110.42410205     250.35156764     2451.26155116   
   1816.6116 112.74654412     250.17867702     2442.27663687   
   1816.7640 115.07301437     250.83037953     2469.01502101   
   1816.9164 116.79435267     254.27301495     2500.60771753   
   1817.0688 118.09420806     266.26414063     2515.28360341   
   1817.2212 119.39578803     266.16027164     2524.43411811   
   1817.3736 120.70575410     266.13165433     2519.89046593   
   1817.5260 121.99936526     266.21329072     2505.16484472   
   1817.6784 121.26619112     262.77160080     2496.10964029   
   1817.8308 120.21240848     257.06217107     2477.87404007   
   1817.9832 119.15155073     257.24447285     2423.38617188   
   1818.1356 118.09186621     267.66923136     2349.45364482   
   1818.2880 117.03154312     257.13786387     2282.04984083   
   1818.4404 115.98062691     252.61933858     2288.97767801   
   1818.5928 115.02149643     248.00070061     2365.13353130   
   1818.7452 114.69304891     243.12859932     2461.95951071   
   1818.8976 114.34213630     242.90502931     2549.65908589   
