~Version Information Block
 VERS.                2.00:     CWLS LOG ASCII STANDARD - VERSION 2.000000
 WRAP.                  NO:     One Line Per Depth Step
#
~Well Information Block
#MNEM.UNIT                     Data                         Information
#----------   ------------------------------------------   ----------------
 STRT.M                                      1800.0000:     START DEPTH
 STOP.M                                      2199.8976:     STOP DEPTH
 STEP.M                                         0.1524:     STEP
 NULL.                                       -999.2500:     NULL VALUE
 COMP.                                        Alphabow:     COMPANY
 WELL.                   SOC PINE CK 12-2-56-19 #82576:     WELL
 FLD .                                                :     FIELD
 LOC .                                                :     LOCATION
 CNTY.                                                :     COUNTY
 STAT.                                                :     STATE
 CTRY.                                                :     COUNTRY
 SRVC.                                                :     SERVICE COMPANY
 DATE.                                      03/28/2025:     DATE
 API .                                100120205619W500:     API NUMBER
 UWI .                                100120205619W500:     UWI NUMBER
 TVD .                                              NO:     TVD flag
 WSTA.                                             LOC:     Well status
#
~Curve Information Block
#MNEM.UNIT       API CODE      Curve Description
#----------    -------------   -------------------
 DEPT.M                    :   Depth in Meters
 GR  .GAPI     35 310 01 01:   Gamma Ray
 CALI.mm       70 280 01 01:   Caliper
 RHOB.kg/m3     42 350 01 01:   Bulk Density
#
~Parameter Information Block
#MNEM.UNIT            Value               Description
#----------    --------------------    -------------------
 RUN .                         ONE:    Run Number
 PDAT.                         UNK:    Permanent Datum
 EPD .M                 -9999.5000:    Elevation Of Perm. Datum
 WSTA.                         LOC:    
 TD  .M                  2200.0000:    Total Depth
#
~Other Information Block
<DescLogPlotStart>   NEURALOG PLOT DEFINITION
PLOTDEFVERSION: 3
LASFILE: C:\Users\wadet\Desktop\Alphabow Evaluation\well_info\second_white_spec
DEPTHSCALE: 240.000000
RESOLUTION: 200
DEPTHLABELFREQ: 50.000000
HEAVYGRIDFREQ: 50.000000
MEDIUMGRIDFREQ: 25.000000
LIGHTGRIDFREQ: 5.000000
#
#   TRACK 1
#
STARTTRACK: 
 LEFTX: 0.500000 inch
 RIGHTX: 3.000000 inch
 SCALETYPE: Linear
 NUMCHARTDIVISIONS: 9
CURVE: GR    0.000000   150.000000 (0,0,255)      Solid             2     N    
CURVE: CALI  125.000000 375.000000 (0,131,131)    Dot               2     N    
ENDTRACK: 
#
#   TRACK 2
#
STARTTRACK: 
 LEFTX: 3.500000 inch
 RIGHTX: 8.500000 inch
 SCALETYPE: Linear
 NUMCHARTDIVISIONS: 10
CURVE: RHOB  2000.000000 3000.000000 (255,0,255)    Solid             2     N  
ENDTRACK: 
<DescLogPlotEnd>
~A DEPTH     GR               CALI             RHOB            
# ...
   2104.8000 123.70164415     219.94719960     2699.54471894   
   2104.9524 124.05045655     219.53187392     2705.06931581   
   2105.1048 127.30043665     219.50944996     2708.23904511   
   2105.2572 130.21247859     219.52094506     2713.93922872   
   2105.4096 131.21316163     221.92529530     2723.94780072   
   2105.5620 128.58862531     222.91784105     2731.15784044   
   2105.7144 125.11994965     221.22720942     2734.65547780   
   2105.8668 123.68302738     220.05345828     2728.41721256   
   2106.0192 123.05070342     220.28302839     2718.67138652   
   2106.1716 122.76013941     220.45672690     2714.05753562   
   2106.3240 124.95898464     221.64854687     2703.85590419   
   2106.4764 128.11917796     223.42108487     2692.71503638   
   2106.6288 130.82912598     221.65662495     2690.76570739   
   2106.7812 132.29873777     219.56698608     2700.90655349   
   2106.9336 133.14370112     219.50929718     2706.76689778   
   2107.0860 134.04081308     219.52539816     2704.39668570   
   2107.2384 133.99915131     219.93985273     2696.40714951   
   2107.3908 132.91090871     222.36828952     2689.75411145   
   2107.5432 132.82509768     222.53588811     2698.83023540   
   2107.6956 132.68265597     220.37707518     2706.97189254   
   2107.8480 131.31917169     219.52978150     2702.49276006   
   2108.0004 128.81873760     219.51582155     2693.41886594   
   2108.1528 127.61006068     219.54735793     2687.08322063   
   2108.3052 129.16851837     221.59589285     2703.23963402   
   2108.4576 132.16046052     223.35284855     2708.16520094   
   2108.6100 134.06747883     221.39679826     2700.37819375   
   2108.7624 133.35979870     220.00428056     2691.10331080   
   2108.9148 132.28433381     220.03001130     2689.97360936   
   2109.0672 131.52989752     220.05040421     2687.02980486   
   2109.2196 130.05190256     220.56651978     2682.42744902   
   2109.3720 128.90672966     222.56449440     2678.72063077   
   2109.5244 128.41676144     223.23757904     2687.97010117   
   2109.6768 128.33272138     222.44113629     2704.50951011   
   2109.8292 127.95651406     221.65315164     2715.94492485   
   2109.9816 126.65637877     220.84821055     2711.59014303   
   2110.1340 126.67052413     220.10685022     2706.93734558   
   2110.2864 130.35873219     222.07392928     2702.88193402   
   2110.4388 132.34315699     222.94924434     2709.61988534   
   2110.5912 131.57619824     220.35071448     2709.09736347   
   2110.7436 128.78091493     219.61147061     2692.42229557   
   2110.8960 127.17356203     220.88388530     2676.40641394   
   2111.0484 127.41249409     222.12732215     2671.84685644   
   2111.2008 127.71470757     223.37323722     2677.13172896   
   2111.3532 127.71103345     223.02050117     2683.92574084   
   2111.5056 128.06267198     220.45217910     2684.82217350   
   2111.6580 128.93871015     218.43817458     2685.90405881   
   2111.8104 130.86515312     218.49415465     2697.87950761   
   2111.9628 131.70028878     218.49749184     2709.29662283   
   2112.1152 130.24250018     218.49445335     2716.59817125   
   2112.2676 126.72286829     218.49541913     2711.68216070   
   2112.4200 123.25308326     218.49283890     2701.21447517   
   2112.5724 121.17939642     218.46882897     2693.86981034   
   2112.7248 120.69204785     219.21688090     2686.42165844   
   2112.8772 121.77090942     220.06201240     2687.18468653   
   2113.0296 123.55346172     220.92231037     2694.67484572   
   2113.1820 125.71783756     221.78821221     2696.68657764   
   2113.3344 127.38629150     222.48802558     2688.65123694   
   2113.4868 128.66723004     220.31421938     2678.77411277   
   2113.6392 129.27170834     218.47220784     2677.80291764   
   2113.7916 129.56252703     218.70431033     2683.43155688   
   2113.9440 129.88415925     218.88943282     2686.11244759   
   2114.0964 130.48468295     219.06463809     2683.32137104   
   2114.2488 130.46536496     219.24383090     2683.65287784   
   2114.4012 129.02897251     219.42339799     2691.71579931   
   2114.5536 126.66101726     219.86712482     2695.15854320   
   2114.7060 122.23284563     220.63772113     2687.22674862   
   2114.8584 119.86159036     221.40541459     2680.13005460   
   2115.0108 120.00168343     222.17520739     2679.16614717   
   2115.1632 121.37871750     222.94195712     2679.95849922   
   2115.3156 123.98486918     223.53076361     2679.69631558   
   2115.4680 124.18955028     222.89430104     2678.91333900   
   2115.6204 121.82172129     222.24350538     2679.04741307   
   2115.7728 120.34381319     221.59679308     2680.88267653   
   2115.9252 121.47610710     220.95052633     2681.99560725   
   2116.0776 126.40244718     220.30312362     2682.51939764   
   2116.2300 128.95854405     219.65374175     2683.90422355   
   2116.3824 129.85353674     219.02319934     2679.51095379   
   2116.5348 128.40476278     218.92185853     2671.24166974   
   2116.6872 126.23771014     218.84261110     2668.71938070   
   2116.8396 123.74004580     218.76172178     2680.64383793   
   2116.9920 124.97853501     218.68178133     2698.95799977   
   2117.1444 129.16993186     218.59836150     2713.42417063   
   2117.2968 134.41734470     218.48704092     2710.13813106   
   2117.4492 136.03955297     219.70122385     2701.66305969   
   2117.6016 135.25417124     221.28481509     2701.25920738   
   2117.7540 129.77963101     221.89495180     2707.74109042   
   2117.9064 120.76565630     218.55575328     2724.57376227   
   2118.0588 117.71915732     218.47902502     2733.79469743   
   2118.2112 119.89329348     218.50028892     2735.87855301   
   2118.3636 128.00672329     219.30312799     2714.98683799   
   2118.5160 137.98265736     220.90960385     2671.65567704   
   2118.6684 145.03088471     222.50517063     2661.83190339   
   2118.8208 147.92431064     223.63832006     2676.19938263   
   2118.9732 147.46198031     223.61428008     2690.15670890   
   2119.1256 142.28513998     223.61373487     2698.39360250   
   2119.2780 138.42292561     223.45206774     2699.47681483   
   2119.4304 137.23892057     223.11219702     2699.50783855   
   2119.5828 139.40812886     222.76488995     2699.54120885   
   2119.7352 142.00954605     221.24289660     2699.37776312   
   2119.8876 141.86875534     218.43401209     2695.80313205   
   2120.0400 139.98599313     218.72759760     2695.50433537   
   2120.1924 137.24590713     218.93412947     2697.01305910   
   2120.3448 138.19618988     219.82105815     2697.68715503   
   2120.4972 140.08072447     221.21907444     2685.43092259   
   2120.6496 140.54686059     222.46715272     2666.17110632   
   2120.8020 140.10994494     219.60573886     2657.64251849   
   2120.9544 138.70333748     219.17378113     2661.56790455   
   2121.1068 136.33375075     219.34294505     2667.99818253   
   2121.2592 134.83726201     219.74494291     2668.18632573   
   2121.4116 134.98779776     221.72153058     2673.59733041   
   2121.5640 135.07583319     223.82761827     2681.19436572   
   2121.7164 135.09508744     221.26094652     2689.12085434   
   2121.8688 134.16683615     219.54636031     2689.19722154   
   2122.0212 134.94120851     219.53179835     2685.27437433   
   2122.1736 138.56440933     219.51783773     2676.72936281   
   2122.3260 140.52922882     219.43230624     2665.69909521   
   2122.4784 139.19906616     219.29544047     2655.61782547   
   2122.6308 135.56721574     219.15617876     2653.06431574   
   2122.7832 135.13134612     219.01309743     2661.82440458   
   2122.9356 135.97762143     219.00383019     2674.46344552   
   2123.0880 135.64977111     218.99696463     2682.00207034   
   2123.2404 134.55670594     219.04648710     2686.02108366   
   2123.3928 134.45624510     220.73314590     2687.92043860   
   2123.5452 135.48067116     222.60882967     2688.98238315   
   2123.6976 137.10865687     221.21877411     2685.79017394   
