~Version Information Block
 VERS.                2.00:     CWLS LOG ASCII STANDARD - VERSION 2.000000
 WRAP.                  NO:     One Line Per Depth Step
#
~Well Information Block
#MNEM.UNIT                     Data                         Information
#----------   ------------------------------------------   ----------------
 STRT.M                                      1800.0000:     START DEPTH
 STOP.M                                      2199.8976:     STOP DEPTH
 STEP.M                                         0.1524:     STEP
 NULL.                                       -999.2500:     NULL VALUE
 COMP.                                        Alphabow:     COMPANY
 WELL.                   SOC PINE CK 12-2-56-19 #82576:     WELL
 FLD .                                                :     FIELD
 LOC .                                                :     LOCATION
 CNTY.                                                :     COUNTY
 STAT.                                                :     STATE
 CTRY.                                                :     COUNTRY
 SRVC.                                                :     SERVICE COMPANY
 DATE.                                      03/28/2025:     DATE
 API .                                100120205619W500:     API NUMBER
 UWI .                                100120205619W500:     UWI NUMBER
 TVD .                                              NO:     TVD flag
 WSTA.                                             LOC:     Well status
#
~Curve Information Block
#MNEM.UNIT       API CODE      Curve Description
#----------    -------------   -------------------
 DEPT.M                    :   Depth in Meters
 GR  .GAPI     35 310 01 01:   Gamma Ray
 CALI.mm       70 280 01 01:   Caliper
 RHOB.kg/m3     42 350 01 01:   Bulk Density
#
~Parameter Information Block
#MNEM.UNIT            Value               Description
#----------    --------------------    -------------------
 RUN .                         ONE:    Run Number
 PDAT.                         UNK:    Permanent Datum
 EPD .M                 -9999.5000:    Elevation Of Perm. Datum
 WSTA.                         LOC:    
 TD  .M                  2200.0000:    Total Depth
#
~Other Information Block
<DescLogPlotStart>   NEURALOG PLOT DEFINITION
PLOTDEFVERSION: 3
LASFILE: C:\Users\wadet\Desktop\Alphabow Evaluation\well_info\second_white_spec
DEPTHSCALE: 240.000000
RESOLUTION: 200
DEPTHLABELFREQ: 50.000000
HEAVYGRIDFREQ: 50.000000
MEDIUMGRIDFREQ: 25.000000
LIGHTGRIDFREQ: 5.000000
#
#   TRACK 1
#
STARTTRACK: 
 LEFTX: 0.500000 inch
 RIGHTX: 3.000000 inch
 SCALETYPE: Linear
 NUMCHARTDIVISIONS: 9
CURVE: GR    0.000000   150.000000 (0,0,255)      Solid             2     N    
CURVE: CALI  125.000000 375.000000 (0,131,131)    Dot               2     N    
ENDTRACK: 
#
#   TRACK 2
#
STARTTRACK: 
 LEFTX: 3.500000 inch
 RIGHTX: 8.500000 inch
 SCALETYPE: Linear
 NUMCHARTDIVISIONS: 10
CURVE: RHOB  2000.000000 3000.000000 (255,0,255)    Solid             2     N  
ENDTRACK: 
<DescLogPlotEnd>
~A DEPTH     GR               CALI             RHOB            
# ...
   2085.7500 125.84304050     218.12783309     2723.10250518   
   2085.9024 126.22680324     217.95705541     2708.29501585   
   2086.0548 126.88842704     217.97667584     2691.60554786   
   2086.2072 127.32815909     217.98056917     2679.01562363   
   2086.3596 128.35598394     218.04785231     2680.18545045   
   2086.5120 130.54972578     218.12718134     2694.19750452   
   2086.6644 132.31820944     218.20692107     2715.85765180   
   2086.8168 132.33686300     218.28712852     2736.90673715   
   2086.9692 131.22135905     218.37202126     2747.86062331   
   2087.1216 129.88327818     218.47115664     2744.15893818   
   2087.2740 128.94988539     220.13036441     2737.50112293   
   2087.4264 129.57468590     223.93143471     2726.55604725   
   2087.5788 131.07105965     221.37022549     2720.13807759   
   2087.7312 132.59777915     218.56545207     2718.75799496   
   2087.8836 133.16229837     218.47625312     2714.67707936   
   2088.0360 132.57193683     218.49803013     2706.75600639   
   2088.1884 131.46227041     218.87492906     2701.64669656   
   2088.3408 131.64257902     221.40859042     2701.68351216   
   2088.4932 132.67808505     223.21666841     2704.78544772   
   2088.6456 134.49421114     220.01045313     2714.63335620   
   2088.7980 135.19941479     217.95220940     2727.09232790   
   2088.9504 135.43683041     217.98493509     2728.95886245   
   2089.1028 135.74659514     217.93250130     2717.95969477   
   2089.2552 136.66636348     220.43423032     2702.85644828   
   2089.4076 137.95532202     223.43343218     2693.04377976   
   2089.5600 137.86098538     220.60805441     2689.05657746   
   2089.7124 137.54959689     218.00029488     2686.92331492   
   2089.8648 137.55768891     217.96820813     2684.35411839   
   2090.0172 137.55266086     217.95885270     2685.02530216   
   2090.1696 137.81959918     218.10179988     2684.94430172   
   2090.3220 139.22455864     221.76174127     2690.30632577   
   2090.4744 141.12704729     222.23568291     2697.72815452   
   2090.6268 140.08622737     219.60986035     2693.37825793   
   2090.7792 135.62126693     217.96476074     2690.84509648   
   2090.9316 130.92468007     218.00079012     2690.70781318   
   2091.0840 129.62222721     217.99980855     2698.21167625   
   2091.2364 130.87377172     219.87842789     2704.90549464   
   2091.3888 133.76737376     222.94051482     2711.72501365   
   2091.5412 134.67717025     220.18851596     2713.08969608   
   2091.6936 135.12943550     217.06137341     2707.77970436   
   2091.8460 136.69489354     217.10676522     2694.88773118   
   2091.9984 139.85861278     217.29079206     2685.09558375   
   2092.1508 143.04606534     217.46294719     2685.63526564   
   2092.3032 140.46497790     217.63041733     2690.55155255   
   2092.4556 131.00679738     217.79925978     2697.58625191   
   2092.6080 120.59083827     217.97706454     2708.88161476   
   2092.7604 116.03810938     218.23022347     2733.43160107   
   2092.9128 117.89979767     218.50074434     2749.80758346   
   2093.0652 123.74612343     218.77117385     2742.42475665   
   2093.2176 129.16905262     219.04127807     2727.40526798   
   2093.3700 133.46117826     219.32475172     2711.37192252   
   2093.5224 134.52493474     219.99549523     2704.39550518   
   2093.6748 131.91979659     222.08928599     2698.08420858   
   2093.8272 127.65357944     224.04039029     2686.76260167   
   2093.9796 125.88223797     223.05422575     2678.86301646   
   2094.1320 126.77046140     221.94558479     2678.91294753   
   2094.2844 128.26368513     220.83669758     2680.18730279   
   2094.4368 129.37569633     219.67617231     2683.73583670   
   2094.5892 129.18598966     221.07444856     2698.04406843   
   2094.7416 128.65954893     223.07211359     2708.96220271   
   2094.8940 128.31818320     222.85377155     2710.90923152   
   2095.0464 129.26616421     221.79975672     2697.93094133   
   2095.1988 131.10845920     220.72577179     2687.99644918   
   2095.3512 131.89069056     219.65956456     2689.35672689   
   2095.5036 129.58538737     219.89686596     2698.78242664   
   2095.6560 126.06949544     221.99830413     2703.97925308   
   2095.8084 124.07880154     223.62777194     2710.41157940   
   2095.9608 123.43035128     223.41080620     2718.32812674   
   2096.1132 123.89356683     223.24319943     2726.87589476   
   2096.2656 125.27005692     223.12368376     2729.32440744   
   2096.4180 126.68873737     223.29110614     2715.65407943   
   2096.5704 127.27042620     223.45773319     2699.37239724   
   2096.7228 127.04012059     223.59034997     2693.02773806   
   2096.8752 126.53199731     222.77958959     2695.55366562   
   2097.0276 126.77907287     221.91595394     2699.83339831   
   2097.1800 126.77585866     221.05339074     2704.99953629   
   2097.3324 126.24591894     220.21283146     2705.50439187   
   2097.4848 125.85944691     219.87673443     2699.91388988   
   2097.6372 126.88422374     221.85413952     2697.20581757   
   2097.7896 129.37386105     223.24130199     2701.83699583   
   2097.9420 133.16871840     223.55072382     2714.27100878   
   2098.0944 135.68050940     223.87634346     2716.83665636   
   2098.2468 137.40643068     224.09946832     2706.26144175   
   2098.3992 134.94661422     223.92942282     2696.81931694   
   2098.5516 129.71117979     223.77103848     2687.27598509   
   2098.7040 124.47528616     223.58765350     2687.99083779   
   2098.8564 120.50481815     222.82056232     2690.32773051   
   2099.0088 120.44441614     222.06345965     2697.06310195   
   2099.1612 121.33273218     221.31124085     2705.58684838   
   2099.3136 123.10832463     220.58654368     2721.04651170   
   2099.4660 124.93026347     220.59045201     2722.75616372   
   2099.6184 126.51823987     222.87279974     2711.28778402   
   2099.7708 126.76251057     224.12290455     2698.76565328   
   2099.9232 125.92704893     224.11962529     2693.10822362   
   2100.0756 125.61775057     224.12865665     2689.08975594   
   2100.2280 126.54903311     224.12960241     2686.11681365   
   2100.3804 128.34827022     224.12909836     2684.91134826   
   2100.5328 129.58708706     224.12909836     2686.28577036   
   2100.6852 129.79230735     224.12907356     2687.26870651   
   2100.8376 129.03862623     224.12887559     2689.00212042   
   2100.9900 128.54754138     224.12913602     2690.61404614   
   2101.1424 125.75609927     224.13276543     2687.01167150   
   2101.2948 122.10685164     224.01222366     2677.55537168   
   2101.4472 120.60820202     223.85755687     2672.68206599   
   2101.5996 121.74899362     223.68956017     2680.72100034   
   2101.7520 125.05837992     222.39951211     2700.41468978   
   2101.9044 126.76469229     219.53235952     2710.91081632   
   2102.0568 127.80898765     219.50521554     2709.61366269   
   2102.2092 130.05181538     219.53657173     2702.10531008   
   2102.3616 132.04365365     220.09461994     2697.31857542   
   2102.5140 133.70717020     222.44217102     2698.94590975   
   2102.6664 132.65468904     222.46598316     2707.21092258   
   2102.8188 131.66599876     220.11050502     2714.50478457   
   2102.9712 132.59843922     219.53701473     2711.15517555   
   2103.1236 132.95321132     219.52416046     2696.17678347   
   2103.2760 130.60151964     219.52260954     2667.97085988   
   2103.4284 125.84376803     220.74044813     2662.55394620   
   2103.5808 124.33550391     223.16320625     2671.55595477   
   2103.7332 125.52886769     221.78755278     2687.68900249   
   2103.8856 125.82768132     219.58392951     2697.26834731   
   2104.0380 123.05612337     219.51067002     2690.30291862   
   2104.1904 121.00368463     219.52535522     2679.51389774   
   2104.3428 122.48491329     220.42620075     2675.80848315   
   2104.4952 124.33797841     223.11728483     2681.12257991   
   2104.6476 124.28629440     222.00465951     2689.64435060   
