~Version Information Block
 VERS.                2.00:     CWLS LOG ASCII STANDARD - VERSION 2.000000
 WRAP.                  NO:     One Line Per Depth Step
#
~Well Information Block
#MNEM.UNIT                     Data                         Information
#----------   ------------------------------------------   ----------------
 STRT.M                                      1800.0000:     START DEPTH
 STOP.M                                      2199.8976:     STOP DEPTH
 STEP.M                                         0.1524:     STEP
 NULL.                                       -999.2500:     NULL VALUE
 COMP.                                        Alphabow:     COMPANY
 WELL.                   SOC PINE CK 12-2-56-19 #82576:     WELL
 FLD .                                                :     FIELD
 LOC .                                                :     LOCATION
 CNTY.                                                :     COUNTY
 STAT.                                                :     STATE
 CTRY.                                                :     COUNTRY
 SRVC.                                                :     SERVICE COMPANY
 DATE.                                      03/28/2025:     DATE
 API .                                100120205619W500:     API NUMBER
 UWI .                                100120205619W500:     UWI NUMBER
 TVD .                                              NO:     TVD flag
 WSTA.                                             LOC:     Well status
#
~Curve Information Block
#MNEM.UNIT       API CODE      Curve Description
#----------    -------------   -------------------
 DEPT.M                    :   Depth in Meters
 GR  .GAPI     35 310 01 01:   Gamma Ray
 CALI.mm       70 280 01 01:   Caliper
 RHOB.kg/m3     42 350 01 01:   Bulk Density
#
~Parameter Information Block
#MNEM.UNIT            Value               Description
#----------    --------------------    -------------------
 RUN .                         ONE:    Run Number
 PDAT.                         UNK:    Permanent Datum
 EPD .M                 -9999.5000:    Elevation Of Perm. Datum
 WSTA.                         LOC:    
 TD  .M                  2200.0000:    Total Depth
#
~Other Information Block
<DescLogPlotStart>   NEURALOG PLOT DEFINITION
PLOTDEFVERSION: 3
LASFILE: C:\Users\wadet\Desktop\Alphabow Evaluation\well_info\second_white_spec
DEPTHSCALE: 240.000000
RESOLUTION: 200
DEPTHLABELFREQ: 50.000000
HEAVYGRIDFREQ: 50.000000
MEDIUMGRIDFREQ: 25.000000
LIGHTGRIDFREQ: 5.000000
#
#   TRACK 1
#
STARTTRACK: 
 LEFTX: 0.500000 inch
 RIGHTX: 3.000000 inch
 SCALETYPE: Linear
 NUMCHARTDIVISIONS: 9
CURVE: GR    0.000000   150.000000 (0,0,255)      Solid             2     N    
CURVE: CALI  125.000000 375.000000 (0,131,131)    Dot               2     N    
ENDTRACK: 
#
#   TRACK 2
#
STARTTRACK: 
 LEFTX: 3.500000 inch
 RIGHTX: 8.500000 inch
 SCALETYPE: Linear
 NUMCHARTDIVISIONS: 10
CURVE: RHOB  2000.000000 3000.000000 (255,0,255)    Solid             2     N  
ENDTRACK: 
<DescLogPlotEnd>
~A DEPTH     GR               CALI             RHOB            
# ...
   2047.6500 116.38448540     250.36997183     2544.02947256   
   2047.8024 113.75376130     248.44438516     2550.09391919   
   2047.9548 111.79080154     247.23355861     2566.64060590   
   2048.1072 111.48665927     245.98857313     2576.05843779   
   2048.2596 113.74015752     244.65042083     2583.08075946   
   2048.4120 117.36407295     243.24453890     2563.80183773   
   2048.5644 119.07212675     243.98654535     2552.03592353   
   2048.7168 117.22552503     246.56947165     2555.08567899   
   2048.8692 114.30003427     249.12904390     2560.20500874   
   2049.0216 113.14047315     251.74979827     2555.62181600   
   2049.1740 112.95190597     249.75079556     2560.45201912   
   2049.3264 112.59237702     245.06450674     2592.01861447   
   2049.4788 112.96130647     242.08434369     2621.38480116   
   2049.6312 112.99401430     239.57654798     2626.21218605   
   2049.7836 112.68349958     240.57639652     2606.28632125   
   2049.9360 112.13490319     241.59602328     2594.67135236   
   2050.0884 110.41642528     242.59810654     2601.61143302   
   2050.2408 108.86483465     243.59722336     2618.12441425   
   2050.3932 107.38676069     244.40450820     2636.77834305   
   2050.5456 107.44244331     245.01111824     2628.08114588   
   2050.6980 108.93940112     245.61836458     2605.12292002   
   2050.8504 112.58012257     246.29401241     2589.67099018   
   2051.0028 114.84804795     247.47447362     2574.10942315   
   2051.1552 116.67634646     248.64555927     2553.66332355   
   2051.3076 116.73158318     247.19911082     2541.63472332   
   2051.4600 115.92489099     245.53240147     2541.62177801   
   2051.6124 114.75524986     243.80884476     2569.01426930   
   2051.7648 112.76835517     241.77446750     2609.00269322   
   2051.9172 110.72944686     240.22349179     2645.07369934   
   2052.0696 110.14404512     242.09926107     2647.84333248   
   2052.2220 110.14400060     243.93048623     2629.20293578   
   2052.3744 110.21755627     245.75409565     2596.70749659   
   2052.5268 110.39157577     246.81663319     2587.10949029   
   2052.6792 112.04189116     247.68143500     2589.48923618   
   2052.8316 114.09140160     248.54537183     2591.19425564   
   2052.9840 115.20831270     248.91701768     2584.96735134   
   2053.1364 115.40222459     249.14780653     2569.09386385   
   2053.2888 114.18255826     250.36172982     2561.11501700   
   2053.4412 113.06094423     251.77619827     2570.58801033   
   2053.5936 111.68171222     252.06702288     2594.93899282   
   2053.7460 110.16041818     249.05891289     2608.80349309   
   2053.8984 109.24294974     247.05334043     2620.04052417   
   2054.0508 109.17103456     245.27966170     2624.81181882   
   2054.2032 110.97231567     243.46734564     2621.90583541   
   2054.3556 113.85136336     243.94631896     2594.64196945   
   2054.5080 116.70754292     245.08888501     2568.51014684   
   2054.6604 119.76617095     246.22222215     2549.64534501   
   2054.8128 119.80315306     251.32817020     2535.47712851   
   2054.9652 118.13689402     257.75442286     2524.34698147   
   2055.1176 115.48962534     260.32144637     2507.22929206   
   2055.2700 115.58426669     255.12063344     2519.49214052   
   2055.4224 117.55934640     251.45837493     2556.61246735   
   2055.5748 117.80523572     249.15628627     2592.25448112   
   2055.7272 115.08554244     246.87689693     2603.65768469   
   2055.8796 113.03654225     244.61074287     2595.93187401   
   2056.0320 114.26024095     242.35254204     2586.73868508   
   2056.1844 117.37633266     240.08556223     2583.88742302   
   2056.3368 119.20149838     239.39688924     2594.55954255   
   2056.4892 116.91779406     240.14742188     2615.43835596   
   2056.6416 114.06135904     240.89465725     2651.65298863   
   2056.7940 114.45467433     241.58991904     2671.85088659   
   2056.9464 118.82172955     241.90692582     2653.45319327   
   2057.0988 123.10818620     242.22116316     2624.59984207   
   2057.2512 125.87066636     242.53687632     2614.68989675   
   2057.4036 126.11004841     242.84306156     2631.42575015   
   2057.5560 124.63125169     242.89167424     2635.47740540   
   2057.7084 121.24358369     242.02875745     2613.57892450   
   2057.8608 119.49188874     241.20210307     2582.04457607   
   2058.0132 117.66577238     240.63733931     2558.37272458   
   2058.1656 119.82670229     241.38440710     2563.13815232   
   2058.3180 122.37104554     242.17380851     2583.50700625   
   2058.4704 123.42622958     242.95397420     2575.57402909   
   2058.6228 123.10702749     243.73929875     2552.45016947   
   2058.7752 122.39647697     244.51585877     2530.02812927   
   2058.9276 121.86711570     245.14876927     2535.06897492   
   2059.0800 121.87289937     245.15382912     2560.51825767   
   2059.2324 122.21438299     245.72931228     2590.41873801   
   2059.3848 122.16763925     247.87214558     2602.16068764   
   2059.5372 122.97933772     249.05130759     2602.27424000   
   2059.6896 123.97766750     248.44476966     2600.13200588   
   2059.8420 123.99302723     246.83085918     2610.74941994   
   2059.9944 122.21683622     244.56851297     2624.87127651   
   2060.1468 120.71474098     242.19336783     2621.00846211   
   2060.2992 120.63757042     242.68989560     2605.96805443   
   2060.4516 120.40068361     244.31784236     2613.23728858   
   2060.6040 120.26038127     245.95444402     2647.62271031   
   2060.7564 120.07722998     245.72795928     2650.95959282   
   2060.9088 120.89764746     245.24721696     2613.92493256   
   2061.0612 123.22985986     244.76070141     2576.29865235   
   2061.2136 125.56456827     244.24715633     2551.28011765   
   2061.3660 127.07003942     244.63250766     2546.50405561   
   2061.5184 126.71013208     245.40237836     2583.71737714   
   2061.6708 126.79400898     246.17929584     2613.64954720   
   2061.8232 128.42681105     246.67599430     2581.59074819   
   2061.9756 128.97825800     246.66752181     2533.01030920   
   2062.1280 128.18755423     246.66355487     2487.94529113   
   2062.2804 126.53103660     246.70641861     2506.56238795   
   2062.4328 125.46620564     247.69597744     2545.87035273   
   2062.5852 125.02198069     248.69461268     2574.78406224   
   2062.7376 124.88766117     249.68831801     2579.91051425   
   2062.8900 124.27657869     250.68229368     2566.47305403   
   2063.0424 122.94510609     251.67556644     2549.51272654   
   2063.1948 122.25279010     252.63824756     2538.78301537   
   2063.3472 123.98616837     252.66961152     2558.53978908   
   2063.4996 125.89554877     250.26563974     2593.86602604   
   2063.6520 125.48225700     248.01588174     2628.17187750   
   2063.8044 122.84777828     251.19716903     2632.79455095   
   2063.9568 122.40603020     254.15487650     2616.18808569   
   2064.1092 126.94222626     252.71981972     2599.59532709   
   2064.2616 131.74121565     251.38079642     2574.75380789   
   2064.4140 132.97547528     250.05680830     2536.57156624   
   2064.5664 131.12604939     248.72565598     2483.15249130   
   2064.7188 128.36141057     247.39212867     2437.79395153   
   2064.8712 128.21947652     246.06929411     2443.37423864   
   2065.0236 128.73332418     242.96204815     2469.40068266   
   2065.1760 129.16287635     240.30865713     2516.63807902   
   2065.3284 128.59197121     242.00905256     2570.33393781   
   2065.4808 128.38714799     243.63069240     2636.98288256   
   2065.6332 129.54884511     245.44959037     2633.53742916   
   2065.7856 130.78266498     247.44923962     2598.09654498   
   2065.9380 131.36229882     249.10614444     2549.33832190   
   2066.0904 130.52894468     246.76873352     2512.38173308   
   2066.2428 127.95813493     244.43900186     2509.84914089   
   2066.3952 125.53252219     242.17710962     2506.32241179   
   2066.5476 125.39850979     243.68068803     2502.98578938   
